"OBJECTID","YEAR_","STATE","AGENCY","UNIT_ID","FIRE_NAME","INC_NUM","ALARM_DATE","CONT_DATE","CAUSE","C_METHOD","OBJECTIVE","GIS_ACRES","COMMENTS","COMPLEX_NAME","IRWINID","FIRE_NUM","COMPLEX_ID","DECADES","Shape__Area","Shape__Length","Lon","Lat","TEMPERATURE_2M_ALARM_DATE"
10854,1987,"CA","USF U.S. Forest Service","BDF","JEEP","00000000",NA,NA,"Unknown/Unidentified",NA,"Suppression (Wildfire)",1867.389,NA,NA,NA,"00000000",NA,"1980-1989",11108011.4453125,14192.4017476854,-117.177884457746,34.3271456271004,NA
10856,1987,"CA","USF U.S. Forest Service","SHF"," ","00000000",NA,NA,"Lightning",NA,"Suppression (Wildfire)",1733.999,NA,NA,NA,"00000221",NA,"1980-1989",12399412.6835938,22750.7091955758,-122.768453030964,41.1816551714157,NA
10857,1987,"CA","CDF CAL FIRE (State)","MMU","MERCED FALLS","00001270",NA,NA,"Unknown/Unidentified",NA,"Suppression (Wildfire)",1722.568,NA,NA,NA,"00000225",NA,"1980-1989",11122417.7890625,14409.3150126154,-120.293688937454,37.5933533509049,NA
10866,1987,"CA","USF U.S. Forest Service","BDF"," ","00000000",NA,NA,"Unknown/Unidentified",NA,"Suppression (Wildfire)",1300.417,NA,NA,NA,"00000000",NA,"1980-1989",7658176.8515625,11529.5257923637,-116.708174111513,33.8987627486869,NA
10877,1987,"CA","BLM Bureau of Land Management","NOD"," ","00000000",NA,NA,"Unknown/Unidentified",NA,"Suppression (Wildfire)",1071.081,NA,NA,NA,"0000D315",NA,"1980-1989",7531838.98828125,13906.8612194339,-120.450268224853,40.6235406266435,NA
10883,1987,"CA","USF U.S. Forest Service","BDF"," ","00000000",NA,NA,"Unknown/Unidentified",NA,"Suppression (Wildfire)",951.8984,NA,NA,NA,"00000000",NA,"1980-1989",5652477.140625,9355.40024192758,-117.445373400161,34.2536164641779,NA
10887,1987,"CA","BLM Bureau of Land Management","NOD"," ","00000000",NA,NA,"Unknown/Unidentified","Unknown","Suppression (Wildfire)",903.9213,NA,NA,NA,"0000D430",NA,"1980-1989",6375358.72265625,16262.7781250789,-120.50518953118,40.7237602104011,NA
10890,1987,"CA","CDF CAL FIRE (State)","RRU","RECHE","00000000",NA,NA,"Unknown/Unidentified",NA,"Suppression (Wildfire)",862.7175,NA,NA,NA,"00000000",NA,"1980-1989",5077270.5390625,11184.7700701151,-116.985339631899,33.8708989820233,NA
10892,1987,"CA","USF U.S. Forest Service","LNF"," ","00000000",NA,NA,"Unknown/Unidentified",NA,"Suppression (Wildfire)",832.1506,NA,NA,NA,"00000152",NA,"1980-1989",5833836.28515625,10634.0296447011,-121.328440475902,40.5205733078075,NA
10897,1987,"CA","NPS National Park Service","LNP","SNAG COMPLEX",NA,NA,NA,"Lightning","Hand-drawn","Suppression (Wildfire)",720.4342,"Merged PUPPY & STACY wildfires","SNAG COMPLEX",NA,"87-29","00000000","1980-1989",5049710.625,13646.614470225,-121.322571888491,40.5143355291862,NA
10912,1987,"CA","USF U.S. Forest Service","SHF"," ","00000000",NA,NA,"Lightning",NA,"Suppression (Wildfire)",468.7148,NA,NA,NA,"00000203",NA,"1980-1989",3334086.1484375,8579.31857592443,-121.768146442589,41.0075869683075,NA
10913,1987,"CA","USF U.S. Forest Service","BDF"," ","00000000",NA,NA,"Unknown/Unidentified",NA,"Suppression (Wildfire)",465.1608,NA,NA,NA,"00000000",NA,"1980-1989",2767533.43359375,6960.10227739358,-117.438840256489,34.3357585663701,NA
10929,1987,"CA","USF U.S. Forest Service","SHF"," ","00000000",NA,NA,"Lightning",NA,"Suppression (Wildfire)",370.447,NA,NA,NA,"00000216",NA,"1980-1989",2651815.76953125,10658.4048377903,-122.685273192681,41.2169777415664,NA
10930,1987,"CA","CDF CAL FIRE (State)","MMU","BRILEBURG","00002076",NA,NA,"Unknown/Unidentified",NA,"Suppression (Wildfire)",368.5139,NA,NA,NA,"00000409",NA,"1980-1989",2381177.40234375,6590.80201483581,-119.94848364446,37.6205726345624,NA
10934,1987,"CA","USF U.S. Forest Service","BDF"," ","00000000",NA,NA,"Unknown/Unidentified",NA,"Suppression (Wildfire)",335.1448,NA,NA,NA,"00000000",NA,"1980-1989",1991371.98046875,5914.34415863205,-116.795197303924,34.2801714627377,NA
10939,1987,"CA","USF U.S. Forest Service","BDF"," ","00000000",NA,NA,"Unknown/Unidentified",NA,"Suppression (Wildfire)",292.7884,NA,NA,NA,"00000000",NA,"1980-1989",1732601.83203125,5422.84750763361,-117.001615461584,34.1062337650655,NA
10941,1987,"CA","USF U.S. Forest Service","BDF"," ","00000000",NA,NA,"Unknown/Unidentified",NA,"Suppression (Wildfire)",288.4902,NA,NA,NA,"00000000",NA,"1980-1989",1715115.51953125,5918.78734579248,-117.202467259285,34.3038340479704,NA
10946,1987,"CA","USF U.S. Forest Service","BDF"," ","00000000",NA,NA,"Unknown/Unidentified",NA,"Suppression (Wildfire)",247.1688,NA,NA,NA,"00000000",NA,"1980-1989",1466657.64453125,5362.99448028416,-117.446155036162,34.2229830354633,NA
10962,1987,"CA","USF U.S. Forest Service","BDF"," ","00000000",NA,NA,"Unknown/Unidentified",NA,"Suppression (Wildfire)",184.5135,NA,NA,NA,"00000000",NA,"1980-1989",1098186.83203125,4194.64249020724,-116.996678029827,34.3511978637111,NA
10969,1987,"CA","USF U.S. Forest Service","BDF"," ","00000000",NA,NA,"Unknown/Unidentified",NA,"Suppression (Wildfire)",170.7766,NA,NA,NA,"00000000",NA,"1980-1989",1013889.1953125,4379.3383882355,-117.494697850774,34.2452021590633,NA
10971,1987,"CA","USF U.S. Forest Service","BDF"," ","00000000",NA,NA,"Unknown/Unidentified",NA,"Suppression (Wildfire)",165.2905,NA,NA,NA,"00000000",NA,"1980-1989",980013.70703125,4327.15812779175,-117.280532811137,34.1886244302801,NA
10981,1987,"CA","USF U.S. Forest Service","BDF"," ","00000000",NA,NA,"Unknown/Unidentified",NA,"Suppression (Wildfire)",131.052,NA,NA,NA,"00000000",NA,"1980-1989",779478.6875,3620.46883823526,-117.50408344049,34.3231722343491,NA
10996,1987,"CA","USF U.S. Forest Service","BDF"," ","00000000",NA,NA,"Unknown/Unidentified",NA,"Suppression (Wildfire)",100.167,NA,NA,NA,"00000000",NA,"1980-1989",594988.109375,3191.42454894463,-117.521646941779,34.2668447684493,NA
11004,1987,"CA","USF U.S. Forest Service","BDF"," ","00000000",NA,NA,"Unknown/Unidentified",NA,"Suppression (Wildfire)",74.96023,NA,NA,NA,"00000000",NA,"1980-1989",438764.55859375,2684.68531877035,-116.514995519507,33.6356504270478,NA
11005,1987,"CA","USF U.S. Forest Service","BDF"," ","00000000",NA,NA,"Unknown/Unidentified",NA,"Suppression (Wildfire)",74.19938,NA,NA,NA,"00000000",NA,"1980-1989",439538.3671875,2429.2464845525,-117.546055741134,34.1505864594239,NA
11011,1987,"CA","USF U.S. Forest Service","BDF"," ","00000000",NA,NA,"Unknown/Unidentified",NA,"Suppression (Wildfire)",62.39503,NA,NA,NA,"00000000",NA,"1980-1989",371254.96484375,2352.41649973637,-117.492755258505,34.3389391907054,NA
11015,1987,"CA","CDF CAL FIRE (State)","RRU"," ","00000000",NA,NA,"Unknown/Unidentified",NA,"Suppression (Wildfire)",57.11383,NA,NA,NA,"00000000",NA,"1980-1989",337243.828125,2711.9189650129,-117.279768194391,34.0134521961707,NA
11017,1987,"CA","NPS National Park Service","YNP"," ","00000000",NA,NA,"Lightning",NA,"Suppression (Wildfire)",55.53209,NA,NA,NA,"00000057",NA,"1980-1989",361094.8203125,2705.70822164706,-119.793568056323,37.8560194878942,NA
11026,1987,"CA","USF U.S. Forest Service","BDF"," ","00000000",NA,NA,"Unknown/Unidentified",NA,"Suppression (Wildfire)",40.89236,NA,NA,NA,"00000000",NA,"1980-1989",239241.99609375,1792.68353307036,-116.532891417231,33.6150786582588,NA
11029,1987,"CA","BLM Bureau of Land Management","NOD"," ","00000000",NA,NA,"Unknown/Unidentified","Unknown","Suppression (Wildfire)",38.82423,NA,NA,NA,"0000D436",NA,"1980-1989",272738.1171875,2503.35632707466,-120.40377195388,40.5897642013136,NA
11033,1987,"CA","USF U.S. Forest Service","BDF"," ","00000000",NA,NA,"Unknown/Unidentified",NA,"Suppression (Wildfire)",33.65345,NA,NA,NA,"00000000",NA,"1980-1989",199982.96875,1665.80293916663,-117.464998896621,34.2844162246943,NA
11046,1987,"CA","USF U.S. Forest Service","BDF"," ","00000000",NA,NA,"Unknown/Unidentified",NA,"Suppression (Wildfire)",19.46125,NA,NA,NA,"00000000",NA,"1980-1989",113956.97265625,1261.24192333933,-116.549873200976,33.6526383349071,NA
11048,1987,"CA","USF U.S. Forest Service","BDF"," ","00000000",NA,NA,"Unknown/Unidentified",NA,"Suppression (Wildfire)",17.58369,NA,NA,NA,"00000000",NA,"1980-1989",104011.37890625,1238.44958131361,-117.03553796712,34.0891260696845,NA
11057,1987,"CA","USF U.S. Forest Service","TMU"," ","00000000",NA,NA,"Lightning",NA,"Suppression (Wildfire)",11.86507,NA,NA,NA,"00000004",NA,"1980-1989",79194.8828125,1148.83163501944,-120.007189318871,38.8106981870269,NA
11063,1987,"CA","NPS National Park Service","YNP"," ","00000000",NA,NA,"Lightning",NA,"Suppression (Wildfire)",9.935575,NA,NA,NA,"00000149",NA,"1980-1989",64375.90625,900.647088961991,-119.769015355823,37.7233075077804,NA
10936,1987,"CA","CDF CAL FIRE (State)","RRU","RIVERSIDE","00004126",1987-02-07 08:00:00,NA,"Playing with Fire",NA,"Suppression (Wildfire)",330.1902,NA,NA,NA,"00000161",NA,"1980-1989",1933584.0390625,7207.75751944122,-117.40223156289,33.6554807649196,13.764306640625
11054,1987,"CA","USF U.S. Forest Service","SNF","HITES","00000000",1987-02-07 08:00:00,1987-02-07 08:00:00,"Debris","Unknown","Suppression (Wildfire)",13.89355,NA,NA,NA,"00000002",NA,"1980-1989",89107.84765625,1148.019419324,-119.041742421132,37.3398925412581,-4.77182617187498
11077,1987,"CA","NPS National Park Service","CNP","E TWIN HARBOR","00000000",1987-02-25 08:00:00,1987-02-25 08:00:00,"Lightning","Photo Interpretation",NA,2.245288,"Fire documented in TNC fire history for Santa Cruz Island. Should add to SACS",NA,NA,"00000000",NA,"1980-1989",13265.74609375,459.486906092316,-119.715909419532,34.0388074637087,9.64443359375002
10904,1987,"CA","CDF CAL FIRE (State)","BDU","CASHBAUGH","00000031",1987-03-04 08:00:00,NA,"Unknown/Unidentified",NA,"Suppression (Wildfire)",599.9213,NA,NA,NA,"00000010",NA,"1980-1989",3852672.29296875,10141.4621162832,-118.390646812696,37.3889973656665,3.18715820312502
10823,1987,"CA","CDF CAL FIRE (State)","SLU","SLU-730","00000730",1987-04-19 07:00:00,NA,"Unknown/Unidentified",NA,"Suppression (Wildfire)",7733.198,NA,NA,NA,"00000109",NA,"1980-1989",46769353.3164062,40624.588388886,-120.552324959817,35.0189477200247,12.78701171875
10988,1987,"CA","CCO Contract County","LAC"," ","00000000",1987-04-19 07:00:00,NA,"Unknown/Unidentified",NA,"Suppression (Wildfire)",118.9447,NA,NA,NA,"00000000",NA,"1980-1989",710511.5859375,4065.94907087213,-118.621361488969,34.5044640811044,10.46279296875
11070,1987,"CA","CCO Contract County","LAC"," ","00000000",1987-04-21 07:00:00,NA,"Unknown/Unidentified",NA,"Suppression (Wildfire)",7.755604,NA,NA,NA,"00000000",NA,"1980-1989",46288.1640625,1209.72985142838,-118.666678622814,34.4684293184077,16.380029296875
10926,1987,"CA","USF U.S. Forest Service","CNF","ASSIST #38","00000000",1987-04-22 07:00:00,NA,"Miscellaneous",NA,"Suppression (Wildfire)",379.6063,NA,NA,NA,"00000001",NA,"1980-1989",2184570.58984375,8352.78510697639,-116.996856600158,32.8876820029177,19.949853515625
11050,1987,"CA","USF U.S. Forest Service","ENF"," ","00000000",1987-04-22 07:00:00,1987-04-22 07:00:00,"Debris","Unknown","Suppression (Wildfire)",16.90359,NA,NA,NA,"00000006",NA,"1980-1989",112741.1875,1210.49045851586,-120.377127902046,38.7839740921033,8.34731445312502
11076,1987,"CA","USF U.S. Forest Service","SRF","LILLY PAD TEN","00000000",1987-04-24 07:00:00,1987-04-25 07:00:00,"Miscellaneous","Unknown","Suppression (Wildfire)",3.982959,NA,NA,NA,"00000001",NA,"1980-1989",28608.70703125,600.354227389718,-123.666913991161,41.3286897915478,8.04995117187502
11045,1987,"CA","CCO Contract County","LAC"," ","00000000",1987-04-25 07:00:00,NA,"Unknown/Unidentified",NA,"Suppression (Wildfire)",19.88864,NA,NA,NA,"00000000",NA,"1980-1989",118863.61328125,1955.95110400874,-118.409826386707,34.5255282649244,16.350244140625
11066,1987,"CA","CCO Contract County","LAC"," ","00000000",1987-04-26 07:00:00,NA,"Unknown/Unidentified",NA,"Suppression (Wildfire)",9.064775,NA,NA,NA,"00000000",NA,"1980-1989",54315.33984375,925.198796880204,-118.208596701675,34.6338461346331,17.327294921875
11016,1987,"CA","CCO Contract County","LAC"," ","00000000",1987-05-04 07:00:00,NA,"Unknown/Unidentified",NA,"Suppression (Wildfire)",56.92053,NA,NA,NA,"00000000",NA,"1980-1989",337530.23828125,3080.02671907226,-118.287073681162,34.1944537919249,18.91689453125
10841,1987,"CA","CDF CAL FIRE (State)","SLU","SLU-0864","00000864",1987-05-05 07:00:00,NA,"Unknown/Unidentified",NA,"Suppression (Wildfire)",3552.104,NA,NA,NA,"00000139",NA,"1980-1989",21493356.1289062,25014.7937245252,-120.346866122004,35.0406396427048,17.405908203125
10956,1987,"CA","CDF CAL FIRE (State)","RRU","RECHE","00013806",1987-05-06 07:00:00,NA,"Miscellaneous",NA,"Suppression (Wildfire)",200.8764,NA,NA,NA,"00000591",NA,"1980-1989",1185007.86328125,5012.75148796904,-117.212471286393,33.9729377253633,18.612939453125
10959,1987,"CA","USF U.S. Forest Service","CNF","MATEO","00000000",1987-05-06 07:00:00,1987-05-06 07:00:00,"Miscellaneous","Unknown","Suppression (Wildfire)",195.6918,NA,NA,NA,"00000022",NA,"1980-1989",1141313.51171875,5380.72216955788,-117.471379549237,33.4782303473535,18.333154296875
10867,1987,"CA","CDF CAL FIRE (State)","SCU","GERBER","00000791",1987-05-07 07:00:00,NA,"Equipment Use",NA,"Suppression (Wildfire)",1241.098,NA,NA,NA,"00000063",NA,"1980-1989",7996097.1796875,11863.2881449881,-121.356540425206,37.5109442500989,23.153955078125
10874,1987,"CA","CDF CAL FIRE (State)","RRU","WINCHESTER#1","00013938",1987-05-07 07:00:00,NA,"Unknown/Unidentified",NA,"Suppression (Wildfire)",1097.662,NA,NA,NA,"00000605",NA,"1980-1989",6422518.63671875,11937.0659973087,-117.043876696054,33.6192554472772,18.8158203125
10831,1987,"CA","USF U.S. Forest Service","STF","CALF",NA,1987-05-08 07:00:00,1987-05-08 07:00:00,"Lightning","Unknown","Suppression (Wildfire)",4929.293,"20090305",NA,NA,"00000026",NA,"1980-1989",31934971.734375,27715.8148914133,-119.858222620513,37.7191835174826,13.1830078125
10953,1987,"CA","BLM Bureau of Land Management","BBD","LIGHTNING 2","00000000",1987-05-08 07:00:00,1987-05-08 07:00:00,"Lightning","Unknown","Suppression (Wildfire)",211.306,NA,NA,NA,"0000D010",NA,"1980-1989",1325269.01953125,8993.01614100295,-120.497584193116,36.4796989245304,23.8255859375
10950,1987,"CA","CDF CAL FIRE (State)","SCU","GILL","00000839",1987-05-09 07:00:00,NA,"Unknown/Unidentified",NA,"Suppression (Wildfire)",223.9084,NA,NA,NA,"00000074",NA,"1980-1989",1431379.3359375,5455.97453690296,-121.325348670913,37.2159340375012,20.151025390625
10970,1987,"CA","NPS National Park Service","JTP","QUAIL","00008719",1987-05-09 07:00:00,1987-05-09 07:00:00,"Lightning","Unknown","Suppression (Wildfire)",170.2195,NA,NA,NA,"00000019",NA,"1980-1989",1005411.984375,4095.44503780992,-116.191193729361,34.0264606511347,22.38369140625
11031,1987,"CA","USF U.S. Forest Service","CNF","BANDY","00000000",1987-05-12 07:00:00,NA,"Miscellaneous",NA,"Suppression (Wildfire)",35.53049,NA,NA,NA,"00000003",NA,"1980-1989",205291.6875,2155.04012407513,-117.019163603784,33.0660077779768,16.805810546875
10850,1987,"CA","BLM Bureau of Land Management","BBD","STATECA 17","00000000",1987-05-14 07:00:00,1987-05-14 07:00:00,"Equipment Use","Unknown","Suppression (Wildfire)",2010.743,NA,NA,NA,"0000D016",NA,"1980-1989",12553611.3007812,17688.0604393027,-120.290578884599,36.3009612880532,24.377099609375
10893,1987,"CA","CDF CAL FIRE (State)","SLU","SLU-966","00000966",1987-05-14 07:00:00,NA,"Equipment Use",NA,"Suppression (Wildfire)",805.9953,NA,NA,NA,"00000152",NA,"1980-1989",4961808.828125,9668.46061135289,-120.201475218432,35.7422267068076,21.361474609375
10932,1987,"CA","CCO Contract County","LAC","THE VERDALE","00937624",1987-05-14 07:00:00,NA,"Unknown/Unidentified",NA,"Suppression (Wildfire)",349.0032,NA,NA,NA,"00000787",NA,"1980-1989",2082419.546875,9373.67408343388,-118.670367422965,34.4572248922183,18.715966796875
10862,1987,"CA","CDF CAL FIRE (State)","FKU","NUNEZ","00004515",1987-05-19 07:00:00,NA,"Smoking",NA,"Suppression (Wildfire)",1479.219,NA,NA,NA,"00000075",NA,"1980-1989",9219155.78125,18813.8790092041,-120.444485545779,36.232526885384,14.65078125
10964,1987,"CA","CDF CAL FIRE (State)","NEU","CONOUCK","00001791",1987-05-23 07:00:00,NA,"Equipment Use",NA,"Suppression (Wildfire)",183.4526,NA,NA,NA,"00000323",NA,"1980-1989",1230936.65234375,5028.95683092389,-121.353507334407,38.999041952655,18.09755859375
10927,1987,"CA","USF U.S. Forest Service","LPF"," ","00000000",1987-05-25 07:00:00,1987-06-02 07:00:00,"Lightning","Unknown","Suppression (Wildfire)",372.7341,NA,NA,NA,"00000033",NA,"1980-1989",2230000.4453125,7095.91982486891,-119.066577653018,34.5701978039331,10.851953125
10949,1987,"CA","USF U.S. Forest Service","CNF","ASSIST #38","00000000",1987-05-28 07:00:00,NA,"Miscellaneous",NA,"Suppression (Wildfire)",226.2509,NA,NA,NA,"00000004",NA,"1980-1989",1309842.09375,5093.4877888125,-117.278295552591,33.1536704250042,14.4525390625
10870,1987,"CA","USF U.S. Forest Service","BDF","TRUCK","00000000",1987-05-31 07:00:00,1987-06-01 07:00:00,"Equipment Use","Unknown","Suppression (Wildfire)",1180.415,NA,NA,NA,"00000073",NA,"1980-1989",7010986.72265625,14306.8022967133,-117.439961393538,34.2630139112933,17.025048828125
10960,1987,"CA","CDF CAL FIRE (State)","BEU","MORSE","00000775",1987-05-31 07:00:00,NA,"Unknown/Unidentified",NA,"Suppression (Wildfire)",190.33,NA,NA,NA,"00000000",NA,"1980-1989",1197000.81640625,5042.89272232664,-121.92669398303,36.5870319719662,11.544091796875
10882,1987,"CA","NPS National Park Service","KNP","HALSTEAD3","00000000",1987-06-01 07:00:00,1987-09-30 07:00:00,"Lightning","Unknown","Resource Benefit (Wildland Fire Use)",981.1725,NA,NA,NA,"00000032",NA,"1980-1989",6176011.546875,15126.0221447517,-118.792418974865,36.6206752718833,7.82338867187502
11009,1987,"CA","BLM Bureau of Land Management","BBD","PO70CREEK","00000000",1987-06-01 07:00:00,1987-06-01 07:00:00,"Miscellaneous","Unknown","Suppression (Wildfire)",65.97687,NA,NA,NA,"0000D024",NA,"1980-1989",404146.05078125,2847.87384281543,-119.081274470135,35.5416416421483,19.8880859375
10955,1987,"CA","CCO Contract County","LAC","PINE CANYON","00927713",1987-06-02 07:00:00,NA,"Unknown/Unidentified",NA,"Suppression (Wildfire)",204.3331,NA,NA,NA,"00000687",NA,"1980-1989",1227789.515625,6081.25305477584,-118.677941428145,34.7511474007528,17.540673828125
11019,1987,"CA","USF U.S. Forest Service","CNF","OTAY #3","00000000",1987-06-02 07:00:00,NA,"Miscellaneous",NA,"Suppression (Wildfire)",54.71278,NA,NA,NA,"00000005",NA,"1980-1989",312951.08984375,2491.955595233,-116.901962089609,32.6138409059113,17.602197265625
11023,1987,"CA","USF U.S. Forest Service","CNF","ASSIST #65","00000000",1987-06-04 07:00:00,NA,"Miscellaneous",NA,"Suppression (Wildfire)",47.66436,NA,NA,NA,"00000006",NA,"1980-1989",274616.6171875,3217.46467437364,-117.207633815017,32.9391551316253,16.770654296875
11000,1987,"CA","USF U.S. Forest Service","CNF","PALA #2","00000000",1987-06-08 07:00:00,NA,"Miscellaneous",NA,"Suppression (Wildfire)",84.72939,NA,NA,NA,"00000007",NA,"1980-1989",492673.58984375,2798.5628039409,-117.122767406764,33.3462895709305,16.326806640625
10908,1987,"CA","USF U.S. Forest Service","SQF"," ","00000000",1987-06-10 07:00:00,1987-06-11 07:00:00,"Arson","Unknown","Suppression (Wildfire)",561.7554,NA,NA,NA,"00000050",NA,"1980-1989",3435273.94140625,11088.2613503568,-118.742450530518,35.4733185077656,19.941552734375
10880,1987,"CA","USF U.S. Forest Service","TOI"," ","00000000",1987-06-13 07:00:00,1987-06-13 07:00:00,"Lightning",NA,"Suppression (Wildfire)",1000.959,NA,NA,NA,"00000032",NA,"1980-1989",6844068.4453125,13004.9899775937,-120.081208950424,39.6633466772103,16.699853515625
10864,1987,"CA","CDF CAL FIRE (State)","RRU","VERBNIA-STATE 820","00018232",1987-06-14 07:00:00,NA,"Miscellaneous",NA,"Suppression (Wildfire)",1317.826,NA,NA,NA,"00000820",NA,"1980-1989",7760524.47265625,16544.9361391866,-116.710920067851,33.8977872346979,19.090966796875
11044,1987,"CA","USF U.S. Forest Service","SRF","SCORPION","00000000",1987-06-16 07:00:00,1987-06-20 07:00:00,"Campfire","Unknown","Suppression (Wildfire)",19.91492,NA,NA,NA,"00000026",NA,"1980-1989",143608.29296875,1345.07991360455,-123.698701932429,41.4575345070897,7.92885742187502
10860,1987,"CA","USF U.S. Forest Service","CNF","ASSIST #79","00000000",1987-06-18 07:00:00,NA,"Miscellaneous",NA,"Suppression (Wildfire)",1493.154,NA,NA,NA,"00000008",NA,"1980-1989",8594028.41015625,18750.0550338545,-117.022608508367,32.8938148668894,15.316552734375
10861,1987,"CA","USF U.S. Forest Service","SNF","CHAWANAKEE","00000000",1987-06-22 07:00:00,1987-06-26 07:00:00,"Miscellaneous",NA,"Suppression (Wildfire)",1487.008,NA,NA,NA,"00000087",NA,"1980-1989",9505847.171875,13784.6275311786,-119.313651099209,37.2153232568557,11.75869140625
10885,1987,"CA","CDF CAL FIRE (State)","FKU","FKU 5788","00005788",1987-06-22 07:00:00,NA,"Debris",NA,"Suppression (Wildfire)",938.5774,NA,NA,NA,"00011023",NA,"1980-1989",5828488.84375,18402.5288502286,-120.189381812491,36.0893665636811,18.77578125
10968,1987,"CA","BLM Bureau of Land Management","BBD","SAWMILL","00000000",1987-06-23 07:00:00,1987-06-24 07:00:00,"Playing with Fire","Unknown","Suppression (Wildfire)",174.3416,NA,NA,NA,"0000D036",NA,"1980-1989",1071615.30859375,4145.41453765601,-118.502407555235,35.6802145086708,17.00380859375
10947,1987,"CA","CDF CAL FIRE (State)","SLU","SLU-1366","00001366",1987-06-24 07:00:00,NA,"Unknown/Unidentified",NA,"Suppression (Wildfire)",239.5414,NA,NA,NA,"00000000",NA,"1980-1989",1473879.69921875,8084.4834793596,-120.379975109202,35.7213139186026,22.583642578125
11024,1987,"CA","USF U.S. Forest Service","SQF"," ","00000000",1987-06-24 07:00:00,1987-06-25 07:00:00,"Equipment Use","Unknown","Suppression (Wildfire)",46.71891,NA,NA,NA,"00000066",NA,"1980-1989",287255.05859375,2515.01306795933,-118.201709161383,35.692921552227,17.76015625
10933,1987,"CA","CDF CAL FIRE (State)","LNU","HASWELL","00001850",1987-06-26 07:00:00,NA,"Unknown/Unidentified",NA,"Suppression (Wildfire)",343.8031,NA,NA,NA,"00000195",NA,"1980-1989",2300899.2265625,6815.51384817718,-122.272564096729,38.906541583219,25.11025390625
10999,1987,"CA","NPS National Park Service","KNP","ASH MTN","00000000",1987-06-26 07:00:00,1987-06-27 07:00:00,"Arson","Unknown","Suppression (Wildfire)",89.41762,NA,NA,NA,"00000042",NA,"1980-1989",561110.0078125,5011.06255516853,-118.823350467922,36.5006370931446,17.8373046875
11047,1987,"CA","USF U.S. Forest Service","TNF","INDIAN","00000000",1987-06-26 07:00:00,1987-06-28 07:00:00,"Lightning",NA,"Suppression (Wildfire)",18.95248,NA,NA,NA,"00000086",NA,"1980-1989",127703.078125,1644.16824600517,-120.627325414658,39.1483470710389,18.517724609375
10984,1987,"CA","USF U.S. Forest Service","SRF","HORSE LINTO","00000000",1987-06-27 07:00:00,1987-06-28 07:00:00,"Miscellaneous","Unknown","Suppression (Wildfire)",122.479,NA,NA,NA,"00000028",NA,"1980-1989",871085,3312.74952539303,-123.608109727345,41.0022998574868,20.99892578125
10985,1987,"CA","USF U.S. Forest Service","SRF"," ","00000000",1987-06-27 07:00:00,NA,"Unknown/Unidentified",NA,"Suppression (Wildfire)",122.4785,NA,NA,NA,"00501097",NA,"1980-1989",871455.21875,3313.45441571511,-123.617847931374,41.0165260156746,20.7884765625
10840,1987,"CA","NPS National Park Service","YNP","FROG","00000069",1987-06-28 07:00:00,1987-11-04 08:00:00,"Lightning","Other Imagery","Resource Benefit (Wildland Fire Use)",3838.912,NA,NA,NA,"00000069",NA,"1980-1989",25072799.0273438,32923.2790347941,-119.750482067529,38.0196377934539,12.381494140625
11074,1987,"CA","NPS National Park Service","KNP","LAUREL","00000000",1987-06-28 07:00:00,1987-07-25 07:00:00,"Lightning","Unknown","Resource Benefit (Wildland Fire Use)",5.339771,NA,NA,NA,"00000046",NA,"1980-1989",33420.2109375,895.265393784434,-118.421319651342,36.3980739897909,13.1029296875
11027,1987,"CA","USF U.S. Forest Service","CNF","POSER","00000000",1987-07-01 07:00:00,1987-07-01 07:00:00,"Miscellaneous","Unknown","Suppression (Wildfire)",39.70755,NA,NA,NA,"00000058",NA,"1980-1989",228497.1328125,3874.00547199548,-116.647785645823,32.8850941480016,15.4916015625
10924,1987,"CA","CCO Contract County","MRN","BIG ROCK","00000973",1987-07-03 07:00:00,NA,"Unknown/Unidentified",NA,"Suppression (Wildfire)",406.8158,NA,NA,NA,"00000027",NA,"1980-1989",2659193.69140625,10361.610947493,-122.603517655484,38.0500369208367,13.228662109375
10942,1987,"CA","CDF CAL FIRE (State)","MVU","ASSIST#101","00001981",1987-07-04 07:00:00,NA,"Unknown/Unidentified",NA,"Suppression (Wildfire)",279.6786,NA,NA,NA,"00010150",NA,"1980-1989",1614407.18359375,11289.8945844551,-114.607957523005,33.0238690424573,30.914697265625
11035,1987,"CA","NPS National Park Service","KNP","JO","00000000",1987-07-04 07:00:00,1987-11-13 08:00:00,"Lightning","Unknown","Resource Benefit (Wildland Fire Use)",30.47485,NA,NA,NA,"00000053",NA,"1980-1989",192018.84765625,2621.50320724922,-118.754661648945,36.6600029054689,7.90249023437502
10993,1987,"CA","CDF CAL FIRE (State)","MVU","PARK #2","00001943",1987-07-06 07:00:00,NA,"Arson",NA,"Suppression (Wildfire)",106.4598,NA,NA,NA,"00000523",NA,"1980-1989",612052.55078125,4229.6911197819,-116.865748469195,32.8433902672464,16.321435546875
10869,1987,"CA","NPS National Park Service","YNP","CAMPGROUND","00000073",1987-07-07 07:00:00,1987-11-20 08:00:00,"Lightning","Other Imagery","Resource Benefit (Wildland Fire Use)",1207.296,NA,NA,NA,"00000073",NA,"1980-1989",7841035.67578125,13970.3184187384,-119.588875842706,37.8116764436652,11.45205078125
11014,1987,"CA","BLM Bureau of Land Management","BBD","KRN 9954","00000000",1987-07-07 07:00:00,1987-07-07 07:00:00,"Smoking","Unknown","Suppression (Wildfire)",58.59283,NA,NA,NA,"0000D073",NA,"1980-1989",356219.01953125,2340.20278931016,-119.362013733701,35.2348880333607,23.909326171875
10916,1987,"CA","CDF CAL FIRE (State)","SLU","SLU-1544","00001544",1987-07-08 07:00:00,NA,"Unknown/Unidentified",NA,"Suppression (Wildfire)",437.6525,NA,NA,NA,"00000256",NA,"1980-1989",2696886.25390625,7158.25953423063,-120.18796735548,35.781552716109,22.986474609375
10922,1987,"CA","NPS National Park Service","KNP","DOG CREEK","00000000",1987-07-08 07:00:00,1987-10-27 08:00:00,"Lightning","Unknown","Resource Benefit (Wildland Fire Use)",412.4233,NA,NA,NA,"00000055",NA,"1980-1989",2618637.37109375,9997.45200712015,-118.680289366528,36.956071885704,10.91640625
11028,1987,"CA","BLM Bureau of Land Management","BBD","EGLE","00000000",1987-07-08 07:00:00,1987-07-08 07:00:00,"Miscellaneous","Unknown","Suppression (Wildfire)",39.03122,NA,NA,NA,"0000D047",NA,"1980-1989",239128.2890625,2112.5325093305,-118.501549600836,35.5483735454811,20.269189453125
11079,1987,"CA","USF U.S. Forest Service","MDF","TIMBER","00000000",1987-07-08 07:00:00,1987-07-08 07:00:00,"Smoking","Unknown","Suppression (Wildfire)",1.841503,NA,NA,NA,"00000172",NA,"1980-1989",13341.359375,472.446410477856,-121.299666701759,41.6096228987298,17.856103515625
10914,1987,"CA","CCO Contract County","KRN","BOBFISH-KERN #14","00010120",1987-07-09 07:00:00,NA,"Unknown/Unidentified",NA,"Suppression (Wildfire)",463.5564,NA,NA,NA,"00000125",NA,"1980-1989",2843367.21484375,8654.45866336959,-118.479715680463,35.5959900574936,20.392724609375
10935,1987,"CA","BLM Bureau of Land Management","BBD","KRN 10261","00000000",1987-07-11 07:00:00,1987-07-11 07:00:00,"Miscellaneous","Unknown","Suppression (Wildfire)",332.6028,NA,NA,NA,"0000D090",NA,"1980-1989",2023444.890625,6536.70554141927,-119.559289898251,35.2625242244816,22.047998046875
10940,1987,"CA","USF U.S. Forest Service","CNF","CARRIZO","00000000",1987-07-12 07:00:00,NA,"Miscellaneous",NA,"Suppression (Wildfire)",289.925,NA,NA,NA,"00000010",NA,"1980-1989",1662281.6640625,9169.68513325249,-116.194756047446,32.7209551560689,20.02138671875
10976,1987,"CA","CCO Contract County","LAC","THE PIRU","00827637",1987-07-12 07:00:00,NA,"Unknown/Unidentified",NA,"Suppression (Wildfire)",147.8792,NA,NA,NA,"00000387",NA,"1980-1989",882763.078125,4195.14988218135,-118.740050488489,34.4764451293131,17.4388671875
10928,1987,"CA","CDF CAL FIRE (State)","BDU","GRANT","000CD244",1987-07-14 07:00:00,NA,"Unknown/Unidentified",NA,"Suppression (Wildfire)",371.9659,NA,NA,NA,"00000064",NA,"1980-1989",2318484.1953125,6795.92205770709,-118.017149191322,36.2365407363639,24.834130859375
10832,1987,"CA","USF U.S. Forest Service","MDF","QUAKING","00000000",1987-07-15 07:00:00,1987-07-21 07:00:00,"Lightning","Unknown","Suppression (Wildfire)",4812.283,NA,NA,NA,"00000181",NA,"1980-1989",34709330.8554688,29104.3067268339,-121.322919451619,41.4645970864752,23.761865234375
10967,1987,"CA","BLM Bureau of Land Management","BBD","FIVE","00000000",1987-07-15 07:00:00,1987-07-16 07:00:00,"Lightning","Unknown","Suppression (Wildfire)",174.6814,NA,NA,NA,"0000D062",NA,"1980-1989",1059214.1328125,5430.1551803926,-119.579295451731,35.1276657018977,28.46474609375
11003,1987,"CA","USF U.S. Forest Service","INF"," ","00000000",1987-07-15 07:00:00,NA,"Lightning",NA,"Suppression (Wildfire)",75.57649,NA,NA,NA,"00000040",NA,"1980-1989",490540.078125,2814.09297709828,-119.094450220078,37.7883725027273,12.09951171875
11078,1987,"CA","USF U.S. Forest Service","MDF","EAST SAND","00000000",1987-07-15 07:00:00,1987-07-15 07:00:00,"Lightning","Unknown","Suppression (Wildfire)",2.062669,NA,NA,NA,"00000182",NA,"1980-1989",14987.05859375,517.659911183165,-121.415319296042,41.7036547428496,25.170068359375
10925,1987,"CA","NPS National Park Service","YNP","BETTY BLACE","00000080",1987-07-17 07:00:00,NA,"Lightning","Other Imagery","Resource Benefit (Wildland Fire Use)",393.3256,NA,NA,NA,"00000080",NA,"1980-1989",2544145.0859375,7488.96235997234,-119.644602465228,37.6595450397376,11.0765625
11025,1987,"CA","USF U.S. Forest Service","CNF","ASSIST #105","00000000",1987-07-18 07:00:00,NA,"Miscellaneous",NA,"Suppression (Wildfire)",46.55641,NA,NA,NA,"00000011",NA,"1980-1989",267624.69921875,2065.56367984096,-116.922090292081,32.8375843525587,16.122705078125
10907,1987,"CA","CDF CAL FIRE (State)","BDU","SUMMIT","00010228",1987-07-19 07:00:00,NA,"Equipment Use",NA,"Suppression (Wildfire)",561.9256,NA,NA,NA,"00000774",NA,"1980-1989",3344313.58984375,8715.38430264414,-117.445757873511,34.3492194790372,15.8841796875
11010,1987,"CA","NPS National Park Service","KNP","FUNSTON","00000000",1987-07-19 07:00:00,1987-11-15 08:00:00,"Lightning","Unknown","Resource Benefit (Wildland Fire Use)",62.9641,NA,NA,NA,"00000062",NA,"1980-1989",394669.40234375,3363.44800684188,-118.392785657767,36.4570393640806,5.09072265625002
10896,1987,"CA","CCO Contract County","VNC","TIERRA","00000000",1987-07-20 07:00:00,NA,"Unknown/Unidentified",NA,"Suppression (Wildfire)",759.1195,NA,NA,NA,"00000000",NA,"1980-1989",4508879.1171875,9839.8216042639,-118.814904953283,34.2643894159685,16.803857421875
10851,1987,"CA","NPS National Park Service","YNP","LOST BEAR","00000083",1987-07-23 07:00:00,1987-11-20 08:00:00,"Lightning","Other Imagery","Resource Benefit (Wildland Fire Use)",1999.276,NA,NA,NA,"00000083",NA,"1980-1989",12934168.2695312,16694.8162865561,-119.595200342725,37.666096211186,7.60805664062502
10888,1987,"CA","CDF CAL FIRE (State)","SCU","ROMERO","00001713",1987-07-23 07:00:00,NA,"Unknown/Unidentified",NA,"Suppression (Wildfire)",897.608,NA,NA,NA,"00000246",NA,"1980-1989",5726490.91796875,12656.0192087972,-121.073400109705,37.1385109303984,17.391259765625
10945,1987,"CA","CDF CAL FIRE (State)","BEU","ALEXANDER","00001197",1987-07-23 07:00:00,NA,"Equipment Use",NA,"Suppression (Wildfire)",248.8283,NA,NA,NA,"00000262",NA,"1980-1989",1538902.8515625,5922.32835552218,-120.797312775042,35.926887959728,17.407861328125
10948,1987,"CA","CDF CAL FIRE (State)","SLU","SLU-1690","00001690",1987-07-23 07:00:00,NA,"Playing with Fire",NA,"Suppression (Wildfire)",231.1061,NA,NA,NA,"00000282",NA,"1980-1989",1410371.4375,7057.57266667149,-120.459695540299,35.3898453011777,16.290673828125
11021,1987,"CA","CCO Contract County","LAC"," ","00000000",1987-07-24 07:00:00,NA,"Unknown/Unidentified",NA,"Suppression (Wildfire)",53.16559,NA,NA,NA,"00000000",NA,"1980-1989",313985.60546875,2846.78293409273,-117.995659583055,34.0209837438542,17.592431640625
11032,1987,"CA","USF U.S. Forest Service","CNF","TECATE #8","00000000",1987-07-25 07:00:00,NA,"Miscellaneous",NA,"Suppression (Wildfire)",35.30708,NA,NA,NA,"00000012",NA,"1980-1989",201818.5703125,2151.83206856115,-116.600675981763,32.5838127824444,17.0013671875
11041,1987,"CA","USF U.S. Forest Service","SNF","CORBETT","00000000",1987-07-26 07:00:00,1987-07-26 07:00:00,"Lightning","Unknown","Suppression (Wildfire)",21.94322,NA,NA,NA,"00000142",NA,"1980-1989",140575.80859375,1426.30555951385,-119.037676771664,37.2968952160955,8.06826171875002
10975,1987,"CA","NPS National Park Service","KNP","KAWEAH","00000000",1987-07-28 07:00:00,1987-08-03 07:00:00,"Arson","Unknown","Suppression (Wildfire)",149.6944,NA,NA,NA,"00000067",NA,"1980-1989",938461.6484375,5454.99341323351,-118.838359472569,36.4634013187193,16.241357421875
10827,1987,"CA","USF U.S. Forest Service","TOI"," ","00000000",1987-07-29 07:00:00,NA,"Miscellaneous",NA,"Suppression (Wildfire)",6349.677,NA,NA,NA,"00000119",NA,"1980-1989",42355270.5117188,36451.036537782,-119.822340235413,38.7882946800698,11.674462890625
11064,1987,"CA","BLM Bureau of Land Management","BBD","HARLAN","00000000",1987-07-29 07:00:00,1987-07-30 07:00:00,"Debris","Unknown","Suppression (Wildfire)",9.905059,NA,NA,NA,"0000D083",NA,"1980-1989",62481.109375,998.08985319619,-121.369098564908,36.7037090018416,13.37978515625
11036,1987,"CA","USF U.S. Forest Service","STF","CASCADE",NA,1987-07-31 07:00:00,1987-08-02 07:00:00,"Equipment Use","Hand-drawn","Suppression (Wildfire)",29.31972,"20090305",NA,NA,"00000137",NA,"1980-1989",192859.23828125,1682.85981188886,-120.001170749709,38.2809315591073,12.06923828125
10998,1987,"CA","CDF CAL FIRE (State)","MVU","SKYLINE","00000000",1987-08-02 07:00:00,1987-08-03 07:00:00,"Miscellaneous","Unknown","Suppression (Wildfire)",94.0724,NA,NA,NA,"00000078",NA,"1980-1989",539509.33984375,4205.55515348433,-116.765167401709,32.7331589970263,23.578759765625
11060,1987,"CA","USF U.S. Forest Service","ENF"," ","00000000",1987-08-02 07:00:00,1987-09-04 07:00:00,"Campfire","Unknown","Suppression (Wildfire)",11.41062,NA,NA,NA,"00000115",NA,"1980-1989",76536.72265625,1031.63188285637,-120.247009605052,38.986594981003,14.640771484375
10980,1987,"CA","CDF CAL FIRE (State)","MVU","WEEKEND","00002354",1987-08-03 07:00:00,NA,"Miscellaneous",NA,"Suppression (Wildfire)",138.7369,NA,NA,NA,"00000664",NA,"1980-1989",801590.7109375,3749.2637757247,-116.884649230825,33.065025878859,21.491357421875
11006,1987,"CA","USF U.S. Forest Service","CNF","ASSIST #121","00000000",1987-08-03 07:00:00,NA,"Miscellaneous",NA,"Suppression (Wildfire)",69.97009,NA,NA,NA,"00000015",NA,"1980-1989",402944.4375,2640.31153089233,-117.231166496131,32.9185362794855,20.417138671875
10868,1987,"CA","CDF CAL FIRE (State)","SLU","PILITAS BLM-1836","00001836",1987-08-04 07:00:00,NA,"Miscellaneous",NA,"Suppression (Wildfire)",1223.811,NA,NA,NA,"00000318",NA,"1980-1989",7463559.75390625,13332.9059642855,-120.517854147248,35.3626872118702,19.259423828125
10994,1987,"CA","BLM Bureau of Land Management","NOD","SLATTERY","00000000",1987-08-04 07:00:00,1987-08-05 07:00:00,"Miscellaneous","Unknown","Suppression (Wildfire)",105.6043,NA,NA,NA,"0000D489",NA,"1980-1989",745090.65625,4881.34347058306,-123.037185207135,40.7356003450489,19.496728515625
10900,1987,"CA","CDF CAL FIRE (State)","SLU","SLU 1848","00001848",1987-08-05 07:00:00,NA,"Equipment Use",NA,"Suppression (Wildfire)",662.3051,NA,NA,NA,"00000321",NA,"1980-1989",4071076.1171875,9458.84226185217,-120.373065827736,35.6814949108731,22.63369140625
10979,1987,"CA","CCO Contract County","LAC"," ","00000000",1987-08-09 07:00:00,NA,"Unknown/Unidentified",NA,"Suppression (Wildfire)",141.3771,NA,NA,NA,"00000000",NA,"1980-1989",838953.9375,5100.95712001636,-118.342722197124,34.2253445646941,19.6771484375
11065,1987,"CA","USF U.S. Forest Service","SQF"," ","00000000",1987-08-09 07:00:00,1987-08-09 07:00:00,"Equipment Use","Unknown","Suppression (Wildfire)",9.366981,NA,NA,NA,"00000170",NA,"1980-1989",58344.44140625,967.979987189444,-118.709962397756,36.2090648847744,18.7953125
10987,1987,"CA","USF U.S. Forest Service","LNF","BOUNDARY","00000000",1987-08-12 07:00:00,1987-08-13 07:00:00,"Debris","Unknown","Suppression (Wildfire)",119.1893,NA,NA,NA,"00000073",NA,"1980-1989",843696.1484375,5267.12376469831,-121.522970855327,40.8449844804699,16.98916015625
11013,1987,"CA","CCO Contract County","MRN","CASCADE","00001247",1987-08-15 07:00:00,NA,"Unknown/Unidentified",NA,"Suppression (Wildfire)",59.85133,NA,NA,NA,"00000052",NA,"1980-1989",390572.8046875,2770.86672199723,-122.621597142725,37.9884419213943,13.641259765625
11007,1987,"CA","CCO Contract County","MRN","RUBICON","00001258",1987-08-16 07:00:00,NA,"Unknown/Unidentified",NA,"Suppression (Wildfire)",69.07862,NA,NA,NA,"00000053",NA,"1980-1989",451486.984375,2654.55047827799,-122.582494759436,38.045738099066,13.48671875
11002,1987,"CA","USF U.S. Forest Service","SRF","WINNEBAGO","00000000",1987-08-17 07:00:00,1987-08-18 07:00:00,"Arson","Unknown","Suppression (Wildfire)",75.67765,NA,NA,NA,"00000040",NA,"1980-1989",542538.67578125,2614.40996473547,-123.617803434129,41.2659324727767,16.848779296875
10923,1987,"CA","USF U.S. Forest Service","PNF"," ","00000000",1987-08-18 07:00:00,1987-08-19 07:00:00,"Equipment Use","Unknown","Suppression (Wildfire)",409.2386,NA,NA,NA,"00000206",NA,"1980-1989",2806680.62109375,6401.31073183467,-120.53219960513,39.7688814078745,13.971826171875
11043,1987,"CA","NPS National Park Service","KNP","CARARACT","00000000",1987-08-19 07:00:00,1987-09-10 07:00:00,"Campfire","Unknown","Suppression (Wildfire)",20.24492,NA,NA,NA,"00000075",NA,"1980-1989",128818.12109375,2033.22246526348,-118.51597909553,37.0380906383603,14.927392578125
10944,1987,"CA","CDF CAL FIRE (State)","RRU"," ","00025911",1987-08-20 07:00:00,NA,"Playing with Fire",NA,"Suppression (Wildfire)",258.5036,NA,NA,NA,"00001275",NA,"1980-1989",1512628.359375,5709.05762428695,-117.341976697055,33.6221631003923,20.75283203125
11012,1987,"CA","USF U.S. Forest Service","CNF","DEHESA #2","00000000",1987-08-20 07:00:00,NA,"Miscellaneous",NA,"Suppression (Wildfire)",61.61619,NA,NA,NA,"00000016",NA,"1980-1989",353830.38671875,3389.76722416308,-116.883405653249,32.7914764844472,19.402490234375
11034,1987,"CA","BLM Bureau of Land Management","NOD"," ","00000000",1987-08-21 07:00:00,NA,"Equipment Use",NA,"Suppression (Wildfire)",31.70989,NA,NA,NA,"0000D414",NA,"1980-1989",230583.26171875,1833.92200543889,-120.194688420024,41.7294997898083,14.466943359375
10902,1987,"CA","CDF CAL FIRE (State)","BDU","MAMMOTH","000IN377",1987-08-22 07:00:00,NA,"Unknown/Unidentified",NA,"Suppression (Wildfire)",640.1421,NA,NA,NA,"00000096",NA,"1980-1989",4140666.66796875,8308.78835699182,-118.988606525763,37.6599083994918,8.96474609375002
10917,1987,"CA","USF U.S. Forest Service","INF"," ","00000000",1987-08-22 07:00:00,1987-08-25 07:00:00,"Miscellaneous","Unknown","Suppression (Wildfire)",436.3795,NA,NA,NA,"00000067",NA,"1980-1989",2822914.6640625,7744.30565535118,-118.974182096395,37.6633183891242,9.25356445312502
10954,1987,"CA","CDF CAL FIRE (State)","RRU","STATE 1293","00026133",1987-08-22 07:00:00,NA,"Miscellaneous",NA,"Suppression (Wildfire)",206.2385,NA,NA,NA,"00001293",NA,"1980-1989",1216724.2890625,4982.2317443503,-117.148984826522,33.975897295287,18.65908203125
11059,1987,"CA","USF U.S. Forest Service","SQF"," ","00000000",1987-08-22 07:00:00,NA,"Lightning",NA,"Suppression (Wildfire)",11.45711,NA,NA,NA,"00000179",NA,"1980-1989",72389.03515625,1069.89647941594,-118.763683100426,36.7666608246218,11.676171875
10919,1987,"CA","USF U.S. Forest Service","LPF","MATIAS","00000000",1987-08-23 07:00:00,1987-08-26 07:00:00,"Miscellaneous","Unknown","Suppression (Wildfire)",427.7046,NA,NA,NA,"00000068",NA,"1980-1989",2555551.73828125,7783.44068465113,-119.712789509837,34.5155502945515,16.349755859375
11062,1987,"CA","USF U.S. Forest Service","SRF","AIKENS","00000000",1987-08-24 07:00:00,NA,"Unknown/Unidentified",NA,"Suppression (Wildfire)",9.957525,NA,NA,NA,"00101112",NA,"1980-1989",71352.09375,948.116504977422,-123.647500434905,41.2501903063182,16.855126953125
10909,1987,"CA","USF U.S. Forest Service","STF","EVER",NA,1987-08-28 07:00:00,1987-08-29 07:00:00,"Equipment Use","Unknown","Suppression (Wildfire)",519.2816,"20090305",NA,NA,"00000156",NA,"1980-1989",3375921.49609375,8928.65657420747,-119.846323232555,37.8485080821283,14.631982421875
10816,1987,"CA","USF U.S. Forest Service","TNF","INDIAN","00000000",1987-08-29 07:00:00,1987-09-11 07:00:00,"Lightning",NA,"Suppression (Wildfire)",9242.692,NA,NA,NA,"00000168",NA,"1980-1989",62992055.8984375,41012.1534122541,-120.966386045859,39.5499796183452,18.705712890625
10833,1987,"CA","CDF CAL FIRE (State)","TUU","CASE","00000000",1987-08-29 07:00:00,1987-09-10 07:00:00,"Lightning","Unknown","Suppression (Wildfire)",4510.327,NA,NA,NA,"00000092",NA,"1980-1989",28235556.2226562,36277.1319359222,-118.795058638995,36.4072656105331,17.452783203125
10852,1987,"CA","USF U.S. Forest Service","TNF","PALMER","00000000",1987-08-29 07:00:00,1987-09-08 07:00:00,"Lightning","Unknown","Suppression (Wildfire)",1971.537,NA,NA,NA,"00000176",NA,"1980-1989",13397923.0585938,16966.7579484452,-120.762657662356,39.4487734292312,17.405908203125
10899,1987,"CA","CDF CAL FIRE (State)","TUU","PIERCE","00001033",1987-08-29 07:00:00,1987-09-05 07:00:00,"Lightning","Unknown","Suppression (Wildfire)",685.4352,NA,NA,NA,"00000182",NA,"1980-1989",4320687.4921875,10632.8667016074,-118.935625542201,36.6764612641638,17.6556640625
10920,1987,"CA","CDF CAL FIRE (State)","MEU","TYLER","00001232",1987-08-29 07:00:00,NA,"Arson",NA,"Suppression (Wildfire)",426.4897,NA,NA,NA,"00000292",NA,"1980-1989",2853093.72265625,9961.55932682894,-122.895551479962,38.8916743997954,20.927880859375
10958,1987,"CA","NPS National Park Service","KNP","COFFEE","00000000",1987-08-29 07:00:00,1987-09-10 07:00:00,"Lightning","Unknown","Suppression (Wildfire)",196.1928,NA,NA,NA,"00000081",NA,"1980-1989",1228207.23828125,6423.11255447381,-118.764337271688,36.4072841223159,16.714501953125
11042,1987,"CA","USF U.S. Forest Service","STF","PACK",NA,1987-08-29 07:00:00,1987-08-31 07:00:00,"Lightning","Unknown","Suppression (Wildfire)",20.29512,"20090305",NA,NA,"00000222",NA,"1980-1989",132093.10546875,1328.48450945451,-119.882337717141,37.8911972723945,16.713525390625
10795,1987,"CA","USF U.S. Forest Service","KNF","KING TITUS","00000000",1987-08-30 07:00:00,1987-10-18 07:00:00,"Lightning","Unknown","Suppression (Wildfire)",68071.66,NA,NA,NA,"00000314",NA,"1980-1989",493569002.226562,138507.139798147,-123.389268169448,41.6360085035155,20.597802734375
10797,1987,"CA","USF U.S. Forest Service","KNF","YELLOW","00000000",1987-08-30 07:00:00,1987-11-20 08:00:00,"Lightning","Unknown","Suppression (Wildfire)",51060.07,NA,NA,NA,"00000217",NA,"1980-1989",367172430.859375,122860.470813412,-123.313512129165,41.3661371552017,20.512109375
10798,1987,"CA","USF U.S. Forest Service","STF","LARSON","00000215",1987-08-30 07:00:00,1987-09-10 07:00:00,"Lightning","Unknown","Suppression (Wildfire)",48086.96,"Stanislaus Complex","STANISLAUS COMPLEX",NA,"00000215",NA,"1980-1989",311663288.1875,105264.976822449,-119.936770927444,37.7342946658471,19.89736328125
10800,1987,"CA","CDF CAL FIRE (State)","BTU","PLUMAS NF #531 (CLARK)","00004167",1987-08-30 07:00:00,NA,"Miscellaneous",NA,"Suppression (Wildfire)",39920.76,NA,NA,NA,"00000511",NA,"1980-1989",276523748.703125,106212.57282197,-120.304840716903,40.1116719903083,20.831689453125
10801,1987,"CA","USF U.S. Forest Service","STF","HAMM",NA,1987-08-30 07:00:00,1987-09-13 07:00:00,"Lightning","Hand-drawn","Suppression (Wildfire)",33143.88,"Stanislaus Complex","STANISLAUS COMPLEX",NA,"00000214",NA,"1980-1989",215266515.070312,117548.66435194,-120.066437250922,37.812821777057,21.0931640625
10802,1987,"CA","USF U.S. Forest Service","KNF","FORT/COPPER","00000000",1987-08-30 07:00:00,1987-10-07 07:00:00,"Lightning","Unknown","Suppression (Wildfire)",30975.4,NA,NA,NA,"00000245",NA,"1980-1989",226421903.171875,85589.7288297037,-123.204426349293,41.8980088038458,21.31875
10804,1987,"CA","USF U.S. Forest Service","KNF","TEN BALD","00000000",1987-08-30 07:00:00,1987-10-15 07:00:00,"Lightning","Unknown","Suppression (Wildfire)",18354.76,NA,NA,NA,"00000278",NA,"1980-1989",133578759.039062,67897.7855152898,-123.526645038018,41.75596260491,20.13076171875
10805,1987,"CA","USF U.S. Forest Service","KNF","LAKE","00000000",1987-08-30 07:00:00,1987-09-28 07:00:00,"Lightning","Unknown","Suppression (Wildfire)",18234.25,NA,NA,NA,"00000318",NA,"1980-1989",132666241.21875,66099.7308028146,-123.181289544344,41.7473157973083,21.136376953125
10806,1987,"CA","USF U.S. Forest Service","KNF","HOTELLING","00000000",1987-08-30 07:00:00,1987-10-17 07:00:00,"Lightning","Unknown","Suppression (Wildfire)",16646.89,NA,NA,NA,"00000224",NA,"1980-1989",119075724.085938,75167.7077329726,-123.288629403063,41.1921328210797,20.48232421875
10808,1987,"CA","USF U.S. Forest Service","SHF","COLD","00000000",1987-08-30 07:00:00,1987-09-11 07:00:00,"Lightning","Unknown","Suppression (Wildfire)",16145.77,NA,NA,NA,"00000284",NA,"1980-1989",113219023.3125,70915.3341194982,-123.397032973964,40.528983074233,21.9193359375
10810,1987,"CA","USF U.S. Forest Service","KNF","GLASGOW","00000000",1987-08-30 07:00:00,1987-09-22 07:00:00,"Lightning","Unknown","Suppression (Wildfire)",13863.5,NA,NA,NA,"00000223",NA,"1980-1989",99302611.3671875,53884.0893751667,-123.208665030275,41.2374840076171,20.088037109375
10811,1987,"CA","USF U.S. Forest Service","SHF","FLUME","00000000",1987-08-30 07:00:00,1987-09-10 07:00:00,"Lightning","Unknown","Suppression (Wildfire)",12616.72,NA,NA,NA,"00000290",NA,"1980-1989",88150065.4609375,51915.7861989884,-123.339028544938,40.4055072060768,21.021630859375
10812,1987,"CA","USF U.S. Forest Service","SQF","FAY","00000000",1987-08-30 07:00:00,1987-09-05 07:00:00,"Lightning","Unknown","Suppression (Wildfire)",12153.3,NA,NA,NA,"00000190",NA,"1980-1989",74843162.03125,63001.4887698828,-118.284613586933,35.7561060041649,21.487939453125
10813,1987,"CA","USF U.S. Forest Service","SHF","EAST","00000000",1987-08-30 07:00:00,1987-09-25 07:00:00,"Lightning","Other Imagery","Suppression (Wildfire)",11473.77,NA,NA,NA,"00000293",NA,"1980-1989",81196723.0585938,50398.4963175228,-123.020870000651,40.8361384860342,21.318994140625
10817,1987,"CA","USF U.S. Forest Service","SHF","CHINA","00000000",1987-08-30 07:00:00,1987-10-13 07:00:00,"Lightning","Unknown","Suppression (Wildfire)",8909.144,NA,NA,NA,"00000300",NA,"1980-1989",63463054.0390625,38241.4479204829,-123.155409337647,41.0547033779145,21.086572265625
10818,1987,"CA","USF U.S. Forest Service","KNF","THOMPSON","00000000",1987-08-30 07:00:00,1987-10-20 07:00:00,"Lightning","Unknown","Suppression (Wildfire)",8908.497,NA,NA,NA,"00000306",NA,"1980-1989",65147817.3203125,66558.3889649447,-123.354323985395,41.9123716870821,20.809228515625
10819,1987,"CA","USF U.S. Forest Service","KNF","SAINT CLAIRE","00000000",1987-08-30 07:00:00,1987-10-10 07:00:00,"Lightning","Unknown","Suppression (Wildfire)",8832.548,NA,NA,NA,"00000220",NA,"1980-1989",63018786.0078125,41605.9412345527,-123.188572711206,41.1080041509752,20.9056640625
10821,1987,"CA","USF U.S. Forest Service","SHF","STRAUSE","00000000",1987-08-30 07:00:00,1987-10-13 07:00:00,"Lightning","Unknown","Suppression (Wildfire)",8626.759,NA,NA,NA,"00000302",NA,"1980-1989",61331811.5546875,35054.959852429,-123.106139056788,40.9899944877397,21.155908203125
10822,1987,"CA","USF U.S. Forest Service","KNF","GULCH","00000000",1987-08-30 07:00:00,1987-10-12 07:00:00,"Lightning","Unknown","Suppression (Wildfire)",8275.934,NA,NA,NA,"00000304",NA,"1980-1989",60239049.0039062,40872.9677199767,-123.278953782507,41.7613611571345,21.03603515625
10825,1987,"CA","USF U.S. Forest Service","SHF","GULCH","00000000",1987-08-30 07:00:00,1987-09-11 07:00:00,"Lightning","Unknown","Suppression (Wildfire)",6584.263,NA,NA,NA,"00000285",NA,"1980-1989",46347380.0390625,36389.435359514,-123.465326453983,40.6575706384077,22.980615234375
10828,1987,"CA","USF U.S. Forest Service","SHF","PEANUT","00000000",1987-08-30 07:00:00,1987-09-12 07:00:00,"Lightning","Unknown","Suppression (Wildfire)",6265.907,NA,NA,NA,"00000281",NA,"1980-1989",43878144.5898438,40025.5570111469,-123.199877839521,40.4825845894936,21.65810546875
10829,1987,"CA","USF U.S. Forest Service","KNF","SLATER","00000000",1987-08-30 07:00:00,1987-09-20 07:00:00,"Lightning","Unknown","Suppression (Wildfire)",5553.978,NA,NA,NA,"00000313",NA,"1980-1989",40515999.0078125,28753.3883097935,-123.345041674743,41.8328214455192,20.825830078125
10830,1987,"CA","USF U.S. Forest Service","SHF","BEAR","00000000",1987-08-30 07:00:00,1987-09-14 07:00:00,"Lightning","Unknown","Suppression (Wildfire)",4954.731,NA,NA,NA,"00000289",NA,"1980-1989",34874907.484375,30834.9045962765,-123.397875514191,40.6556302835539,22.7796875
10837,1987,"CA","USF U.S. Forest Service","KNF","KELSEY","00000000",1987-08-30 07:00:00,1987-09-25 07:00:00,"Lightning","Unknown","Suppression (Wildfire)",4191.48,NA,NA,NA,"00000273",NA,"1980-1989",30409972.2890625,22435.7829819065,-123.14313087296,41.656027868595,21.10830078125
10838,1987,"CA","USF U.S. Forest Service","SHF","RIPSTEIN","00000000",1987-08-30 07:00:00,1987-09-26 07:00:00,"Lightning","Unknown","Suppression (Wildfire)",4088.898,NA,NA,NA,"00000298",NA,"1980-1989",28989786.9335938,25071.2224151235,-123.046904003765,40.8980957301544,21.21083984375
10842,1987,"CA","USF U.S. Forest Service","SHF","FRIENDLY","00000000",1987-08-30 07:00:00,1987-09-10 07:00:00,"Lightning","Unknown","Suppression (Wildfire)",3465.903,NA,NA,NA,"00000283",NA,"1980-1989",24284290.296875,30728.9405680437,-123.307028741659,40.5016404522231,21.49111328125
10844,1987,"CA","USF U.S. Forest Service","SHF","JESSIE","00000000",1987-08-30 07:00:00,1987-09-12 07:00:00,"Lightning","Unknown","Suppression (Wildfire)",3238.827,NA,NA,NA,"00000286",NA,"1980-1989",22744171.3789062,28767.3741693377,-123.467703326193,40.5772980136894,22.442041015625
10845,1987,"CA","USF U.S. Forest Service","SRF","BLAKE","00000000",1987-08-30 07:00:00,1987-09-05 07:00:00,"Lightning","Unknown","Suppression (Wildfire)",3178.703,NA,NA,NA,"00000047",NA,"1980-1989",22332880.9609375,19916.2313500253,-123.566357364754,40.5937824824418,22.185693359375
10846,1987,"CA","USF U.S. Forest Service","SHF","WALLOW","00000000",1987-08-30 07:00:00,1987-09-20 07:00:00,"Lightning","Unknown","Suppression (Wildfire)",3054.078,NA,NA,NA,"00000291",NA,"1980-1989",21365707.3125,20592.9650274297,-123.398127648911,40.4492938154715,21.426171875
10847,1987,"CA","USF U.S. Forest Service","KNF","CHINA","00000000",1987-08-30 07:00:00,1987-10-12 07:00:00,"Lightning","Unknown","Suppression (Wildfire)",2915.008,NA,NA,NA,"00000307",NA,"1980-1989",21254661.84375,18484.7995842165,-123.276680097954,41.8173730304432,21.108544921875
10853,1987,"CA","USF U.S. Forest Service","KNF","BEARCAT","00000000",1987-08-30 07:00:00,1987-09-18 07:00:00,"Lightning","Unknown","Suppression (Wildfire)",1932.244,NA,NA,NA,"00000246",NA,"1980-1989",14078508.4179688,18570.8555384406,-122.839013793822,41.7936029074176,19.7953125
10858,1987,"CA","USF U.S. Forest Service","KNF","COUGAR #2","00000000",1987-08-30 07:00:00,1987-10-18 07:00:00,"Lightning","Unknown","Suppression (Wildfire)",1602.951,NA,NA,NA,"00000312",NA,"1980-1989",11649329.9648438,12990.1822745205,-123.367760991871,41.7106834216333,20.651025390625
10863,1987,"CA","USF U.S. Forest Service","KNF","NIELON","00000000",1987-08-30 07:00:00,1987-09-21 07:00:00,"Lightning","Unknown","Suppression (Wildfire)",1467.574,NA,NA,NA,"00000284",NA,"1980-1989",10548456.34375,15198.6051706639,-123.094671136219,41.3510971500302,19.950830078125
10865,1987,"CA","USF U.S. Forest Service","SHF","TRINITY","00000000",1987-08-30 07:00:00,1987-09-12 07:00:00,"Lightning","Unknown","Suppression (Wildfire)",1307.624,NA,NA,NA,"00000288",NA,"1980-1989",9190443.98828125,16492.4435247013,-123.387360563341,40.606101805463,22.411279296875
10871,1987,"CA","USF U.S. Forest Service","SHF"," ","00000000",1987-08-30 07:00:00,1987-09-11 07:00:00,"Lightning","Unknown","Suppression (Wildfire)",1118.878,NA,NA,NA,"00000287",NA,"1980-1989",7872327.12109375,13381.7521411372,-123.522221969069,40.6422657341999,22.760400390625
10876,1987,"CA","USF U.S. Forest Service","SHF","BACKBONE","00000000",1987-08-30 07:00:00,1987-09-17 07:00:00,"Lightning","Unknown","Suppression (Wildfire)",1076.09,NA,NA,NA,"00000301",NA,"1980-1989",7644391.4453125,13822.0203338455,-123.098398850999,40.9636863733364,21.216455078125
10879,1987,"CA","USF U.S. Forest Service","INF","LAUREL","00000000",1987-08-30 07:00:00,1987-09-04 07:00:00,"Arson","Unknown","Suppression (Wildfire)",1018.144,NA,NA,NA,"00000089",NA,"1980-1989",6577393.8984375,12260.1056694184,-118.914289915942,37.6125295294954,14.08046875
10881,1987,"CA","USF U.S. Forest Service","SHF"," ","00000000",1987-08-30 07:00:00,1987-09-12 07:00:00,"Lightning","Mixed Methods","Suppression (Wildfire)",995.5349,NA,NA,NA,"00000282",NA,"1980-1989",6972898.984375,13050.471357955,-123.246336225787,40.4897958306051,21.301416015625
10894,1987,"CA","USF U.S. Forest Service","KNF","ELK LICK","00000000",1987-08-30 07:00:00,1987-10-07 07:00:00,"Lightning","Unknown","Suppression (Wildfire)",790.5961,NA,NA,NA,"00000276",NA,"1980-1989",5770166.109375,10088.2622313515,-123.577186902799,41.8484760066599,20.2220703125
10898,1987,"CA","USF U.S. Forest Service","STF","RIVER II",NA,1987-08-30 07:00:00,1987-09-04 07:00:00,"Lightning","Unknown","Suppression (Wildfire)",701.407,"20090305",NA,NA,"00000181",NA,"1980-1989",4580810.94921875,11440.4081777972,-120.18374472978,38.0177282394197,20.68251953125
10903,1987,"CA","CDF CAL FIRE (State)","LMU","BLM #D-430","00001173",1987-08-30 07:00:00,NA,"Unknown/Unidentified",NA,"Suppression (Wildfire)",619.2161,NA,NA,NA,"00000287",NA,"1980-1989",4368954.39453125,7652.64789125741,-120.494224700018,40.7361579899653,22.375390625
10905,1987,"CA","USF U.S. Forest Service","SQF"," ","00000000",1987-08-30 07:00:00,1987-08-30 07:00:00,"Lightning","Unknown","Suppression (Wildfire)",592.0664,NA,NA,NA,"00000185",NA,"1980-1989",3643063.45703125,8910.89070419847,-118.291731556534,35.7226824045288,21.646630859375
10918,1987,"CA","USF U.S. Forest Service","KNF","BIG BUCK","00000000",1987-08-30 07:00:00,1987-10-09 07:00:00,"Lightning","Unknown","Suppression (Wildfire)",431.444,NA,NA,NA,"00000280",NA,"1980-1989",3149286.46875,9111.54041722166,-123.523838294252,41.8525137579865,19.965966796875
10937,1987,"CA","USF U.S. Forest Service","KNF","CLIFF","00000000",1987-08-30 07:00:00,1987-09-23 07:00:00,"Lightning","Unknown","Suppression (Wildfire)",308.5931,NA,NA,NA,"00000267",NA,"1980-1989",2240533.34375,6450.14038243804,-123.23198118483,41.6796674572346,21.214990234375
10965,1987,"CA","USF U.S. Forest Service","INF"," ","00000000",1987-08-30 07:00:00,1987-09-02 07:00:00,"Lightning","Unknown","Suppression (Wildfire)",179.0973,NA,NA,NA,"00000088",NA,"1980-1989",1162843.7734375,4414.14051657943,-118.696092168508,37.8007710765517,18.2962890625
10977,1987,"CA","USF U.S. Forest Service","KNF","ELK","00000000",1987-08-30 07:00:00,1987-09-09 07:00:00,"Lightning","Unknown","Suppression (Wildfire)",144.0054,NA,NA,NA,"00000300",NA,"1980-1989",1042380.96484375,3836.97300581902,-123.111550764885,41.5811539399107,20.9203125
10982,1987,"CA","USF U.S. Forest Service","PNF"," ","00000000",1987-08-30 07:00:00,1987-09-05 07:00:00,"Lightning","Unknown","Suppression (Wildfire)",129.9443,NA,NA,NA,"00000246",NA,"1980-1989",889777.1875,4570.39830997823,-121.367551276258,39.7134893431278,24.49990234375
10986,1987,"CA","USF U.S. Forest Service","KNF","DEEP LAKE","00000000",1987-08-30 07:00:00,1987-09-07 07:00:00,"Lightning","Unknown","Suppression (Wildfire)",120.2539,NA,NA,NA,"00000250",NA,"1980-1989",869826.1484375,3946.8780711753,-123.115958494681,41.5575870993831,20.875634765625
10990,1987,"CA","USF U.S. Forest Service","KNF","SNOW BRUSH","00000000",1987-08-30 07:00:00,1987-09-20 07:00:00,"Lightning","Unknown","Suppression (Wildfire)",116.0267,NA,NA,NA,"00000310",NA,"1980-1989",850189.765625,3621.8750522731,-123.426125488329,41.9761903838971,19.98525390625
10991,1987,"CA","USF U.S. Forest Service","KNF","SLIDE","00000000",1987-08-30 07:00:00,1987-09-20 07:00:00,"Lightning","Unknown","Suppression (Wildfire)",115.4595,NA,NA,NA,"00000305",NA,"1980-1989",843717.3359375,3720.31667036506,-123.359425843349,41.8880727780047,20.8265625
10995,1987,"CA","USF U.S. Forest Service","SHF"," ","00000000",1987-08-30 07:00:00,1987-09-02 07:00:00,"Lightning","Unknown","Suppression (Wildfire)",101.2452,NA,NA,NA,"00000248",NA,"1980-1989",707205.59375,3726.04953490403,-123.105309815874,40.3973139488491,22.33681640625
11018,1987,"CA","USF U.S. Forest Service","PNF"," ","00000000",1987-08-30 07:00:00,1987-09-01 07:00:00,"Lightning","Unknown","Suppression (Wildfire)",55.27206,NA,NA,NA,"00000239",NA,"1980-1989",382597.46484375,2736.40629509611,-120.421685242617,40.0882242966881,19.8783203125
11038,1987,"CA","USF U.S. Forest Service","SNF","MORMON","00000000",1987-08-30 07:00:00,1987-09-01 07:00:00,"Lightning","Unknown","Suppression (Wildfire)",26.97684,NA,NA,NA,"00000196",NA,"1980-1989",172522.37890625,2018.00028967255,-119.413682306919,37.2307975455059,18.43935546875
11039,1987,"CA","USF U.S. Forest Service","SQF"," ","00000000",1987-08-30 07:00:00,1987-09-04 07:00:00,"Lightning","Unknown","Suppression (Wildfire)",25.08731,NA,NA,NA,"00000197",NA,"1980-1989",156379.57421875,1524.60980640954,-118.452327018965,36.2387021541741,15.244775390625
11049,1987,"CA","USF U.S. Forest Service","PNF"," ","00000000",1987-08-30 07:00:00,1987-09-01 07:00:00,"Lightning","Unknown","Suppression (Wildfire)",17.26581,NA,NA,NA,"00000224",NA,"1980-1989",119458.640625,1496.88355687118,-120.806309229784,40.0719752234827,20.2240234375
11053,1987,"CA","USF U.S. Forest Service","SQF"," ","00000000",1987-08-30 07:00:00,1987-09-06 07:00:00,"Lightning","Unknown","Suppression (Wildfire)",14.99379,NA,NA,NA,"00000187",NA,"1980-1989",93061.45703125,1238.18064035167,-118.665083046794,36.0685898607878,18.716943359375
11055,1987,"CA","NPS National Park Service","KNP","MUIR","00000000",1987-08-30 07:00:00,1987-09-02 07:00:00,"Lightning","Unknown","Suppression (Wildfire)",12.45666,NA,NA,NA,"00000084",NA,"1980-1989",78445.046875,1647.42625867585,-118.831836451772,36.6386804429817,14.86806640625
11058,1987,"CA","USF U.S. Forest Service","SQF"," ","00000000",1987-08-30 07:00:00,1987-09-01 07:00:00,"Lightning","Unknown","Suppression (Wildfire)",11.78633,NA,NA,NA,"00000192",NA,"1980-1989",72118.76953125,1101.06387910673,-118.63663817306,35.4971512066582,23.483544921875
11069,1987,"CA","USF U.S. Forest Service","SQF"," ","00000000",1987-08-30 07:00:00,1987-09-01 07:00:00,"Lightning","Unknown","Suppression (Wildfire)",8.083467,NA,NA,NA,"00000229",NA,"1980-1989",49897.56640625,970.717055011863,-118.293987761329,35.850592148176,20.380029296875
11073,1987,"CA","USF U.S. Forest Service","STF","HALLS","00000000",1987-08-30 07:00:00,1987-08-31 07:00:00,"Lightning","Unknown","Suppression (Wildfire)",6.361603,NA,NA,NA,"00000212",NA,"1980-1989",41144.25,762.302261860342,-119.991255254064,37.65547731586,22.248193359375
11075,1987,"CA","USF U.S. Forest Service","SRF","SWIM","00000000",1987-08-30 07:00:00,1987-08-31 07:00:00,"Lightning","Unknown","Suppression (Wildfire)",3.983359,NA,NA,NA,"00000045",NA,"1980-1989",27656.82421875,590.282057659151,-123.171101436842,40.1920150966609,21.455224609375
10799,1987,"CA","USF U.S. Forest Service","STF","PAPER",NA,1987-08-31 07:00:00,1987-10-12 07:00:00,"Lightning","Unknown","Suppression (Wildfire)",45020.3,"Stanislaus Complex","STANISLAUS COMPLEX",NA,"00000226",NA,"1980-1989",293228702.261719,114170.635186771,-120.125246755969,37.9176215529874,20.772607421875
10803,1987,"CA","USF U.S. Forest Service","LNF","LOST","00000000",1987-08-31 07:00:00,1987-09-08 07:00:00,"Lightning","Unknown","Suppression (Wildfire)",22781.43,NA,NA,NA,"00000115",NA,"1980-1989",160997935.429688,57716.5309371541,-121.431027354127,40.7904805837322,19.732568359375
10814,1987,"CA","USF U.S. Forest Service","SRF","TRAVIS","00000000",1987-08-31 07:00:00,1987-09-06 07:00:00,"Lightning","Unknown","Suppression (Wildfire)",11041.88,NA,"TRAVIS COMPLEX",NA,"00000050",NA,"1980-1989",76448198.6796875,50049.3566443362,-123.224613128021,40.0951544168814,21.34267578125
10820,1987,"CA","USF U.S. Forest Service","STF","CLAVEY 87 COMPLEX",NA,1987-08-31 07:00:00,NA,"Lightning","Unknown","Suppression (Wildfire)",8741.059,"20090305","STANISLAUS COMPLEX",NA,"00000226",NA,"1980-1989",56876412.3554688,41519.8504495522,-120.032507599529,37.8809012231952,19.839990234375
10834,1987,"CA","CDF CAL FIRE (State)","FKU","RED MOUNTAIN","00008777",1987-08-31 07:00:00,NA,"Unknown/Unidentified",NA,"Suppression (Wildfire)",4454.451,NA,NA,NA,"00000161",NA,"1980-1989",28203937.640625,27366.9163721038,-119.389417949166,36.8482205656002,23.1791015625
10839,1987,"CA","CDF CAL FIRE (State)","LMU","LIGHTNING #120 (CRANK)","00001180",1987-08-31 07:00:00,NA,"Unknown/Unidentified",NA,"Suppression (Wildfire)",4076.166,NA,NA,NA,"00000273",NA,"1980-1989",29346694.7695312,28262.2532805493,-121.167033043195,41.4053069951929,19.817529296875
10878,1987,"CA","CDF CAL FIRE (State)","LMU","ASSIST P.N.F.","00004185",1987-08-31 07:00:00,NA,"Unknown/Unidentified",NA,"Suppression (Wildfire)",1046.961,NA,NA,NA,"00000513",NA,"1980-1989",7162520.3828125,12438.0297399807,-121.075686548628,39.6821638939711,21.89296875
10889,1987,"CA","USF U.S. Forest Service","TNF","BIG","00000000",1987-08-31 07:00:00,1987-09-06 07:00:00,"Lightning","Unknown","Suppression (Wildfire)",894.5693,NA,NA,NA,"00000207",NA,"1980-1989",6009581.76171875,15351.1304312292,-120.556737691846,39.0415654575486,17.927880859375
10891,1987,"CA","CDF CAL FIRE (State)","SHU","BUZZARD","00004074",1987-08-31 07:00:00,NA,"Unknown/Unidentified",NA,"Suppression (Wildfire)",854.7448,NA,NA,NA,"00000564",NA,"1980-1989",6032008.16015625,10805.2155900478,-121.979657214526,40.7431906573716,24.2923828125
10911,1987,"CA","USF U.S. Forest Service","KNF","HAPPY","00000000",1987-08-31 07:00:00,1987-09-08 07:00:00,"Arson","Unknown","Suppression (Wildfire)",475.8617,NA,NA,NA,"00000308",NA,"1980-1989",3466334.734375,7889.40861420373,-123.352856336683,41.7858268147801,22.132958984375
10957,1987,"CA","USF U.S. Forest Service","SQF"," ","00000000",1987-08-31 07:00:00,1987-09-02 07:00:00,"Lightning","Unknown","Suppression (Wildfire)",196.6831,NA,NA,NA,"00000196",NA,"1980-1989",1206734.08203125,4259.14673504705,-118.518238416753,35.6065883961403,22.085595703125
10961,1987,"CA","USF U.S. Forest Service","LNF"," ","00000000",1987-08-31 07:00:00,1987-09-07 07:00:00,"Lightning","Unknown","Suppression (Wildfire)",186.0189,NA,NA,NA,"00000114",NA,"1980-1989",1312376.41796875,5237.51570306167,-121.571438376164,40.7335990624815,20.238671875
11001,1987,"CA","USF U.S. Forest Service","MNF","HALL","00000000",1987-08-31 07:00:00,1987-10-22 07:00:00,"Lightning","Unknown","Suppression (Wildfire)",81.95542,NA,NA,NA,"00000049",NA,"1980-1989",558645.4765625,2795.29482469299,-122.966059797333,39.5557256604612,21.820703125
11020,1987,"CA","USF U.S. Forest Service","SQF"," ","00000000",1987-08-31 07:00:00,1987-09-01 07:00:00,"Lightning","Unknown","Suppression (Wildfire)",53.99247,NA,NA,NA,"00000199",NA,"1980-1989",334596.28125,2178.38955048699,-118.822623380357,36.00727100302,21.611474609375
11040,1987,"CA","USF U.S. Forest Service","STF","MOORE",NA,1987-08-31 07:00:00,1987-08-31 07:00:00,"Lightning","Unknown","Suppression (Wildfire)",23.30925,"20090305",NA,NA,"00000194",NA,"1980-1989",154136.8046875,1654.3807903008,-120.182828047487,38.4739098700679,14.87587890625
11051,1987,"CA","USF U.S. Forest Service","SRF","LITTLEFIELD","00000000",1987-08-31 07:00:00,NA,"Lightning",NA,"Suppression (Wildfire)",15.42947,NA,NA,NA,"00101120",NA,"1980-1989",106837.42578125,1261.95707876576,-123.275676006,40.0989673866043,21.308984375
11071,1987,"CA","USF U.S. Forest Service","MNF","HAYDON","00000000",1987-08-31 07:00:00,1987-09-03 07:00:00,"Lightning","Unknown","Suppression (Wildfire)",7.459641,NA,NA,NA,"00000069",NA,"1980-1989",51007.90234375,908.276947482902,-123.012022172537,39.6650832542813,21.508447265625
10807,1987,"CA","USF U.S. Forest Service","MNF","FOUTS","00000000",1987-09-01 07:00:00,1987-09-14 07:00:00,"Lightning","Unknown","Suppression (Wildfire)",16362.88,NA,NA,NA,"00000037",NA,"1980-1989",110892968.089844,66448.4230311672,-122.774224036648,39.3525781682516,21.68642578125
10826,1987,"CA","USF U.S. Forest Service","STF","HASLOE",NA,1987-09-01 07:00:00,1987-09-07 07:00:00,"Lightning","Unknown","Suppression (Wildfire)",6523.606,"20090305",NA,NA,"00000213",NA,"1980-1989",42270447.7304688,34748.9332020971,-120.059175564384,37.7249240210016,23.77431640625
10836,1987,"CA","CDF CAL FIRE (State)","TCU","PAPER",NA,1987-09-01 07:00:00,NA,"Miscellaneous","Unknown","Suppression (Wildfire)",4339.02,"Stanislaus Complex","STANISLAUS COMPLEX",NA,"00000750",NA,"1980-1989",28255332.8046875,49799.1004817089,-120.217441556494,37.9101038774388,23.4291015625
10859,1987,"CA","USF U.S. Forest Service","SHF","LAZYMAN","00000000",1987-09-01 07:00:00,1987-09-21 07:00:00,"Lightning","Unknown","Suppression (Wildfire)",1497.386,NA,NA,NA,"00000261",NA,"1980-1989",10365898.1992188,19258.0360840059,-122.914788241957,40.0911294717076,21.7630859375
10884,1987,"CA","USF U.S. Forest Service","MDF","HIGHROCK","00000000",1987-09-01 07:00:00,1987-09-12 07:00:00,"Lightning","Unknown","Suppression (Wildfire)",948.7501,NA,NA,NA,"00000217",NA,"1980-1989",6807692.08203125,16791.3487435852,-120.150864714455,41.2950799626569,19.51845703125
10886,1987,"CA","USF U.S. Forest Service","MNF","SLIDES","00000000",1987-09-01 07:00:00,1987-09-19 07:00:00,"Lightning","Unknown","Suppression (Wildfire)",913.3517,NA,NA,NA,"00000042",NA,"1980-1989",6323008.12890625,11139.5639888657,-122.858221193131,40.0921193927709,22.1341796875
10931,1987,"CA","USF U.S. Forest Service","MDF","CEDAR","00000000",1987-09-01 07:00:00,1987-09-12 07:00:00,"Lightning","Unknown","Suppression (Wildfire)",350.2419,NA,NA,NA,"00000212",NA,"1980-1989",2534120.90234375,7248.08747593197,-120.221442462078,41.5670892697847,20.598779296875
10938,1987,"CA","USF U.S. Forest Service","MNF","FORKS","00000000",1987-09-01 07:00:00,1987-09-04 07:00:00,"Lightning","Unknown","Suppression (Wildfire)",298.3636,NA,NA,NA,"00000040",NA,"1980-1989",2052593.06640625,6402.84975176114,-122.844069938137,39.8757836237767,21.475
10951,1987,"CA","USF U.S. Forest Service","MNF","CARDENAS","00000000",1987-09-01 07:00:00,1987-09-09 07:00:00,"Lightning","Unknown","Suppression (Wildfire)",223.3738,NA,NA,NA,"00000044",NA,"1980-1989",1541003.33203125,4853.59775256836,-123.165055117067,39.9722563079362,20.550927734375
10972,1987,"CA","CCO Contract County","LAC","AGOURA","00891443",1987-09-01 07:00:00,NA,"Unknown/Unidentified",NA,"Suppression (Wildfire)",163.1985,NA,NA,NA,"00001687",NA,"1980-1989",966462.43359375,7192.64273931705,-118.787248590379,34.1380695868026,21.01455078125
10992,1987,"CA","USF U.S. Forest Service","SQF"," ","00000000",1987-09-01 07:00:00,1987-09-02 07:00:00,"Lightning","Unknown","Suppression (Wildfire)",109.2837,NA,NA,NA,"00000202",NA,"1980-1989",668783.09765625,3308.07835107055,-118.722342909035,35.5028127436765,22.03310546875
10997,1987,"CA","USF U.S. Forest Service","MDF","DITTO","00000100",1987-09-01 07:00:00,1987-09-01 07:00:00,"Lightning","Unknown","Suppression (Wildfire)",96.14893,NA,NA,NA,"00000215",NA,"1980-1989",696810.15234375,3359.56790991612,-121.296718369767,41.6202518362687,19.320458984375
11022,1987,"CA","BLM Bureau of Land Management","BBD","LIGHTNING 5","00000000",1987-09-01 07:00:00,1987-09-03 07:00:00,"Lightning","Unknown","Suppression (Wildfire)",52.4226,NA,NA,NA,"0000D118",NA,"1980-1989",326544.8828125,2444.74488243659,-120.642925869968,36.2112995350726,24.7396484375
11056,1987,"CA","USF U.S. Forest Service","CNF","RODRIGUEZ","00000000",1987-09-01 07:00:00,NA,"Lightning",NA,"Suppression (Wildfire)",12.2986,NA,NA,NA,"00000017",NA,"1980-1989",71333.82421875,1190.49660734199,-116.947635261462,33.2362246410031,21.337060546875
11068,1987,"CA","USF U.S. Forest Service","MNF","BERRY","00000000",1987-09-01 07:00:00,1987-09-02 07:00:00,"Lightning","Unknown","Suppression (Wildfire)",8.08546,NA,NA,NA,"00000071",NA,"1980-1989",55441.05078125,1031.34916031745,-123.057972520073,39.7617054386488,20.0345703125
10796,1987,"CA","CDF CAL FIRE (State)","MEU","MENDENHALL","00001274",1987-09-02 07:00:00,1987-09-17 07:00:00,"Lightning","Unknown","Suppression (Wildfire)",65468.35,"Local Number 053",NA,NA,"00000311",NA,"1980-1989",446107355.976562,126678.878030407,-123.046273553047,39.5435598910092,20.376611328125
10872,1987,"CA","NPS National Park Service","JTP","PAUL","00008737",1987-09-02 07:00:00,1987-09-05 07:00:00,"Escaped Prescribed Burn","Unknown","Suppression (Wildfire)",1115.264,NA,NA,NA,"00000037",NA,"1980-1989",6584860.3046875,14495.6167187829,-116.250469685204,34.0101023374652,28.175439453125
10983,1987,"CA","NPS National Park Service","JTP","BLACKBRUSH","00008748",1987-09-02 07:00:00,1987-09-04 07:00:00,"Lightning","Unknown","Suppression (Wildfire)",123.6705,NA,NA,NA,"00000048",NA,"1980-1989",729837.77734375,3690.13676350353,-116.29241965458,33.9895167293526,28.159326171875
10855,1987,"CA","USF U.S. Forest Service","STF","JARREL",NA,1987-09-03 07:00:00,1987-09-12 07:00:00,"Lightning","Unknown","Suppression (Wildfire)",1813.505,"20090305",NA,NA,"00000237",NA,"1980-1989",11816199.796875,15329.4136578739,-119.876473594113,37.9313815180663,15.79140625
10873,1987,"CA","USF U.S. Forest Service","LPF"," ","00000000",1987-09-03 07:00:00,1987-09-03 07:00:00,"Miscellaneous","Unknown","Suppression (Wildfire)",1105.589,NA,NA,NA,"00000106",NA,"1980-1989",6865980.6875,12259.5353827163,-121.29569015837,36.0914666932368,25.346826171875
10910,1987,"CA","CDF CAL FIRE (State)","BDU","BORDEN","00002560",1987-09-03 07:00:00,NA,"Unknown/Unidentified",NA,"Suppression (Wildfire)",492.0223,NA,NA,NA,"00000501",NA,"1980-1989",2940660.79296875,6215.27570225254,-116.204853709136,34.5270897817388,27.847314453125
10974,1987,"CA","CCO Contract County","LAC"," ","00000000",1987-09-03 07:00:00,NA,"Unknown/Unidentified",NA,"Suppression (Wildfire)",152.3843,NA,NA,NA,"00000000",NA,"1980-1989",902429.71875,7173.36867152624,-118.786693190689,34.1384770526594,22.620751953125
10973,1987,"CA","CCO Contract County","MRN","MILLERTON","00001380",1987-09-05 07:00:00,NA,"Unknown/Unidentified",NA,"Suppression (Wildfire)",158.2682,NA,NA,NA,"00000065",NA,"1980-1989",1036360.02734375,5380.98243211912,-122.845776934743,38.1149531572932,13.626611328125
10824,1987,"CA","USF U.S. Forest Service","CNF","SILVERADO","00000000",1987-09-09 07:00:00,1987-09-13 07:00:00,"Arson","Unknown","Suppression (Wildfire)",7693.384,NA,NA,NA,"00000100",NA,"1980-1989",45151599.0195312,34600.7576484343,-117.526877859209,33.7509932970862,22.82265625
10895,1987,"CA","CDF CAL FIRE (State)","RRU","STATE 1458","00028365",1987-09-09 07:00:00,NA,"Arson",NA,"Suppression (Wildfire)",773.9091,NA,NA,NA,"00001458",NA,"1980-1989",4544080.2421875,9393.24393440968,-117.313014502349,33.7709566633229,23.9603515625
11072,1987,"CA","USF U.S. Forest Service","STF","DOUD",NA,1987-09-10 07:00:00,1987-09-10 07:00:00,"Smoking","Unknown","Suppression (Wildfire)",6.941091,"20090305",NA,NA,"00000230",NA,"1980-1989",45567.7734375,811.224711148162,-120.332135716247,38.2091665173036,14.14931640625
11008,1987,"CA","USF U.S. Forest Service","MDF","TRIANGLE","00000000",1987-09-12 07:00:00,1987-09-30 07:00:00,"Lightning","Unknown","Suppression (Wildfire)",67.97961,NA,NA,NA,"00000221",NA,"1980-1989",493492.23828125,4478.36099795976,-120.809989576864,41.6749287940758,16.511376953125
11052,1987,"CA","BLM Bureau of Land Management","NOD"," ","00000000",1987-09-13 07:00:00,NA,"Arson",NA,"Suppression (Wildfire)",15.02658,NA,NA,NA,"0000D457",NA,"1980-1989",108302.421875,1249.5885736564,-120.136160677302,41.4407315776287,13.3705078125
10815,1987,"CA","CCO Contract County","LAC","RUBY","00831493",1987-09-20 07:00:00,1987-09-20 07:00:00,"Miscellaneous","Unknown","Suppression (Wildfire)",10092.91,NA,NA,NA,"00004287",NA,"1980-1989",60418525.6054688,50743.2418684235,-118.555470148027,34.5941128761681,20.13173828125
10943,1987,"CA","NPS National Park Service","YNP","GLEN AULIN","00000138",1987-09-21 07:00:00,1987-11-20 08:00:00,"Lightning","Other Imagery","Resource Benefit (Wildland Fire Use)",262.2744,NA,NA,NA,"00000138",NA,"1980-1989",1708082.62890625,8716.93787909899,-119.430232495169,37.913799905091,8.10634765625002
10978,1987,"CA","NPS National Park Service","YNP","BOSWELL","00000139",1987-09-21 07:00:00,1987-09-27 07:00:00,"Lightning","Unknown","Resource Benefit (Wildland Fire Use)",143.7109,NA,NA,NA,"00000139",NA,"1980-1989",936391.21484375,3869.75418292919,-119.449078929897,37.9321289556216,7.97524414062502
11030,1987,"CA","NPS National Park Service","KNP","BURNT MT","00000000",1987-09-21 07:00:00,1987-11-13 08:00:00,"Lightning","Unknown","Resource Benefit (Wildland Fire Use)",35.59087,NA,NA,NA,"00000112",NA,"1980-1989",225966.921875,2707.4041549034,-118.750262387461,36.9537870122065,8.33559570312502
10906,1987,"CA","USF U.S. Forest Service","KNF","ANDESITE","00000000",1987-09-24 07:00:00,1987-09-28 07:00:00,"Railroad","Unknown","Suppression (Wildfire)",585.989,NA,NA,NA,"00000334",NA,"1980-1989",4237005.48046875,9317.5909698679,-122.166586377585,41.5453043050259,14.66494140625
10966,1987,"CA","NPS National Park Service","KNP","SODA CREE","00000000",1987-09-26 07:00:00,1987-11-13 08:00:00,"Lightning","Unknown","Resource Benefit (Wildland Fire Use)",175.7565,NA,NA,NA,"00000117",NA,"1980-1989",1101562.37109375,6643.98502572006,-118.490835134177,36.4531819085797,7.62050781250002
10849,1987,"CA","CDF CAL FIRE (State)","MEU","LAUDER","00001445",1987-09-29 07:00:00,1987-10-05 07:00:00,"Miscellaneous","Unknown","Suppression (Wildfire)",2040.261,"Local Number 075",NA,NA,"00000367",NA,"1980-1989",13852508.3203125,30159.1497889829,-123.074669586381,39.4172449724171,15.6419921875
10952,1987,"CA","CDF CAL FIRE (State)","MVU","DEL DIOS","00003267",1987-09-30 07:00:00,NA,"Equipment Use",NA,"Suppression (Wildfire)",217.245,NA,NA,NA,"00000935",NA,"1980-1989",1254799.0546875,5151.50326066589,-117.128399269366,33.0510796569316,21.2171875
10835,1987,"CA","USF U.S. Forest Service","LPF","FISH","00000000",1987-10-01 07:00:00,1987-10-18 07:00:00,"Miscellaneous","Unknown","Suppression (Wildfire)",4341.198,NA,NA,NA,"00000104",NA,"1980-1989",26031402.8984375,32394.7953521203,-119.151897975852,34.6649068730212,18.551904296875
10809,1987,"CA","CDF CAL FIRE (State)","MVU","PALOMAR","00003324",1987-10-03 07:00:00,1987-10-24 07:00:00,"Debris","Unknown","Suppression (Wildfire)",15581.67,"Local Number 113",NA,NA,"00000955",NA,"1980-1989",90587031.828125,55540.9577616073,-116.942148964041,33.3388751300464,20.5462890625
10843,1987,"CA","CDF CAL FIRE (State)","RRU","STATE 1587","00031099",1987-10-03 07:00:00,NA,"Equipment Use",NA,"Suppression (Wildfire)",3276.183,NA,NA,NA,"00001587",NA,"1980-1989",19165430.96875,29891.5395060886,-117.222761423994,33.6106026654915,21.876611328125
10901,1987,"CA","CDF CAL FIRE (State)","MVU","ASSIST #177","00000000",1987-10-03 07:00:00,NA,"Miscellaneous",NA,"Suppression (Wildfire)",649.4591,NA,NA,NA,"0000191.",NA,"1980-1989",3752743.69921875,12653.3181630384,-117.02704269864,33.0687605792391,21.19912109375
10915,1987,"CA","CDF CAL FIRE (State)","MVU","HIGHLAND VALLEY RD.","00003315",1987-10-03 07:00:00,NA,"Miscellaneous",NA,"Suppression (Wildfire)",460.0667,NA,NA,NA,"00000970",NA,"1980-1989",2658421.1875,6695.37804259578,-116.918225040142,33.0693739605399,21.694970703125
10963,1987,"CA","BLM Bureau of Land Management","BBD","NEW IDRIA","00000000",1987-10-03 07:00:00,1987-10-05 07:00:00,"Lightning","Unknown","Suppression (Wildfire)",184.2534,NA,NA,NA,"0000D156",NA,"1980-1989",1152124.546875,6659.6146430896,-120.636298313618,36.3617545626699,22.157373046875
10848,1987,"CA","CDF CAL FIRE (State)","MVU","GRADE","00003349",1987-10-04 07:00:00,NA,"Arson",NA,"Suppression (Wildfire)",2747.948,NA,NA,NA,"00000967",NA,"1980-1989",15918876.5625,18500.6799832292,-117.043016177456,33.181717555036,20.680078125
10921,1987,"CA","CDF CAL FIRE (State)","BEU","CHULAR CANYON","00001853",1987-10-06 07:00:00,NA,"Unknown/Unidentified",NA,"Suppression (Wildfire)",423.4252,NA,NA,NA,"00000000",NA,"1980-1989",2665496.98046875,7721.73646177961,-121.375493251305,36.624146082422,20.12978515625
11061,1987,"CA","USF U.S. Forest Service","SRF","WOODTICK","00000000",1987-10-07 07:00:00,1987-10-08 07:00:00,"Lightning","Unknown","Suppression (Wildfire)",9.957563,NA,NA,NA,"00000058",NA,"1980-1989",71799.8046875,951.086311382566,-123.713446813537,41.4552055313025,16.10634765625
10989,1987,"CA","CDF CAL FIRE (State)","BTU","DUNCAN","00005063",1987-10-08 07:00:00,NA,"Miscellaneous",NA,"Suppression (Wildfire)",118.2408,NA,NA,NA,"00010978",NA,"1980-1989",803616.9921875,3794.10354568935,-121.851506755813,39.4523231400563,18.77626953125
11067,1987,"CA","USF U.S. Forest Service","STF","NELLIE",NA,1987-10-11 07:00:00,1987-10-13 07:00:00,"Lightning","Hand-drawn","Suppression (Wildfire)",8.098564,"20090305",NA,NA,"00000257",NA,"1980-1989",52434.96875,866.685783706301,-119.784129144076,37.6960020757713,11.073876953125
10875,1987,"CA","CCO Contract County","VNC","PEPPERTREE CONTROLLE","00000000",1987-11-11 08:00:00,NA,"Unknown/Unidentified",NA,"Suppression (Wildfire)",1088.335,NA,NA,NA,"00000000",NA,"1980-1989",6472443.0625,14699.5997035897,-119.172725572607,34.3177957751572,15.500390625
11037,1987,"CA","USF U.S. Forest Service","TOI"," ","00000000",1987-11-12 08:00:00,NA,"Debris",NA,"Suppression (Wildfire)",28.44933,NA,NA,NA,"00000171",NA,"1980-1989",189314.875,2142.83021497578,-119.846620293416,38.7018473148361,0.0335937500000227
