"OBJECTID","YEAR_","STATE","AGENCY","UNIT_ID","FIRE_NAME","INC_NUM","ALARM_DATE","CONT_DATE","CAUSE","C_METHOD","OBJECTIVE","GIS_ACRES","COMMENTS","COMPLEX_NAME","IRWINID","FIRE_NUM","COMPLEX_ID","DECADES","Shape__Area","Shape__Length","Lon","Lat","TEMPERATURE_2M_ALARM_DATE"
7429,2003,"CA","USF U.S. Forest Service","CNF"," ",NA,NA,NA,"Unknown/Unidentified","Unknown",NA,2713.938,NA,NA,NA,NA,NA,"2000-2009",15772591.1757812,16731.2945299311,-116.655741335504,33.3238053408489,NA
7724,2003,"CA","DOD Department of Defense","AFV","UMBRA","00000000",2002-02-21 08:00:00,2002-02-21 08:00:00,"Powerline","GPS Ground","Suppression (Wildfire)",2.77828,NA,NA,NA,"00000000",NA,"2000-2009",16709.19921875,682.040158266466,-120.578691657128,34.7889080465361,14.402001953125
7467,2003,"CA","CCO Contract County","LAC","PACIFIC","00004293",2003-01-06 08:00:00,2003-01-10 08:00:00,"Non-Firefighter Training","GPS Ground","Suppression (Wildfire)",805.6346,NA,NA,NA,"00004293",NA,"2000-2009",4760533.16796875,35569.1918088195,-118.873069350967,34.0444834084853,18.418115234375
7552,2003,"CA","CCO Contract County","LAC","AIRPORT","00004054",2003-01-06 08:00:00,2003-01-06 08:00:00,"Non-Firefighter Training","Mixed Methods","Suppression (Wildfire)",142.8408,NA,NA,NA,"00004054",NA,"2000-2009",831471.82421875,7375.82560968192,-118.426789847734,33.3938308418934,17.40126953125
7713,2003,"CA","USF U.S. Forest Service","ANF","DUMP","00000000",2003-01-06 08:00:00,2003-01-06 08:00:00,"Miscellaneous","Unknown","Suppression (Wildfire)",9.185514,NA,NA,NA,"00000003",NA,"2000-2009",54589.453125,1137.04582269552,-118.398726597387,34.2885048165412,16.191796875
7593,2003,"CA","CCO Contract County","VNC","SYCAMORE INCIDENT","03024489",2003-03-28 08:00:00,2003-03-28 08:00:00,"Powerline","Hand-drawn","Suppression (Wildfire)",77.31881,NA,NA,NA,"03024489",NA,"2000-2009",457831.2421875,3326.2100639228,-119.017861711146,34.1332950612925,13.573876953125
7471,2003,"CA","BLM Bureau of Land Management","BBD","LUNDY","00000000",2003-04-24 07:00:00,2003-04-26 07:00:00,"Unknown/Unidentified","Unknown","Suppression (Wildfire)",739.7399,NA,NA,NA,"0000U861",NA,"2000-2009",4834959.125,23182.6656738057,-119.167005138632,38.0467743408788,0.162255859375023
7511,2003,"CA","CDF CAL FIRE (State)","FKU","PANOCHE","00004866",2003-04-30 07:00:00,2003-04-30 07:00:00,"Debris","GPS Ground","Suppression (Wildfire)",290.8282,NA,NA,NA,"00000047",NA,"2000-2009",1838007.58203125,6903.10868005246,-120.795522013303,36.7767358949703,9.22060546875002
7474,2003,"CA","CDF CAL FIRE (State)","BEU","NEW IDRIA","00001514",2003-05-18 07:00:00,2003-05-19 07:00:00,"Miscellaneous","GPS Air","Suppression (Wildfire)",632.0136,NA,NA,NA,"00000133",NA,"2000-2009",3969398.94921875,11551.1958730388,-120.825093513703,36.5341938690153,13.25673828125
7734,2003,"CA","NPS National Park Service","CNP","DEL NORTE","00000000",2003-05-25 07:00:00,2003-05-25 07:00:00,"Campfire","Hand-drawn",NA,0.09372396,"Moved ignit pt 75m to nearest level terrain for campsite. Accuracy +-200m?",NA,NA,"00003000",NA,"2000-2009",553.38671875,83.4229805345269,-119.661367928952,34.0107378646426,13.139306640625
7476,2003,"CA","CDF CAL FIRE (State)","SCU","DELL_PUERTO_1","00001735",2003-05-28 07:00:00,2003-06-02 07:00:00,"Debris","GPS Ground","Suppression (Wildfire)",629.5229,NA,NA,NA,"00000074",NA,"2000-2009",4046440.01171875,9597.95928953258,-121.416453822292,37.4233771009626,20.99599609375
7615,2003,"CA","BLM Bureau of Land Management","CDD","MAYWOOD","00000000",2003-05-28 07:00:00,2003-05-29 07:00:00,"Equipment Use","Unknown","Suppression (Wildfire)",50.86303,NA,NA,NA,"0000D980",NA,"2000-2009",298712.03515625,2662.20785028257,-117.320714934853,33.7803602271536,19.515283203125
7649,2003,"CA","CDF CAL FIRE (State)","TUU","BENNETT","00005247",2003-05-29 07:00:00,2003-05-29 07:00:00,"Unknown/Unidentified","Unknown","Suppression (Wildfire)",30.55611,NA,NA,NA,"00000045",NA,"2000-2009",189434.80859375,1978.30685815051,-118.970138495624,36.0231934126691,23.603662109375
7414,2003,"CA","CDF CAL FIRE (State)","SCU","BIRD_1","00001791",2003-06-01 07:00:00,2003-06-03 07:00:00,"Equipment Use","GPS Ground","Suppression (Wildfire)",7876.473,NA,NA,NA,"00000083",NA,"2000-2009",50799099.765625,39033.6017727358,-121.335514192029,37.5502386224966,18.9349609375
7492,2003,"CA","CCO Contract County","KRN","BACKUS","00027686",2003-06-03 07:00:00,2003-06-03 07:00:00,"Lightning","Unknown","Suppression (Wildfire)",443.5152,NA,NA,NA,"00027686",NA,"2000-2009",2678359.4140625,8527.6701194283,-118.218656463564,34.9590415260455,23.468896484375
7480,2003,"CA","CCO Contract County","BBD","SCHALLOCK","00028424",2003-06-06 07:00:00,2003-06-06 07:00:00,"Arson","Unknown","Suppression (Wildfire)",563.957,NA,NA,NA,"00028424",NA,"2000-2009",3406513.984375,9840.46581212334,-119.076173263227,34.968924698473,23.482568359375
7569,2003,"CA","CCO Contract County","LAC","WEST","00113933",2003-06-06 07:00:00,2003-06-06 07:00:00,"Powerline","Hand-drawn","Suppression (Wildfire)",110.5337,NA,NA,NA,"00113933",NA,"2000-2009",663503.02734375,5689.49880901461,-118.245678486309,34.7091932290075,17.945947265625
7709,2003,"CA","USF U.S. Forest Service","KNF","HEAVEN","00000000",2003-06-06 07:00:00,2003-06-07 07:00:00,"Debris","GPS Air","Suppression (Wildfire)",11.12984,NA,NA,NA,"00000002",NA,"2000-2009",81193.22265625,1642.0158969067,-122.66784340498,41.8334627348282,19.851708984375
7685,2003,"CA","BLM Bureau of Land Management","BBD","HILL","00000000",2003-06-10 07:00:00,2003-06-10 07:00:00,"Equipment Use","Unknown","Suppression (Wildfire)",17.08043,NA,NA,NA,"0000D002",NA,"2000-2009",103924.5078125,1875.16556264504,-119.596249967558,35.2675346353221,21.05947265625
7556,2003,"CA","BLM Bureau of Land Management","NOD","TURTLE","00000000",2003-06-11 07:00:00,2003-06-12 07:00:00,"Unknown/Unidentified","Unknown","Suppression (Wildfire)",137.0851,NA,NA,NA,"0000D714",NA,"2000-2009",948920.29296875,7937.05090309572,-120.071186885599,40.0884726867123,15.95107421875
7607,2003,"CA","CDF CAL FIRE (State)","BEU","ALVARADO","00001836",2003-06-11 07:00:00,2003-06-11 07:00:00,"Powerline","GPS Ground","Suppression (Wildfire)",57.22686,NA,NA,NA,"00000165",NA,"2000-2009",354117.88671875,3590.52445467207,-120.879451204911,35.9486944424286,12.705712890625
7571,2003,"CA","CDF CAL FIRE (State)","TCU","SHELLY","00003799",2003-06-13 07:00:00,2003-06-13 07:00:00,"Vehicle","GPS Air","Suppression (Wildfire)",106.9997,NA,NA,NA,"00000267",NA,"2000-2009",699988.93359375,4138.86776471213,-120.953865452295,38.080330546032,14.2982421875
7444,2003,"CA","CDF CAL FIRE (State)","MMU","152","00009901",2003-06-16 07:00:00,2003-06-16 07:00:00,"Miscellaneous","Hand-drawn","Suppression (Wildfire)",1507.272,NA,NA,NA,"00000166",NA,"2000-2009",9605252.39453125,20248.6582242671,-121.165640308844,37.0958907438708,18.1146484375
7706,2003,"CA","CDF CAL FIRE (State)","FKU","WATTS","00006922",2003-06-16 07:00:00,2003-06-16 07:00:00,"Arson","GPS Ground","Suppression (Wildfire)",11.49994,NA,NA,NA,"00000072",NA,"2000-2009",72900.96484375,1625.75127881087,-119.461594350449,36.8946014591059,20.851220703125
7448,2003,"CA","CCO Contract County","KRN","CALIENTE","00030619",2003-06-17 07:00:00,2003-06-17 07:00:00,"Lightning","Unknown","Suppression (Wildfire)",1223.017,NA,NA,NA,"00030619",NA,"2000-2009",7449200.38671875,13068.390448916,-118.665380441684,35.3106070007154,20.28359375
7500,2003,"CA","CDF CAL FIRE (State)","MVU","SYCAMORE","00004134",2003-06-17 07:00:00,2003-06-18 07:00:00,"Equipment Use","Hand-drawn","Suppression (Wildfire)",375.3218,NA,NA,NA,"00000363",NA,"2000-2009",2161352.14453125,7066.41553528546,-116.986999823178,32.9174318517001,15.511865234375
7620,2003,"CA","CDF CAL FIRE (State)","FKU","SPEARHEAD","00007077",2003-06-17 07:00:00,2003-06-17 07:00:00,"Debris","GPS Air","Suppression (Wildfire)",45.5633,NA,NA,NA,"00000073",NA,"2000-2009",290098.06640625,2585.56343407067,-119.525992774723,37.0617697541457,24.139794921875
7661,2003,"CA","CDF CAL FIRE (State)","TUU","RIO","00006257",2003-06-20 07:00:00,NA,"Unknown/Unidentified",NA,"Suppression (Wildfire)",24.93514,NA,NA,NA,"00000084",NA,"2000-2009",154978.26953125,2457.8494849036,-118.774983622315,36.1234187844629,13.192041015625
7684,2003,"CA","BLM Bureau of Land Management","BBD","TOOMEY","00000000",2003-06-20 07:00:00,2003-08-26 07:00:00,"Equipment Use","Unknown","Suppression (Wildfire)",17.10704,NA,NA,NA,"0000U919",NA,"2000-2009",107692.8515625,1354.1312280394,-120.653771248717,36.6250707062953,14.50185546875
7565,2003,"CA","CDF CAL FIRE (State)","TUU","BOYD","00006303",2003-06-21 07:00:00,NA,"Unknown/Unidentified",NA,"Suppression (Wildfire)",120.3256,NA,NA,NA,"00000086",NA,"2000-2009",756264.88671875,4814.56421358712,-119.186592906703,36.5627222760134,18.599267578125
7477,2003,"CA","CDF CAL FIRE (State)","TGU","NATURE","00003554",2003-06-23 07:00:00,2003-06-23 07:00:00,"Lightning","Unknown","Suppression (Wildfire)",617.3187,NA,NA,NA,"00000075",NA,"2000-2009",4249005.14453125,15935.8048116725,-121.996388352956,39.893390335827,22.513330078125
7483,2003,"CA","CDF CAL FIRE (State)","MMU","RD_26","00010475",2003-06-23 07:00:00,2003-06-23 07:00:00,"Miscellaneous","Hand-drawn","Suppression (Wildfire)",525.5991,NA,NA,NA,"00000183",NA,"2000-2009",3351417.4453125,11253.7952407835,-120.031314071333,37.1185149167198,19.6029296875
7478,2003,"CA","CDF CAL FIRE (State)","BTU","SEVENTY","00006701",2003-06-24 07:00:00,2003-06-24 07:00:00,"Vehicle","GPS Air","Suppression (Wildfire)",608.4294,NA,NA,NA,"00010478",NA,"2000-2009",4134760.7734375,10128.5131530304,-121.57210227772,39.4494085140965,20.03896484375
7589,2003,"CA","CDF CAL FIRE (State)","TCU","CHUCKWAGON","00004202",2003-06-25 07:00:00,2003-06-26 07:00:00,"Equipment Use","GPS Ground","Suppression (Wildfire)",82.05084,NA,NA,NA,"00000295",NA,"2000-2009",535463.66796875,4718.92628104701,-120.695160779322,37.9900452719938,20.047265625
7603,2003,"CA","BLM Bureau of Land Management","BBD","BACCHI","00000000",2003-06-25 07:00:00,2003-06-26 07:00:00,"Vehicle","Unknown","Suppression (Wildfire)",60.15599,NA,NA,NA,"0000D010",NA,"2000-2009",402558.828125,2808.82677877995,-120.925068784496,38.9034658054922,17.193505859375
7612,2003,"CA","CDF CAL FIRE (State)","NEU","VALLEY","00008903",2003-06-25 07:00:00,2003-06-25 07:00:00,"Debris","Hand-drawn","Suppression (Wildfire)",52.14443,NA,NA,NA,"00000251",NA,"2000-2009",349868.43359375,2464.44170589305,-121.291222758359,38.9977816821298,18.8568359375
7670,2003,"CA","CDF CAL FIRE (State)","LNU","SCOTTS","00003878",2003-06-25 07:00:00,2003-06-25 07:00:00,"Arson","Hand-drawn","Suppression (Wildfire)",22.91416,NA,NA,NA,"00000173",NA,"2000-2009",154346.015625,1819.17852004194,-122.974163303528,39.1366058852063,16.6341796875
7482,2003,"CA","BLM Bureau of Land Management","BBD","SAWMILL","00000000",2003-06-26 07:00:00,2003-06-29 07:00:00,"Structure Fire","Unknown","Suppression (Wildfire)",537.2274,NA,NA,NA,"0000D016",NA,"2000-2009",3300999.3515625,11112.3865878093,-118.481840826654,35.666261150905,18.53701171875
7703,2003,"CA","CDF CAL FIRE (State)","TCU","TURNER","00004234",2003-06-26 07:00:00,2003-06-26 07:00:00,"Equipment Use","GPS Ground","Suppression (Wildfire)",11.82376,NA,NA,NA,"00000302",NA,"2000-2009",77368.66796875,1196.97442424488,-120.923331676207,38.0888898293643,23.7630859375
7587,2003,"CA","USF U.S. Forest Service","SRF","CAMP2","00000000",2003-06-28 07:00:00,2003-06-28 07:00:00,"Arson","Hand-drawn","Suppression (Wildfire)",84.71707,NA,NA,NA,"00000017",NA,"2000-2009",607841.44140625,3276.19370724035,-123.55759382661,41.2929073214095,22.13955078125
7624,2003,"CA","CDF CAL FIRE (State)","LNU","LOFTY","00004019",2003-06-28 07:00:00,2003-06-28 07:00:00,"Playing with Fire","GPS Ground","Suppression (Wildfire)",42.13739,NA,NA,NA,"00000195",NA,"2000-2009",278603.62109375,2445.05107908927,-122.6292447702,38.4689776737113,22.277978515625
7493,2003,"CA","CDF CAL FIRE (State)","LNU","CAPAY","00004073",2003-06-29 07:00:00,2003-06-29 07:00:00,"Arson","Hand-drawn","Suppression (Wildfire)",425.4226,NA,NA,NA,"00000204",NA,"2000-2009",2832974.8359375,8251.61009822862,-122.130351720315,38.7275197556216,22.0345703125
7498,2003,"CA","USF U.S. Forest Service","SRF","FRIDAY","00000000",2003-06-29 07:00:00,2003-07-03 07:00:00,"Equipment Use","Unknown","Suppression (Wildfire)",388.8525,NA,NA,NA,"00000019",NA,"2000-2009",2756256.2421875,10424.7819926607,-123.61716086999,40.8901049788847,16.8509765625
7519,2003,"CA","USF U.S. Forest Service","KNF","97","00000000",2003-06-29 07:00:00,2003-07-01 07:00:00,"Debris","Hand-drawn","Suppression (Wildfire)",251.1966,NA,NA,NA,"00000013",NA,"2000-2009",1817144.77734375,5948.72552084206,-122.26551676195,41.5607525146139,18.006494140625
7538,2003,"CA","BLM Bureau of Land Management","BBD","ROYCE","00000000",2003-06-29 07:00:00,2003-07-07 07:00:00,"Equipment Use","Unknown","Suppression (Wildfire)",187.9791,NA,NA,NA,"0000D020",NA,"2000-2009",1157357.9609375,8270.6352473705,-118.104924020495,35.7468822356058,21.328515625
7610,2003,"CA","CDF CAL FIRE (State)","TCU","TURCHET","00004391",2003-06-29 07:00:00,2003-07-01 07:00:00,"Equipment Use","GPS Ground","Suppression (Wildfire)",52.92731,NA,NA,NA,"00000315",NA,"2000-2009",347321.75,2842.00838610664,-120.597140416511,38.1939987995366,20.968896484375
7662,2003,"CA","USF U.S. Forest Service","SQF","CHICO","00000000",2003-06-29 07:00:00,2003-06-30 07:00:00,"Miscellaneous","Hand-drawn","Suppression (Wildfire)",24.9212,NA,NA,NA,"00000014",NA,"2000-2009",153723.30078125,2202.17846376645,-118.455338757868,35.8219143133988,19.449609375
7682,2003,"CA","CDF CAL FIRE (State)","FKU","WATTS","00007569",2003-06-29 07:00:00,2003-06-29 07:00:00,"Equipment Use","GPS Ground","Suppression (Wildfire)",17.59989,NA,NA,NA,"00000072",NA,"2000-2009",111376.2421875,1662.81410513739,-119.485653030978,36.8273776666229,25.066552734375
7449,2003,"CA","CCO Contract County","KRN","TEJON","00033259",2003-06-30 07:00:00,2003-06-30 07:00:00,"Equipment Use","Unknown","Suppression (Wildfire)",1198.594,NA,NA,NA,"00033259",NA,"2000-2009",7219566.0078125,16892.0245219531,-118.887189584399,34.852060780558,19.015283203125
7453,2003,"CA","CDF CAL FIRE (State)","MMU","I5","00011084",2003-06-30 07:00:00,2003-06-30 07:00:00,"Escaped Prescribed Burn","GPS Air","Suppression (Wildfire)",1120.83,NA,NA,NA,"00000207",NA,"2000-2009",7102007.2890625,14338.6167279975,-120.964383090644,36.8771928891181,19.016748046875
7518,2003,"CA","CDF CAL FIRE (State)","RRU","BARRANCA","00049644",2003-06-30 07:00:00,2003-07-01 07:00:00,"Unknown/Unidentified","Unknown","Suppression (Wildfire)",259.7687,NA,NA,NA,"00001051",NA,"2000-2009",1520443.00390625,6180.28757724103,-116.979841826942,33.6339245053152,19.1234375
7537,2003,"CA","CDF CAL FIRE (State)","LNU","SACKET","00004110",2003-06-30 07:00:00,2003-06-30 07:00:00,"Equipment Use","GPS Air","Suppression (Wildfire)",192.4163,NA,NA,NA,"00000211",NA,"2000-2009",1273654.96875,4426.07571304498,-122.057012771052,38.5100334180276,19.488671875
7611,2003,"CA","CDF CAL FIRE (State)","MVU","DEHESA","00004492",2003-06-30 07:00:00,2003-06-30 07:00:00,"Unknown/Unidentified","Hand-drawn","Suppression (Wildfire)",52.67769,NA,NA,NA,"00000397",NA,"2000-2009",302452.90625,3436.49910868659,-116.86191705393,32.7843060502121,18.325341796875
7544,2003,"CA","CDF CAL FIRE (State)","LNU","FOURTY","00004146",2003-07-01 07:00:00,2003-07-01 07:00:00,"Arson","GPS Air","Suppression (Wildfire)",167.2532,NA,NA,NA,"00000218",NA,"2000-2009",1119622.7109375,4238.56654751946,-122.303948920273,38.915557443189,19.98818359375
7653,2003,"CA","CDF CAL FIRE (State)","MVU","RANGE","00004523",2003-07-01 07:00:00,2003-07-01 07:00:00,"Unknown/Unidentified","Hand-drawn","Suppression (Wildfire)",28.96182,NA,NA,NA,"00000401",NA,"2000-2009",165678.59375,1822.30413401614,-116.143972541075,32.6193345553318,25.06337890625
7456,2003,"CA","CDF CAL FIRE (State)","LMU","A-3","00001784",2003-07-02 07:00:00,2003-07-04 07:00:00,"Equipment Use","GPS Air","Suppression (Wildfire)",1050.844,NA,NA,NA,"00000050",NA,"2000-2009",7327172.5859375,17986.3823803122,-120.443552791041,40.3368639945196,15.414697265625
7488,2003,"CA","CDF CAL FIRE (State)","MMU","HUNTER","00011266",2003-07-03 07:00:00,2003-07-04 07:00:00,"Equipment Use","GPS Ground","Suppression (Wildfire)",476.1554,NA,NA,NA,"00000214",NA,"2000-2009",3076785.4296875,9109.49455905087,-120.202594997376,37.6214833689459,21.1322265625
7561,2003,"CA","CDF CAL FIRE (State)","TUU","VALLEY","00006909",2003-07-03 07:00:00,NA,"Unknown/Unidentified",NA,"Suppression (Wildfire)",129.8891,NA,NA,NA,"00000111",NA,"2000-2009",805171.73828125,4594.05177640154,-118.841275493401,36.0189722493992,20.06142578125
7442,2003,"CA","CDF CAL FIRE (State)","RRU","STAGE","00050865",2003-07-04 07:00:00,2003-07-06 07:00:00,"Equipment Use","Unknown","Suppression (Wildfire)",1570.543,NA,NA,NA,"00001096",NA,"2000-2009",9194288.7265625,16428.0309556408,-116.955510088842,33.6424305892632,21.084130859375
7531,2003,"CA","CDF CAL FIRE (State)","TUU","DINELEY","00007054",2003-07-05 07:00:00,2003-07-06 07:00:00,"Powerline","Mixed Methods","Suppression (Wildfire)",205.5308,NA,NA,NA,"00000120",NA,"2000-2009",1289102.91015625,5776.03255039662,-118.854315033323,36.4813632918617,17.029931640625
7550,2003,"CA","CCO Contract County","LAC","DULCE","00136159",2003-07-05 07:00:00,2003-07-05 07:00:00,"Playing with Fire","GPS Ground","Suppression (Wildfire)",151.5897,NA,NA,NA,"00136159",NA,"2000-2009",904821.34375,5365.40635255137,-118.299950685357,34.4721843208081,21.3431640625
7563,2003,"CA","CDF CAL FIRE (State)","TCU","ROCK","00004653",2003-07-05 07:00:00,2003-07-05 07:00:00,"Miscellaneous","GPS Ground","Suppression (Wildfire)",126.2086,NA,NA,NA,"00000358",NA,"2000-2009",818285.34765625,4437.47580703579,-120.56905554931,37.7478624754493,22.382470703125
7566,2003,"CA","CDF CAL FIRE (State)","RRU","MINE","00051300",2003-07-05 07:00:00,2003-07-05 07:00:00,"Miscellaneous","Unknown","Suppression (Wildfire)",114.6291,NA,NA,NA,"00001626",NA,"2000-2009",673108.1484375,4512.1447646571,-117.320483553676,33.7743305741956,22.754296875
7623,2003,"CA","CDF CAL FIRE (State)","TUU","SINGLETON","00007025",2003-07-05 07:00:00,2003-07-05 07:00:00,"Unknown/Unidentified","Unknown","Suppression (Wildfire)",42.78112,NA,NA,NA,"00000116",NA,"2000-2009",265202.35546875,2514.11598440992,-118.824108299541,36.0198402180881,20.6283203125
7641,2003,"CA","USF U.S. Forest Service","LPF","HOPPER","00000000",2003-07-05 07:00:00,2003-07-06 07:00:00,"Equipment Use","Unknown","Suppression (Wildfire)",34.57208,NA,NA,NA,"00000016",NA,"2000-2009",206301.02734375,2770.8335494199,-118.855775853786,34.4608061669837,20.007470703125
7675,2003,"CA","CDF CAL FIRE (State)","TCU","MURPHY","00004646",2003-07-05 07:00:00,2003-07-05 07:00:00,"Vehicle","GPS Ground","Suppression (Wildfire)",21.79315,NA,NA,NA,"00000355",NA,"2000-2009",142014.22265625,2773.0594796537,-120.331070684665,37.9358902882048,19.500634765625
7629,2003,"CA","USF U.S. Forest Service","SHF","POLLARD","00000000",2003-07-06 07:00:00,2003-07-10 07:00:00,"Miscellaneous","Unknown","Suppression (Wildfire)",40.68747,NA,NA,NA,"00000038",NA,"2000-2009",289322.79296875,3858.60233433964,-122.405846408209,40.9964434235314,22.476220703125
7688,2003,"CA","CDF CAL FIRE (State)","HUU","RAINBOW","00002975",2003-07-06 07:00:00,2003-07-10 07:00:00,"Unknown/Unidentified","GPS Air","Suppression (Wildfire)",15.61352,NA,NA,NA,"00000096",NA,"2000-2009",108801.49609375,1416.87993664788,-124.077545049802,40.316173388164,12.99501953125
7470,2003,"CA","CCO Contract County","KRN","PUMP","00035857",2003-07-07 07:00:00,2003-07-07 07:00:00,"Equipment Use","Unknown","Suppression (Wildfire)",747.2743,NA,NA,NA,"00035857",NA,"2000-2009",4511453.87890625,10574.1791550858,-118.820010428115,34.9472456408507,14.864892578125
7548,2003,"CA","USF U.S. Forest Service","ANF","TEMPLIN","00000000",2003-07-07 07:00:00,2003-07-07 07:00:00,"Equipment Use","Unknown","Suppression (Wildfire)",156.4982,NA,NA,NA,"00000062",NA,"2000-2009",936712.33984375,4482.95881092099,-118.706812851046,34.5886717915899,18.82802734375
7628,2003,"CA","USF U.S. Forest Service","KNF","VISTA","00000000",2003-07-07 07:00:00,2003-07-10 07:00:00,"Arson","GPS Air","Suppression (Wildfire)",41.09523,NA,NA,NA,"00000014",NA,"2000-2009",297121.70703125,2546.65166621331,-122.243393117047,41.5432868352297,18.851953125
7694,2003,"CA","CDF CAL FIRE (State)","NEU","PARKS","00009821",2003-07-07 07:00:00,2003-07-08 07:00:00,"Unknown/Unidentified","GPS Ground","Suppression (Wildfire)",14.60339,NA,NA,NA,"00000323",NA,"2000-2009",98619.93359375,1565.0731194592,-121.345436485896,39.2279434535259,19.64345703125
7473,2003,"CA","CDF CAL FIRE (State)","TUU","FRAZIER","00007233",2003-07-08 07:00:00,NA,"Unknown/Unidentified",NA,"Suppression (Wildfire)",697.8782,NA,NA,NA,"00000136",NA,"2000-2009",4337477.11328125,9065.23930927669,-118.902352469108,36.1232887084368,21.95693359375
7487,2003,"CA","NPS National Park Service","YNP","WOODLOT","00000000",2003-07-08 07:00:00,2003-11-07 08:00:00,"Arson","Mixed Methods","Suppression (Wildfire)",480.7464,"20090305",NA,NA,"YNP-1734",NA,"2000-2009",3111308.765625,8479.02954999105,-119.792701938245,37.6800014191207,15.652734375
7489,2003,"CA","CDF CAL FIRE (State)","MMU","NORTHFORK","00011727",2003-07-08 07:00:00,2003-07-10 07:00:00,"Equipment Use","Hand-drawn","Suppression (Wildfire)",471.7984,NA,NA,NA,"00000231",NA,"2000-2009",3017738.51953125,8362.22905576944,-119.604809239193,37.2370093184595,19.10341796875
7540,2003,"CA","BLM Bureau of Land Management","BBD","POINT","00000000",2003-07-08 07:00:00,2003-07-08 07:00:00,"Miscellaneous","Unknown","Suppression (Wildfire)",177.5443,NA,NA,NA,"0000D036",NA,"2000-2009",1090459.44921875,4052.76374493521,-118.453347557338,35.6491440186672,16.392236328125
7636,2003,"CA","USF U.S. Forest Service","ANF","POST","00000000",2003-07-08 07:00:00,2003-07-08 07:00:00,"Equipment Use","Unknown","Suppression (Wildfire)",37.28207,NA,NA,NA,"00000063",NA,"2000-2009",224089.25,3025.43380092242,-118.782655876786,34.7641785448695,18.089013671875
7656,2003,"CA","BLM Bureau of Land Management","BBD","MAIN","00000000",2003-07-08 07:00:00,2003-07-08 07:00:00,"Unknown/Unidentified","Unknown","Suppression (Wildfire)",28.03885,NA,NA,NA,"0000D036",NA,"2000-2009",172196.2578125,2263.37377538365,-118.487001935755,35.6455144841949,16.416162109375
7659,2003,"CA","CDF CAL FIRE (State)","NEU","SIERRA","00009953",2003-07-09 07:00:00,2003-07-10 07:00:00,"Vehicle","GPS Ground","Suppression (Wildfire)",26.92023,NA,NA,NA,"00000340",NA,"2000-2009",179988.93359375,1755.04036077824,-121.234858231919,38.8718658327166,22.00771484375
7701,2003,"CA","CDF CAL FIRE (State)","TUU","REZZ","00007296",2003-07-09 07:00:00,2003-07-09 07:00:00,"Unknown/Unidentified","Unknown","Suppression (Wildfire)",12.35312,NA,NA,NA,"00000142",NA,"2000-2009",76572.31640625,1336.68409215979,-118.832254115103,36.0170729894015,21.319482421875
7643,2003,"CA","USF U.S. Forest Service","SQF","RANCHERIA","00000000",2003-07-10 07:00:00,2003-07-11 07:00:00,"Equipment Use","Hand-drawn","Suppression (Wildfire)",33.99319,NA,NA,NA,"00000024",NA,"2000-2009",208713.828125,1989.74286109751,-118.611104333587,35.6358070077344,21.9310546875
7710,2003,"CA","USF U.S. Forest Service","ENF","NEVADA","00000000",2003-07-10 07:00:00,2003-07-10 07:00:00,"Equipment Use","GPS Air","Suppression (Wildfire)",11.12681,NA,NA,NA,"00000025",NA,"2000-2009",74582.57421875,2019.14426397309,-120.44095022379,38.9624480803631,17.672265625
7491,2003,"CA","CCO Contract County","KRN","155","00036708",2003-07-11 07:00:00,2003-07-12 07:00:00,"Arson","Unknown","Suppression (Wildfire)",457.1922,NA,NA,NA,"00036708",NA,"2000-2009",2812771.3359375,8864.73662314478,-118.875368213091,35.7170638267187,24.88857421875
7558,2003,"CA","CDF CAL FIRE (State)","FKU","GEORGE","00008240",2003-07-11 07:00:00,2003-07-11 07:00:00,"Miscellaneous","GPS Ground","Suppression (Wildfire)",131.9135,NA,NA,NA,"00000102",NA,"2000-2009",831698.24609375,4085.9564903157,-119.215396292699,36.6845068125848,23.140283203125
7495,2003,"CA","CDF CAL FIRE (State)","TCU","COOPERSTOWN #2","00004908",2003-07-12 07:00:00,2003-07-12 07:00:00,"Equipment Use","GPS Ground","Suppression (Wildfire)",407.2738,NA,NA,NA,"00000379",NA,"2000-2009",2636543.55859375,7358.95863518457,-120.477408141102,37.6904540221719,23.678369140625
7549,2003,"CA","CDF CAL FIRE (State)","TUU","CASTLE","00007429",2003-07-12 07:00:00,2003-07-12 07:00:00,"Unknown/Unidentified","Unknown","Suppression (Wildfire)",156.1365,NA,NA,NA,"00000149",NA,"2000-2009",977985.35546875,5117.33661138379,-119.076578381619,36.4288741422279,25.145654296875
7554,2003,"CA","CDF CAL FIRE (State)","TCU","HIGHWAY","00004890",2003-07-12 07:00:00,2003-07-12 07:00:00,"Vehicle","GPS Ground","Suppression (Wildfire)",142.2236,NA,NA,NA,"00000373",NA,"2000-2009",934017.16796875,4107.9659957922,-120.755821075625,38.2221180109814,21.87490234375
7494,2003,"CA","CDF CAL FIRE (State)","TCU","GREIG","00004924",2003-07-13 07:00:00,2003-07-13 07:00:00,"Vehicle","GPS Ground","Suppression (Wildfire)",419.2588,NA,NA,NA,"00000381",NA,"2000-2009",2707134.4453125,11443.4322346469,-120.510015788816,37.5937794664603,24.472802734375
7633,2003,"CA","CDF CAL FIRE (State)","TUU","BALCH","00007493",2003-07-13 07:00:00,NA,"Unknown/Unidentified",NA,"Suppression (Wildfire)",37.4996,NA,NA,NA,"00000153",NA,"2000-2009",233258.25,2245.32443945544,-118.80626948746,36.1554369890904,22.57021484375
7704,2003,"CA","CDF CAL FIRE (State)","MVU","GRADE","00004951",2003-07-13 07:00:00,2003-07-13 07:00:00,"Equipment Use","Hand-drawn","Suppression (Wildfire)",11.70157,NA,NA,NA,"00000458",NA,"2000-2009",67786.82421875,1137.49179380502,-117.022942520028,33.1814121214036,19.634912109375
7464,2003,"CA","CCO Contract County","KRN","HILLSIDE","00037559",2003-07-15 07:00:00,2003-07-15 07:00:00,"Equipment Use","Unknown","Suppression (Wildfire)",834.3141,NA,NA,NA,"00037559",NA,"2000-2009",5065133.03515625,11149.5827041622,-118.469873646833,35.1772195321465,21.717431640625
7637,2003,"CA","CDF CAL FIRE (State)","BEU","OLD STAGE","00002537",2003-07-15 07:00:00,2003-07-15 07:00:00,"Playing with Fire","GPS Ground","Suppression (Wildfire)",36.86267,NA,NA,NA,"00000246",NA,"2000-2009",232727.234375,2299.4849914063,-121.58244784124,36.736608687787,16.672021484375
7669,2003,"CA","USF U.S. Forest Service","LPF","CARISSO","00000000",2003-07-15 07:00:00,2003-07-16 07:00:00,"Equipment Use","Unknown","Suppression (Wildfire)",22.97452,NA,NA,NA,"00000018",NA,"2000-2009",142705.3359375,1594.68539841862,-121.416241371081,36.0992268891884,20.350244140625
7712,2003,"CA","DOD Department of Defense","AFV","GLOBE","00000000",2003-07-15 07:00:00,2003-07-15 07:00:00,"Powerline","GPS Ground","Suppression (Wildfire)",10.28274,NA,NA,NA,"00000000",NA,"2000-2009",61951.36328125,1605.85268169474,-120.593864215531,34.8619115398277,14.225244140625
7405,2003,"CA","USF U.S. Forest Service","CNF","COYOTE","00000000",2003-07-16 07:00:00,2003-07-23 07:00:00,"Lightning","Unknown","Suppression (Wildfire)",18704.78,NA,NA,NA,"00000039",NA,"2000-2009",108866890.21875,68679.7045757766,-116.58178249073,33.3885496150912,24.886376953125
7613,2003,"CA","CDF CAL FIRE (State)","SLU","COLONY","00004980",2003-07-16 07:00:00,2003-07-16 07:00:00,"Powerline","Mixed Methods","Suppression (Wildfire)",52.12521,NA,NA,NA,"00000248",NA,"2000-2009",317479.07421875,2696.71916229004,-120.695580423846,35.3096703537148,19.24990234375
7466,2003,"CA","CDF CAL FIRE (State)","BEU","EUCALYPTUS","00002577",2003-07-17 07:00:00,2003-07-18 07:00:00,"Miscellaneous","GPS Air","Suppression (Wildfire)",819.6969,NA,NA,NA,"00000248",NA,"2000-2009",5158701.93359375,13648.920407354,-121.745956714235,36.6139093305028,15.67373046875
7533,2003,"CA","CDF CAL FIRE (State)","TCU","OBYRNES","00005058",2003-07-17 07:00:00,2003-07-17 07:00:00,"Miscellaneous","GPS Ground","Suppression (Wildfire)",204.1493,NA,NA,NA,"00000402",NA,"2000-2009",1328405.5,5158.36011502479,-120.549650959578,37.8821415070867,24.79482421875
7528,2003,"CA","CDF CAL FIRE (State)","AEU","SALT","00011407",2003-07-18 07:00:00,2003-07-18 07:00:00,"Campfire","Mixed Methods","Suppression (Wildfire)",216.4392,NA,NA,NA,"00000306",NA,"2000-2009",1431263.76953125,5207.81543537922,-120.409289594572,38.4743905872145,22.06484375
7681,2003,"CA","DOD Department of Defense","AFV","LF-02","00000000",2003-07-18 07:00:00,2003-07-18 07:00:00,"Unknown/Unidentified","GPS Ground","Suppression (Wildfire)",18.19914,NA,NA,NA,"00000000",NA,"2000-2009",109598.78125,1543.43907294698,-120.58676478418,34.8440043139206,16.860009765625
7443,2003,"CA","USF U.S. Forest Service","STF","BOX",NA,2003-07-19 07:00:00,2003-12-31 08:00:00,"Lightning","GPS Air","Resource Benefit (Wildland Fire Use)",1569.071,"20090305",NA,NA,"00000024",NA,"2000-2009",10281571.9453125,28088.035465753,-119.910010173878,38.140371316479,18.745263671875
7545,2003,"CA","NPS National Park Service","YNP","SNOW","00000000",2003-07-19 07:00:00,2003-11-07 08:00:00,"Lightning","GPS Ground","Suppression (Wildfire)",166.8107,NA,NA,NA,"00002017",NA,"2000-2009",1083345.3515625,5565.81231780226,-119.523596314176,37.8102659794896,16.005029296875
7580,2003,"CA","NPS National Park Service","YNP","TAMARACK","00000000",2003-07-19 07:00:00,2003-11-07 08:00:00,"Lightning","GPS Ground","Suppression (Wildfire)",96.88058,NA,NA,NA,"00002029",NA,"2000-2009",628229.64453125,4703.64589989142,-119.724247619084,37.7535112399263,19.7279296875
7418,2003,"CA","CDF CAL FIRE (State)","SCU","DEL_PUERTO_2","00002846",2003-07-20 07:00:00,2003-07-25 07:00:00,"Lightning","GPS Ground","Suppression (Wildfire)",5909.038,NA,NA,NA,"00000235",NA,"2000-2009",37990970.6953125,33952.0916741175,-121.40172078719,37.4322439719986,24.658837890625
7419,2003,"CA","USF U.S. Forest Service","TNF","CHILCOOT","00000000",2003-07-20 07:00:00,2003-07-21 07:00:00,"Lightning",NA,"Suppression (Wildfire)",5641.614,"Containment 'fire_day' estimated",NA,NA,"00000031",NA,"2000-2009",38674171.3320312,42939.3406270894,-120.109364410635,39.7529904984563,22.141748046875
7430,2003,"CA","USF U.S. Forest Service","STF","MOUNTAIN",NA,2003-07-20 07:00:00,2003-12-31 08:00:00,"Lightning","GPS Air","Resource Benefit (Wildland Fire Use)",2632.773,"20090305",NA,NA,"00000026",NA,"2000-2009",17255944.3710938,44344.6934267824,-119.891416721423,38.149555853124,17.16201171875
7439,2003,"CA","CCO Contract County","KRN","GRAPEVINE","00038533",2003-07-20 07:00:00,2003-07-20 07:00:00,"Vehicle","Unknown","Suppression (Wildfire)",1830.501,NA,NA,NA,"00038533",NA,"2000-2009",11038969.9804688,20614.9619857984,-118.909159365438,34.9016802900482,22.072900390625
7450,2003,"CA","CDF CAL FIRE (State)","SLU","PARKHILL","00005133",2003-07-20 07:00:00,2003-07-22 07:00:00,"Vehicle","Mixed Methods","Suppression (Wildfire)",1196.853,NA,NA,NA,"00000262",NA,"2000-2009",7308808.46875,15496.1787848024,-120.469607612377,35.4164270842718,19.521630859375
7502,2003,"CA","CCO Contract County","KRN","MERCURY","00038766",2003-07-20 07:00:00,2003-07-20 07:00:00,"Equipment Use","Unknown","Suppression (Wildfire)",344.6724,NA,NA,NA,"00038766",NA,"2000-2009",2092995.53125,9205.46692647844,-118.495296951186,35.1866597790888,22.614892578125
7539,2003,"CA","BLM Bureau of Land Management","NOD","RAM","00000000",2003-07-20 07:00:00,2003-07-24 07:00:00,"Lightning","Unknown","Suppression (Wildfire)",182.7516,NA,NA,NA,"0000U575",NA,"2000-2009",1288170.203125,7667.99827632483,-120.284837409039,40.7035212179248,28.0990234375
7619,2003,"CA","USF U.S. Forest Service","TNF","LOYALTON","00000000",2003-07-20 07:00:00,2003-07-20 07:00:00,"Lightning",NA,"Suppression (Wildfire)",46.48029,NA,NA,NA,"00000032",NA,"2000-2009",317919.8359375,3062.87322082042,-120.175655665862,39.6754462992418,20.7494140625
7639,2003,"CA","NPS National Park Service","YNP","KIBBIE","00000000",2003-07-20 07:00:00,2003-11-07 08:00:00,"Lightning","Mixed Methods","Suppression (Wildfire)",35.96737,NA,NA,NA,"00002085",NA,"2000-2009",235135.62890625,3288.12333808936,-119.852949812893,38.054931414146,17.500390625
7686,2003,"CA","USF U.S. Forest Service","LNF","SIGNAL","00000000",2003-07-20 07:00:00,2003-07-20 07:00:00,"Miscellaneous","GPS Air","Suppression (Wildfire)",16.9174,NA,NA,NA,"00000017",NA,"2000-2009",119286.1171875,1625.62593494293,-120.814668255451,40.714651254277,23.877099609375
7415,2003,"CA","BLM Bureau of Land Management","NOD","SMOKE","00000000",2003-07-21 07:00:00,2003-07-28 07:00:00,"Lightning","Unknown","Suppression (Wildfire)",7784.184,NA,NA,NA,"0000U580",NA,"2000-2009",54863335.9101562,54569.7746267584,-120.00431063772,40.7001959381474,27.31826171875
7479,2003,"CA","BLM Bureau of Land Management","NOD","SHINN","00000000",2003-07-22 07:00:00,2003-07-25 07:00:00,"Lightning","Unknown","Suppression (Wildfire)",594.584,NA,NA,NA,"0000U590",NA,"2000-2009",4176914.0078125,12376.7912883669,-120.233267484548,40.5896458602653,27.82314453125
7557,2003,"CA","BLM Bureau of Land Management","NOD","VALLEY","00000000",2003-07-22 07:00:00,2003-07-24 07:00:00,"Lightning","Unknown","Suppression (Wildfire)",135.2002,NA,NA,NA,"0000U589",NA,"2000-2009",964386.80859375,6237.86127892121,-120.657131506148,41.0996067831018,25.0755859375
7460,2003,"CA","USF U.S. Forest Service","SQF","BASIN","00000000",2003-07-23 07:00:00,2003-07-28 07:00:00,"Miscellaneous","Unknown","Suppression (Wildfire)",940.867,NA,NA,NA,"00000042",NA,"2000-2009",5747549.59375,18986.0475166181,-118.438825885735,35.4303528515695,25.655908203125
7513,2003,"CA","BLM Bureau of Land Management","NOD","SKEDADDLE","00000000",2003-07-23 07:00:00,2003-07-28 07:00:00,"Lightning","Unknown","Suppression (Wildfire)",285.8354,NA,NA,NA,"0000U603",NA,"2000-2009",1998111.921875,8871.11649798362,-120.146302323737,40.4232799768233,29.022119140625
7627,2003,"CA","BLM Bureau of Land Management","NOD","BRUBECK","00000000",2003-07-23 07:00:00,2003-07-24 07:00:00,"Lightning","Unknown","Suppression (Wildfire)",41.54723,NA,NA,NA,"0000U598",NA,"2000-2009",292655.6796875,2737.38516432673,-120.251975070854,40.6805431482595,28.019677734375
7667,2003,"CA","BLM Bureau of Land Management","BBD","SPANISH","00000000",2003-07-23 07:00:00,2003-07-23 07:00:00,"Equipment Use","Unknown","Suppression (Wildfire)",23.42282,NA,NA,NA,"0000D063",NA,"2000-2009",141792.89453125,1734.89064748698,-119.936587298787,35.0592835783468,25.59169921875
7705,2003,"CA","USF U.S. Forest Service","SHF","GIRARD","00000000",2003-07-23 07:00:00,2003-07-25 07:00:00,"Lightning","Unknown","Suppression (Wildfire)",11.64283,NA,NA,NA,"00000044",NA,"2000-2009",83138.39453125,1384.72613721059,-122.220206229917,41.13532796621,30.014794921875
7435,2003,"CA","CCO Contract County","LAC","HAUSER","00150988",2003-07-24 07:00:00,2003-07-27 07:00:00,"Powerline","Mixed Methods","Suppression (Wildfire)",2038.864,NA,NA,NA,"00150988",NA,"2000-2009",12196543.0351562,23554.6751830322,-118.293730380603,34.564649330769,21.865625
7630,2003,"CA","BLM Bureau of Land Management","NOD","DODGE","00000000",2003-07-24 07:00:00,2003-07-24 07:00:00,"Lightning","Unknown","Suppression (Wildfire)",40.16666,NA,NA,NA,"0000U573",NA,"2000-2009",285639.5234375,3991.14195205559,-120.174501967752,40.998746427944,22.913720703125
7665,2003,"CA","CDF CAL FIRE (State)","FKU","POWERHOUSE","00008927",2003-07-24 07:00:00,2003-07-24 07:00:00,"Playing with Fire","GPS Ground","Suppression (Wildfire)",24.09627,NA,NA,NA,"00000111",NA,"2000-2009",153537.3046875,1680.43395045086,-119.486909035759,37.0912160940693,26.051416015625
7690,2003,"CA","NPS National Park Service","KNP","COFFEEPOT","00000000",2003-07-24 07:00:00,2003-07-27 07:00:00,"Lightning","GPS Ground","Suppression (Wildfire)",14.98248,NA,NA,NA,"00000034",NA,"2000-2009",93809.15625,1613.13802091384,-118.750894030051,36.4138583653525,18.12197265625
7426,2003,"CA","CDF CAL FIRE (State)","RRU","CANYON","00056869",2003-07-25 07:00:00,2003-07-29 07:00:00,"Unknown/Unidentified","Unknown","Suppression (Wildfire)",4302.1,NA,NA,NA,"00001290",NA,"2000-2009",25277949.9921875,29834.3254182718,-116.880029092071,33.8013353290421,21.06337890625
7576,2003,"CA","CDF CAL FIRE (State)","AEU","CUTTER","00012187",2003-07-25 07:00:00,2003-07-25 07:00:00,"Vehicle","GPS Ground","Suppression (Wildfire)",102.0732,NA,NA,NA,"00000365",NA,"2000-2009",682445.390625,4066.74652878441,-120.91818344036,38.8709404159109,24.223779296875
7651,2003,"CA","BLM Bureau of Land Management","NOD","PETE","00000000",2003-07-25 07:00:00,2003-07-28 07:00:00,"Lightning","Unknown","Suppression (Wildfire)",29.62663,NA,NA,NA,"0000U622",NA,"2000-2009",207540.83984375,2646.89824648186,-120.507680774364,40.4948131946213,20.911767578125
7718,2003,"CA","BLM Bureau of Land Management","NOD","STEEP","00000000",2003-07-25 07:00:00,2003-07-28 07:00:00,"Lightning","Unknown","Suppression (Wildfire)",5.570854,NA,NA,NA,"0000U625",NA,"2000-2009",39010.19140625,745.938315373024,-120.499422853804,40.4819524895406,20.910546875
7411,2003,"CA","USF U.S. Forest Service","MDF","ACKLEY","00000000",2003-07-26 07:00:00,2003-07-30 07:00:00,"Lightning","Unknown","Suppression (Wildfire)",9599.021,NA,NA,NA,"00000057",NA,"2000-2009",69834940.8515625,52434.0764362619,-121.328587457527,41.7453084549546,20.085595703125
7527,2003,"CA","CCO Contract County","SBC","ALAMO","00005065",2003-07-26 07:00:00,2003-07-26 07:00:00,"Unknown/Unidentified","GPS Air","Suppression (Wildfire)",220.4149,NA,NA,NA,"00005065",NA,"2000-2009",1323687.30859375,10454.4980305625,-120.232809668876,34.7280545577444,16.9505859375
7717,2003,"CA","CDF CAL FIRE (State)","LNU","KELLY","00005248",2003-07-26 07:00:00,2003-07-26 07:00:00,"Equipment Use","Hand-drawn","Suppression (Wildfire)",5.998993,NA,NA,NA,"00000394",NA,"2000-2009",39676.9296875,763.016247201716,-121.99603810221,38.4807166993921,19.338525390625
7614,2003,"CA","USF U.S. Forest Service","TNF","CORRECO","00000000",2003-07-27 07:00:00,2003-07-27 07:00:00,"Lightning","GPS Ground","Suppression (Wildfire)",51.63148,"Containment 'fire_day' estimated",NA,NA,"00000038",NA,"2000-2009",353627.04296875,2997.65391800115,-120.189024072665,39.7220657861547,17.205712890625
7428,2003,"CA","NPS National Park Service","KNP","WILLIAMS","00000000",2003-07-28 07:00:00,2003-12-31 08:00:00,"Lightning","Mixed Methods","Resource Benefit (Wildland Fire Use)",3472.12,NA,NA,NA,"00000038",NA,"2000-2009",21905755.03125,30586.5435672961,-118.695424181302,36.7101205138665,14.43349609375
7606,2003,"CA","USF U.S. Forest Service","STF","MERCED",NA,2003-07-28 07:00:00,2003-08-30 07:00:00,"Arson","GPS Air","Suppression (Wildfire)",57.42621,"20090305",NA,NA,"00000043",NA,"2000-2009",372292.61328125,3259.28521944903,-120.042877855428,37.7442762060554,23.070947265625
7420,2003,"CA","NPS National Park Service","YNP","KIBBIE CMPLX WFU",NA,2003-07-29 07:00:00,2003-11-07 08:00:00,"Lightning","Mixed Methods","Resource Benefit (Wildland Fire Use)",5570.187,"20090305",NA,NA,"00002261",NA,"2000-2009",36415899.4140625,52453.8345609301,-119.863478639971,38.0559024620404,18.39345703125
7468,2003,"CA","NPS National Park Service","YNP","KIBBIE CMPLX WF",NA,2003-07-29 07:00:00,2003-11-07 08:00:00,"Lightning","Mixed Methods","Suppression (Wildfire)",790.4635,"20090305",NA,NA,"00002262",NA,"2000-2009",5161983.1953125,12255.9516256566,-119.888071415291,38.0145446880573,19.17666015625
7516,2003,"CA","NPS National Park Service","KNP","GIANT","00000000",2003-07-29 07:00:00,2003-12-13 08:00:00,"Lightning","GPS Ground","Resource Benefit (Wildland Fire Use)",275.4718,NA,NA,NA,"00000048",NA,"2000-2009",1731401.6953125,7194.11091318269,-118.759406393372,36.5631388422735,17.098046875
7546,2003,"CA","CDF CAL FIRE (State)","MEU","RATTLESNAKE","00005879",2003-07-29 07:00:00,2003-08-08 07:00:00,"Arson","GPS Air","Suppression (Wildfire)",164.2367,NA,NA,NA,"00000156",NA,"2000-2009",1126806.4609375,5978.61732670318,-123.537808717296,39.7818737506221,20.909326171875
7604,2003,"CA","CDF CAL FIRE (State)","FKU","JACALITOS","00009168",2003-07-29 07:00:00,2003-07-29 07:00:00,"Equipment Use","GPS Ground","Suppression (Wildfire)",58.6041,NA,NA,NA,"00000112",NA,"2000-2009",363791.01953125,2390.71879719056,-120.322136212605,36.0746024371812,26.902490234375
7677,2003,"CA","USF U.S. Forest Service","STF","BURGSON",NA,2003-07-29 07:00:00,2003-08-26 07:00:00,"Lightning","Hand-drawn","Suppression (Wildfire)",19.18328,"20090305",NA,NA,"00000060",NA,"2000-2009",126539.02734375,1630.25546660726,-119.947747338272,38.3836603018703,18.595361328125
7486,2003,"CA","USF U.S. Forest Service","SQF","CHINA","00000000",2003-07-30 07:00:00,2003-08-01 07:00:00,"Lightning","Hand-drawn","Suppression (Wildfire)",509.4702,NA,NA,NA,"00000062",NA,"2000-2009",3121849.38671875,17672.478964761,-118.66435482717,35.555296890383,25.794091796875
7573,2003,"CA","CDF CAL FIRE (State)","SCU","BIRD_2","00003034",2003-07-30 07:00:00,2003-07-30 07:00:00,"Lightning","GPS Ground","Suppression (Wildfire)",105.9245,NA,NA,NA,"00000247",NA,"2000-2009",682881.20703125,3892.15456065758,-121.458484981591,37.5350675788648,25.699853515625
7583,2003,"CA","CDF CAL FIRE (State)","SCU","STRIKE","00003035",2003-07-30 07:00:00,2003-07-30 07:00:00,"Lightning","GPS Ground","Suppression (Wildfire)",88.62248,NA,NA,NA,"00000248",NA,"2000-2009",571673.48828125,3545.31090177785,-121.537289891858,37.5571635072161,24.85048828125
7609,2003,"CA","BLM Bureau of Land Management","BBD","MIDWAY","00000000",2003-07-30 07:00:00,2003-07-30 07:00:00,"Lightning","Unknown","Suppression (Wildfire)",54.30684,NA,NA,NA,"0000D072",NA,"2000-2009",329754.04296875,2940.68010786301,-119.638643929411,35.1842412116406,29.24453125
7617,2003,"CA","USF U.S. Forest Service","SQF","LITTLE","00000000",2003-07-30 07:00:00,2003-07-30 07:00:00,"Lightning","Hand-drawn","Suppression (Wildfire)",49.61662,NA,NA,NA,"00000068",NA,"2000-2009",304234.2890625,2771.42623394777,-118.702223229974,35.5820948112663,25.984033203125
7642,2003,"CA","USF U.S. Forest Service","SQF","HALFWAY","00000000",2003-07-30 07:00:00,2003-08-01 07:00:00,"Lightning","Hand-drawn","Suppression (Wildfire)",34.27248,NA,NA,NA,"00000064",NA,"2000-2009",211311.88671875,2601.94638686165,-118.443786763992,35.8041835006584,22.130517578125
7680,2003,"CA","CDF CAL FIRE (State)","LMU","LIGHTNING 55","00002432",2003-07-30 07:00:00,2003-07-31 07:00:00,"Lightning","GPS Ground","Suppression (Wildfire)",18.37549,NA,NA,NA,"00000170",NA,"2000-2009",130668.71484375,2197.54858261014,-121.103626900848,40.9972363155675,27.7708984375
7720,2003,"CA","CDF CAL FIRE (State)","SCU","BUCKEYE","00003057",2003-07-30 07:00:00,2003-07-30 07:00:00,"Lightning","GPS Ground","Suppression (Wildfire)",4.56472,NA,NA,NA,"00000253",NA,"2000-2009",29433.578125,694.423155380075,-121.556192980088,37.5419758984836,24.74404296875
7437,2003,"CA","USF U.S. Forest Service","SQF","COONEY","00000000",2003-07-31 07:00:00,2003-12-15 08:00:00,"Lightning","Hand-drawn","Suppression (Wildfire)",1928.406,NA,NA,NA,"00000079",NA,"2000-2009",12053988.6875,18647.9986982159,-118.530901480984,36.3480123453221,14.658349609375
7447,2003,"CA","BLM Bureau of Land Management","NOD","BARBER","00000000",2003-07-31 07:00:00,2003-08-04 07:00:00,"Lightning","Unknown","Suppression (Wildfire)",1266.971,NA,NA,NA,"0000U643",NA,"2000-2009",9079611.65625,36668.9133312357,-120.087258146467,41.2536202295099,22.27431640625
7457,2003,"CA","NPS National Park Service","YNP","WHISKEY","00000000",2003-07-31 07:00:00,2003-11-07 08:00:00,"Lightning","Unknown","Suppression (Wildfire)",1041.117,NA,NA,NA,"00002352",NA,"2000-2009",6769498.71484375,24719.074194174,-119.589334412211,37.8542846837417,15.42568359375
7645,2003,"CA","CDF CAL FIRE (State)","TCU","CREED","00005399",2003-07-31 07:00:00,2003-07-31 07:00:00,"Miscellaneous","GPS Ground","Suppression (Wildfire)",32.96297,NA,NA,NA,"00000445",NA,"2000-2009",213049.77734375,2253.22142452963,-120.550708228688,37.6306544532409,27.905908203125
7721,2003,"CA","NPS National Park Service","KNP","DENNISON","00000000",2003-07-31 07:00:00,2003-09-23 07:00:00,"Lightning","GPS Air","Suppression (Wildfire)",4.51493,NA,NA,NA,"00000052",NA,"2000-2009",28201.97265625,1116.16448130356,-118.733327028319,36.3205222540909,17.42861328125
7640,2003,"CA","BLM Bureau of Land Management","BBD","SOUTH","00000000",2003-08-01 07:00:00,2003-08-02 07:00:00,"Lightning","Unknown","Suppression (Wildfire)",35.50453,NA,NA,NA,"0000D079",NA,"2000-2009",214776.2578125,4050.74075562908,-118.560131353797,35.0296086141621,19.658349609375
7588,2003,"CA","CDF CAL FIRE (State)","FKU","PANOCHE","00009383",2003-08-02 07:00:00,2003-08-02 07:00:00,"Lightning","GPS Ground","Suppression (Wildfire)",84.03262,NA,NA,NA,"00000122",NA,"2000-2009",528785.73046875,3492.76337915108,-120.726398390711,36.6089547082703,22.623193359375
7671,2003,"CA","USF U.S. Forest Service","KNF","WOOLEY","00000000",2003-08-02 07:00:00,2003-08-07 07:00:00,"Lightning","GPS Air","Suppression (Wildfire)",22.72387,NA,NA,NA,"00000054",NA,"2000-2009",164037.64453125,2263.83629134947,-123.248129428109,41.4921365436032,19.7796875
7672,2003,"CA","USF U.S. Forest Service","ANF","SHOOTING","00000000",2003-08-03 07:00:00,2003-08-03 07:00:00,"Miscellaneous","Unknown","Suppression (Wildfire)",22.66387,NA,NA,NA,"00000096",NA,"2000-2009",134805.109375,1565.90319645353,-118.371603120878,34.3243158971513,19.887841796875
7543,2003,"CA","CDF CAL FIRE (State)","SCU","HOOVER","00003140",2003-08-04 07:00:00,2003-08-11 07:00:00,"Lightning","Hand-drawn","Suppression (Wildfire)",168.9027,NA,NA,NA,"00000264",NA,"2000-2009",1079835.9375,5349.71883131358,-121.406115268078,37.2191488146674,18.84267578125
7551,2003,"CA","CDF CAL FIRE (State)","LNU","MORGAN","00005587",2003-08-05 07:00:00,2003-08-05 07:00:00,"Lightning","GPS Air","Suppression (Wildfire)",144.2492,NA,NA,NA,"00000432",NA,"2000-2009",964906.73828125,4970.42738226508,-122.509538531014,38.8887552660856,17.392236328125
7521,2003,"CA","CDF CAL FIRE (State)","TUU","ELEPHANT","00008652",2003-08-06 07:00:00,2003-08-06 07:00:00,"Unknown/Unidentified","Unknown","Suppression (Wildfire)",243.4415,NA,NA,NA,"00000202",NA,"2000-2009",1516494.6328125,6670.23335581859,-119.046307848581,36.2132801018887,21.6009765625
7505,2003,"CA","USF U.S. Forest Service","ANF","MIDDLE","00000000",2003-08-07 07:00:00,2003-08-08 07:00:00,"Equipment Use","Unknown","Suppression (Wildfire)",329.0013,NA,NA,NA,"00000103",NA,"2000-2009",1956053.41015625,6565.40606319028,-118.334403795064,34.3058493300821,18.806298828125
7655,2003,"CA","USF U.S. Forest Service","SQF","BAR","00000000",2003-08-08 07:00:00,2003-08-08 07:00:00,"Miscellaneous","Hand-drawn","Suppression (Wildfire)",28.70318,NA,NA,NA,"00000084",NA,"2000-2009",175551.5625,1858.49703840168,-118.74479291172,35.4789060703968,21.203515625
7634,2003,"CA","CDF CAL FIRE (State)","TCU","SHELL","00005895",2003-08-09 07:00:00,2003-08-09 07:00:00,"Equipment Use","GPS Ground","Suppression (Wildfire)",37.43691,NA,NA,NA,"00000517",NA,"2000-2009",244005.7265625,2191.5899525148,-120.455401118214,37.9434194393735,18.545556640625
7454,2003,"CA","CDF CAL FIRE (State)","SLU","CHIMNEY","00005785",2003-08-10 07:00:00,2003-08-12 07:00:00,"Vehicle","Mixed Methods","Suppression (Wildfire)",1109.835,NA,NA,NA,"00000319",NA,"2000-2009",6716206.09375,12418.3292919307,-120.207941737741,35.0450738798852,21.25673828125
7472,2003,"CA","DOD Department of Defense","APF","DEL VENTURI","00000000",2003-08-11 07:00:00,2003-08-13 07:00:00,"Miscellaneous","Unknown","Suppression (Wildfire)",705.3404,NA,NA,NA,"00000025",NA,"2000-2009",4378384.80859375,9247.80821493099,-121.321971763268,36.0737948027908,18.285302734375
7578,2003,"CA","CDF CAL FIRE (State)","SCU","MCEWEN","00003299",2003-08-12 07:00:00,2003-08-13 07:00:00,"Equipment Use","GPS Ground","Suppression (Wildfire)",100.3893,NA,NA,NA,"00000286",NA,"2000-2009",655545.5390625,3723.92816291102,-122.170834264567,38.0128004969834,17.488916015625
7658,2003,"CA","CDF CAL FIRE (State)","FKU","KILLION","00009845",2003-08-12 07:00:00,2003-08-12 07:00:00,"Miscellaneous","GPS Ground","Suppression (Wildfire)",27.59347,NA,NA,NA,"00000126",NA,"2000-2009",174099.5,2499.03090585065,-119.230664152674,36.7126067428667,21.0931640625
7568,2003,"CA","CDF CAL FIRE (State)","MVU","BORDER#2","00005901",2003-08-13 07:00:00,2003-08-13 07:00:00,"Campfire","Hand-drawn","Suppression (Wildfire)",112.7066,NA,NA,NA,"00000582",NA,"2000-2009",644501.6484375,5164.99077942535,-116.915090384572,32.6020593339772,21.53017578125
7601,2003,"CA","CDF CAL FIRE (State)","TCU","PITMAN","00006094",2003-08-15 07:00:00,2003-08-15 07:00:00,"Equipment Use","GPS Air","Suppression (Wildfire)",66.56636,NA,NA,NA,"00000534",NA,"2000-2009",434306.1328125,2939.72654014811,-120.695819331731,37.9810267736435,20.2943359375
7618,2003,"CA","CDF CAL FIRE (State)","SHU","RIDGE","00008971",2003-08-15 07:00:00,2003-08-16 07:00:00,"Unknown/Unidentified","GPS Ground","Suppression (Wildfire)",48.7096,NA,NA,NA,"00000297",NA,"2000-2009",341011.81640625,3173.54840969864,-121.927707538612,40.4739924631108,22.851953125
7668,2003,"CA","BLM Bureau of Land Management","NOD","HW 36 / ISHI","00000000",2003-08-15 07:00:00,2003-08-15 07:00:00,"Unknown/Unidentified","Unknown","Suppression (Wildfire)",23.0363,NA,NA,NA,"0000U659",NA,"2000-2009",160113.1171875,2239.59542159739,-122.168917607832,40.227510105166,24.2494140625
7598,2003,"CA","USF U.S. Forest Service","ANF","ROWHER","00000000",2003-08-17 07:00:00,2003-08-17 07:00:00,"Equipment Use","Unknown","Suppression (Wildfire)",68.42754,NA,NA,NA,"00000116",NA,"2000-2009",409069.39453125,3524.32220060435,-118.355530617893,34.5373669180171,21.75185546875
7635,2003,"CA","CDF CAL FIRE (State)","MVU","BORDER#5","00006084",2003-08-17 07:00:00,2003-08-19 07:00:00,"Campfire","Hand-drawn","Suppression (Wildfire)",37.30086,NA,NA,NA,"00000613",NA,"2000-2009",213229.25,2387.78174976315,-116.891582820841,32.5867936001908,22.06923828125
7438,2003,"CA","CDF CAL FIRE (State)","RRU","LOCUST","00063401",2003-08-18 07:00:00,2003-08-22 07:00:00,"Unknown/Unidentified","Unknown","Suppression (Wildfire)",1898.781,NA,NA,NA,"00001456",NA,"2000-2009",11203726,19089.7002849819,-117.164054640805,33.9823492127879,24.32705078125
7575,2003,"CA","CDF CAL FIRE (State)","MEU","BELL","00006599",2003-08-18 07:00:00,2003-08-19 07:00:00,"Arson","GPS Ground","Suppression (Wildfire)",102.2319,NA,NA,NA,"00000207",NA,"2000-2009",702334.62109375,3970.88881846011,-123.564051203103,39.8280051926749,19.242333984375
7579,2003,"CA","CDF CAL FIRE (State)","AEU","TONZI","00013672",2003-08-18 07:00:00,2003-08-18 07:00:00,"Vehicle","GPS Ground","Suppression (Wildfire)",99.11134,NA,NA,NA,"00000441",NA,"2000-2009",654121.1328125,3506.6789868695,-120.888133352077,38.4032460221321,21.79189453125
7695,2003,"CA","BLM Bureau of Land Management","NOD","MINE","00000000",2003-08-20 07:00:00,2003-08-21 07:00:00,"Unknown/Unidentified","Unknown","Suppression (Wildfire)",14.22727,NA,NA,NA,"0000U663",NA,"2000-2009",100174.6796875,1414.82548577085,-122.444529455031,40.6667482202271,25.71376953125
7413,2003,"CA","NPS National Park Service","KNP","WEST KERN","00000000",2003-08-21 07:00:00,2003-12-15 08:00:00,"Lightning","GPS Air","Resource Benefit (Wildland Fire Use)",7971.402,NA,NA,NA,"00000068",NA,"2000-2009",49810465.375,52924.2634613888,-118.414067257668,36.3347584849403,15.9681640625
7689,2003,"CA","USF U.S. Forest Service","LPF","CANYON","00000000",2003-08-21 07:00:00,2003-08-21 07:00:00,"Lightning","Unknown","Suppression (Wildfire)",15.38653,NA,NA,NA,"00000026",NA,"2000-2009",92641.2734375,1451.99287511472,-119.375245112139,34.8353204173838,21.05556640625
7508,2003,"CA","CCO Contract County","LAC","LOS ALAMOS","00174407",2003-08-23 07:00:00,2003-08-23 07:00:00,"Aircraft","Hand-drawn","Suppression (Wildfire)",302.7944,NA,NA,NA,"00174407",NA,"2000-2009",1817456.5625,8178.17761541126,-118.808399336509,34.7061032848686,16.303369140625
7524,2003,"CA","CDF CAL FIRE (State)","RRU","MATHEWS","00064778",2003-08-23 07:00:00,2003-08-24 07:00:00,"Miscellaneous","Unknown","Suppression (Wildfire)",234.61,NA,NA,NA,"00001487",NA,"2000-2009",1378260.44140625,5456.06229291298,-117.407645548713,33.7937125557976,18.58876953125
7424,2003,"CA","USF U.S. Forest Service","INF","SUMMIT","00000000",2003-08-25 07:00:00,2003-12-31 08:00:00,"Lightning","GPS Air","Suppression (Wildfire)",4761.22,NA,NA,NA,"00000052",NA,"2000-2009",29667120.1914062,40921.5809839535,-118.140359773936,36.2233619987778,19.69130859375
7646,2003,"CA","NPS National Park Service","KNP","SLIDE BLUF","00000000",2003-08-25 07:00:00,2003-12-31 08:00:00,"Lightning","Mixed Methods","Resource Benefit (Wildland Fire Use)",32.74517,NA,NA,NA,"00000073",NA,"2000-2009",207772.08203125,2288.21732723069,-118.681482957861,36.9302286106077,12.457421875
7436,2003,"CA","BLM Bureau of Land Management","BBD","COOPRSTOWN","00000000",2003-08-26 07:00:00,2003-08-27 07:00:00,"Unknown/Unidentified","Unknown","Suppression (Wildfire)",2010.39,NA,NA,NA,"0000U932",NA,"2000-2009",13039610.515625,17842.5698873633,-120.526270398859,37.7622829837332,24.864404296875
7461,2003,"CA","CDF CAL FIRE (State)","SCU","KINCAID","00003581",2003-08-26 07:00:00,2003-09-18 07:00:00,"Lightning","GPS Ground","Suppression (Wildfire)",917.4308,NA,"SANTA CLARA COMPLEX",NA,"00000319","00003581","2000-2009",5900216.79296875,11093.7378817328,-121.608282227291,37.4436341882516,22.4701171875
7469,2003,"CA","CDF CAL FIRE (State)","TCU","LIGHTNING #23","00006447",2003-08-26 07:00:00,2003-08-26 07:00:00,"Equipment Use","GPS Ground","Suppression (Wildfire)",777.7275,NA,NA,NA,"00000574",NA,"2000-2009",5041945.1796875,14892.6259989159,-120.510615808948,37.7439680053709,24.903466796875
7475,2003,"CA","CDF CAL FIRE (State)","SCU","HAMILTON","00003581",2003-08-26 07:00:00,2003-09-18 07:00:00,"Lightning","GPS Ground","Suppression (Wildfire)",631.9925,NA,"SANTA CLARA COMPLEX",NA,"00000319","00003581","2000-2009",4068378.69140625,9850.3969276369,-121.672046725469,37.4796467896794,21.841943359375
7490,2003,"CA","CDF CAL FIRE (State)","MMU","WHITEROCK","00015304",2003-08-26 07:00:00,2003-08-26 07:00:00,"Lightning","Hand-drawn","Suppression (Wildfire)",465.4741,NA,NA,NA,"00000381",NA,"2000-2009",2985510.875,10155.2849754664,-120.09756543129,37.3416646626155,27.60048828125
7510,2003,"CA","CDF CAL FIRE (State)","SCU","PITTSBURG","00003566",2003-08-26 07:00:00,2003-08-26 07:00:00,"Lightning","GPS Ground","Suppression (Wildfire)",298.2266,NA,NA,NA,"00000315",NA,"2000-2009",1946242.3671875,8237.35567607636,-121.929879801757,37.9903453406974,21.61904296875
7570,2003,"CA","CDF CAL FIRE (State)","FKU","LOS GATOS","00010525",2003-08-26 07:00:00,2003-08-26 07:00:00,"Lightning","GPS Ground","Suppression (Wildfire)",107.663,NA,NA,NA,"00000149",NA,"2000-2009",670854.33984375,4308.29034726884,-120.470268293817,36.223790678087,27.32900390625
7584,2003,"CA","CDF CAL FIRE (State)","TCU","LIGHTNING #28","00006457",2003-08-26 07:00:00,2003-08-26 07:00:00,"Equipment Use","GPS Ground","Suppression (Wildfire)",87.01574,NA,NA,NA,"00000579",NA,"2000-2009",563272.7265625,3915.81447104196,-120.356897381371,37.6880834978894,24.619775390625
7595,2003,"CA","CDF CAL FIRE (State)","TCU","LIGHTNING #26","00006455",2003-08-26 07:00:00,2003-08-26 07:00:00,"Equipment Use","GPS Ground","Suppression (Wildfire)",73.61822,NA,NA,NA,"00000577",NA,"2000-2009",476485.16015625,3525.10903589511,-120.479450371672,37.6831937443377,25.261865234375
7596,2003,"CA","CDF CAL FIRE (State)","MMU","200FIRE","00015276",2003-08-26 07:00:00,2003-08-26 07:00:00,"Lightning","Hand-drawn","Suppression (Wildfire)",72.3,NA,NA,NA,"00000377",NA,"2000-2009",461386.25390625,2778.82299292716,-119.612133129016,37.1494303337708,25.252587890625
7692,2003,"CA","CDF CAL FIRE (State)","TCU","LIGHTNING #24","00006448",2003-08-26 07:00:00,2003-08-26 07:00:00,"Lightning","GPS Air","Suppression (Wildfire)",14.72549,NA,NA,NA,"00000575",NA,"2000-2009",95659.25390625,1310.23716137333,-120.462668515178,37.8200442068361,24.1966796875
7406,2003,"CA","CDF CAL FIRE (State)","SCU","ANNIE","00003581",2003-08-27 07:00:00,2003-09-18 07:00:00,"Lightning","GPS Ground","Suppression (Wildfire)",18210.4,NA,"SANTA CLARA COMPLEX",NA,"00000319","00003581","2000-2009",116454729.988281,70055.442947431,-121.246714454477,37.2293275436786,22.721826171875
7421,2003,"CA","CDF CAL FIRE (State)","SCU","DEVIL","00003581",2003-08-27 07:00:00,2003-09-18 07:00:00,"Lightning","GPS Ground","Suppression (Wildfire)",5444.272,NA,"SANTA CLARA COMPLEX",NA,"00000319","00003581","2000-2009",35056577.4921875,30696.4643575879,-121.571179619415,37.4900714900114,19.79677734375
7422,2003,"CA","CDF CAL FIRE (State)","SCU","JUMP","00003581",2003-08-27 07:00:00,2003-09-18 07:00:00,"Lightning","GPS Ground","Suppression (Wildfire)",4893.527,NA,"SANTA CLARA COMPLEX",NA,"00000319","00003581","2000-2009",31424684.6171875,27700.9696804968,-121.522580816931,37.3874773166436,20.597314453125
7541,2003,"CA","CDF CAL FIRE (State)","SCU","PINE","00003581",2003-08-27 07:00:00,2003-09-18 07:00:00,"Lightning","GPS Ground","Suppression (Wildfire)",175.8898,NA,"SANTA CLARA COMPLEX",NA,"00000319","00003581","2000-2009",1133204.83984375,4636.12876222629,-121.663163234061,37.510722451955,18.90615234375
7622,2003,"CA","CDF CAL FIRE (State)","MVU","DUNBAR","00006509",2003-08-29 07:00:00,2003-08-29 07:00:00,"Unknown/Unidentified","Hand-drawn","Suppression (Wildfire)",43.91949,NA,NA,NA,"00000662",NA,"2000-2009",252545.46484375,2513.88470759907,-116.832942198525,32.8515653047143,21.068505859375
7638,2003,"CA","CDF CAL FIRE (State)","SHU","BUTTE","00009411",2003-08-29 07:00:00,2003-08-29 07:00:00,"Unknown/Unidentified","GPS Ground","Suppression (Wildfire)",36.24989,NA,NA,NA,"00000374",NA,"2000-2009",253677.27734375,2349.64451790547,-122.038400195266,40.4600295636021,21.890771484375
7425,2003,"CA","USF U.S. Forest Service","STF","MUDD",NA,2003-08-31 07:00:00,2003-10-27 08:00:00,"Lightning","GPS Air","Resource Benefit (Wildland Fire Use)",4336.844,"20090305",NA,NA,"00000097",NA,"2000-2009",28654113.0351562,39833.987994146,-119.94352732846,38.4433430027333,14.602197265625
7440,2003,"CA","NPS National Park Service","YNP","TUOLUMNE WFU","00000000",2003-08-31 07:00:00,2003-11-07 08:00:00,"Lightning","Mixed Methods","Suppression (Wildfire)",1826.036,NA,NA,NA,"00003034",NA,"2000-2009",11870833.2890625,17543.3558585616,-119.718882797373,37.8470228112665,13.8451171875
7441,2003,"CA","NPS National Park Service","YNP","TUOLUMNE WF","00000000",2003-08-31 07:00:00,2003-11-07 08:00:00,"Lightning","Mixed Methods","Suppression (Wildfire)",1762.79,NA,NA,NA,"00002262",NA,"2000-2009",11459857.5390625,30908.6653260448,-119.735755310142,37.8475682716531,14.00185546875
7459,2003,"CA","USF U.S. Forest Service","STF","WHIT",NA,2003-08-31 07:00:00,2003-10-27 08:00:00,"Lightning","GPS Air","Resource Benefit (Wildland Fire Use)",1003.49,"20090305",NA,NA,"00000096",NA,"2000-2009",6619018.3203125,14139.7972286558,-119.988266226756,38.3818879788011,14.49697265625
7462,2003,"CA","USF U.S. Forest Service","TNF","CODFISH","00000000",2003-08-31 07:00:00,2003-09-10 07:00:00,"Lightning",NA,"Suppression (Wildfire)",841.4244,"Containment 'fire_day' estimated",NA,NA,"00000104",NA,"2000-2009",5660344.53515625,13724.0881398095,-120.698103041522,39.0905087466364,16.769189453125
7577,2003,"CA","CDF CAL FIRE (State)","TCU","HWY26 #2","00006612",2003-08-31 07:00:00,2003-09-01 07:00:00,"Equipment Use","GPS Air","Suppression (Wildfire)",101.4241,NA,NA,NA,"00000594",NA,"2000-2009",666539.80078125,4645.08661398018,-120.746629687224,38.2475696853118,18.67568359375
7696,2003,"CA","USF U.S. Forest Service","TNF","DARK","00000000",2003-08-31 07:00:00,2003-09-01 07:00:00,"Lightning","GPS Ground","Suppression (Wildfire)",13.60757,"Containment 'fire_day' estimated",NA,NA,"00000111",NA,"2000-2009",92863.80078125,1744.8268665538,-120.312148196041,39.5965352007356,17.5208984375
7602,2003,"CA","CDF CAL FIRE (State)","NEU","GARDEN","00013213",2003-09-01 07:00:00,2003-09-01 07:00:00,"Lightning","Hand-drawn","Suppression (Wildfire)",60.7241,NA,NA,NA,"00000631",NA,"2000-2009",407788.73828125,2947.35086260234,-121.216511223041,39.0287537649543,22.39541015625
7700,2003,"CA","USF U.S. Forest Service","ANF","DEL LAGO","00000000",2003-09-01 07:00:00,2003-09-01 07:00:00,"Miscellaneous","Unknown","Suppression (Wildfire)",12.48529,NA,NA,NA,"00000135",NA,"2000-2009",74825.1640625,1044.14064613752,-118.747771472661,34.6418857654471,22.0033203125
7431,2003,"CA","USF U.S. Forest Service","INF","DEXTER","00000000",2003-09-02 07:00:00,2003-10-13 07:00:00,"Lightning","GPS Air","Suppression (Wildfire)",2459.745,NA,NA,NA,"00000060",NA,"2000-2009",15979012.0859375,27134.1939286141,-118.794013763772,37.8202752207763,16.228662109375
7674,2003,"CA","CCO Contract County","LAC","SAGE","00181907",2003-09-02 07:00:00,2003-09-02 07:00:00,"Powerline","Hand-drawn","Suppression (Wildfire)",21.87809,NA,NA,NA,"00181907",NA,"2000-2009",130702.5859375,2199.14989731196,-118.247526922617,34.5091715043467,22.828759765625
7408,2003,"CA","CDF CAL FIRE (State)","HUU","CANOE","00004435",2003-09-03 07:00:00,2003-10-06 07:00:00,"Lightning","Mixed Methods","Suppression (Wildfire)",11043.56,"Updated perimeter from 2003",NA,NA,"00000231",NA,"2000-2009",76868006.625,43306.6621723603,-123.933765149409,40.2771501308857,20.654931640625
7423,2003,"CA","USF U.S. Forest Service","MNF","DEAFY","00000934",2003-09-03 07:00:00,2003-09-12 07:00:00,"Lightning","GPS Air","Suppression (Wildfire)",4782.021,NA,"GRINDSTONE COMPLEX",NA,"00000066","AYQ8","2000-2009",32548617.1289062,32766.9146134369,-122.82058225142,39.50435166747,24.3744140625
7433,2003,"CA","USF U.S. Forest Service","SQF","HOOKER","00000000",2003-09-03 07:00:00,2003-11-25 08:00:00,"Lightning","Hand-drawn","Suppression (Wildfire)",2375.668,NA,NA,NA,"00000105",NA,"2000-2009",14761410.4453125,28997.4959476226,-118.202167893252,36.1127857811982,18.5609375
7434,2003,"CA","USF U.S. Forest Service","SQF","ALBANITA","00000000",2003-09-03 07:00:00,2003-11-25 08:00:00,"Lightning","Hand-drawn","Suppression (Wildfire)",2222.646,NA,NA,NA,"00000109",NA,"2000-2009",13814303.7265625,30618.4266322604,-118.220469591083,36.1233714346477,17.952783203125
7445,2003,"CA","USF U.S. Forest Service","MNF","HAPPY CAMP","00000934",2003-09-03 07:00:00,2003-09-15 07:00:00,"Lightning","GPS Air","Suppression (Wildfire)",1482.127,NA,"GRINDSTONE COMPLEX",NA,"00000061","AYQ8","2000-2009",10097265.546875,19684.1400610438,-122.738578758642,39.5363865469507,24.959375
7455,2003,"CA","CDF CAL FIRE (State)","LNU","40","00006629",2003-09-03 07:00:00,2003-09-03 07:00:00,"Arson","GPS Air","Suppression (Wildfire)",1057.115,NA,NA,NA,"00000591",NA,"2000-2009",7076608.6484375,15264.4630703153,-122.278771629148,38.9160314825426,26.992333984375
7465,2003,"CA","USF U.S. Forest Service","SNF","SNAKE/CARGYLE2","00000000",2003-09-03 07:00:00,2003-11-20 08:00:00,"Lightning","Unknown","Suppression (Wildfire)",825.676,NA,NA,NA,"00000092",NA,"2000-2009",5329052.4375,13380.333916758,-119.183539408905,37.5775892816045,13.147119140625
7484,2003,"CA","USF U.S. Forest Service","MNF","FELKNER","00000934",2003-09-03 07:00:00,2003-09-07 07:00:00,"Lightning","GPS Air","Suppression (Wildfire)",516.473,NA,"GRINDSTONE COMPLEX",NA,"00000050","AYQ8","2000-2009",3516654.3671875,11122.8707478626,-122.697090601496,39.5173399631572,25.1986328125
7485,2003,"CA","USF U.S. Forest Service","MNF","BOARDMAN","00000934",2003-09-03 07:00:00,2003-09-08 07:00:00,"Lightning","GPS Air","Suppression (Wildfire)",511.3503,NA,"GRINDSTONE COMPLEX",NA,"00000026","AYQ8","2000-2009",3479693.2265625,10813.4821536383,-122.939312009862,39.496402674728,23.49697265625
7496,2003,"CA","USF U.S. Forest Service","MNF","BEAR","00000934",2003-09-03 07:00:00,2003-09-09 07:00:00,"Lightning","GPS Air","Suppression (Wildfire)",403.3303,NA,"GRINDSTONE COMPLEX",NA,"00000019","AYQ8","2000-2009",2751250.33203125,8864.41135713373,-122.883442133066,39.5807266982415,23.64052734375
7497,2003,"CA","CDF CAL FIRE (State)","LNU","SITES","00006644",2003-09-03 07:00:00,2003-09-04 07:00:00,"Lightning","GPS Air","Suppression (Wildfire)",389.7805,NA,NA,NA,"00000600",NA,"2000-2009",2631456.80078125,9480.99542901468,-122.345237112825,39.2169663546722,27.185693359375
7507,2003,"CA","CDF CAL FIRE (State)","TGU","4-2","00005488",2003-09-03 07:00:00,2003-09-05 07:00:00,"Equipment Use","Unknown","Suppression (Wildfire)",304.0031,NA,NA,NA,"00000151",NA,"2000-2009",2062430.25,7711.49171617727,-122.513105950913,39.3896003199818,26.277734375
7512,2003,"CA","USF U.S. Forest Service","MNF","ANDERSON","00000934",2003-09-03 07:00:00,2003-09-03 07:00:00,"Lightning","Hand-drawn","Suppression (Wildfire)",290.6202,NA,"GRINDSTONE COMPLEX",NA,"00000059","AYQ8","2000-2009",1976870.19140625,7961.78243890378,-122.787938251652,39.4826748622125,24.762841796875
7522,2003,"CA","USF U.S. Forest Service","MNF","TALIAFERRO","00000934",2003-09-03 07:00:00,2003-09-19 07:00:00,"Lightning","GPS Air","Suppression (Wildfire)",241.7343,NA,"GRINDSTONE COMPLEX",NA,"00000031","AYQ8","2000-2009",1664927.15625,6968.42714093885,-123.045600095196,39.9155402424491,21.761376953125
7525,2003,"CA","USF U.S. Forest Service","MNF","ESTELL CREEK","00000934",2003-09-03 07:00:00,2003-09-12 07:00:00,"Lightning","GPS Air","Suppression (Wildfire)",221.5509,NA,"GRINDSTONE COMPLEX",NA,"00000048","AYQ8","2000-2009",1512267.125,6843.14925434223,-122.796183336615,39.6036917970831,24.33974609375
7529,2003,"CA","USF U.S. Forest Service","MNF","BOWMAN","00000934",2003-09-03 07:00:00,2003-09-09 07:00:00,"Lightning","GPS Air","Suppression (Wildfire)",213.1618,NA,"GRINDSTONE COMPLEX",NA,"00000051","AYQ8","2000-2009",1455294.0078125,5520.14676778662,-122.665130871502,39.6106393004362,25.275537109375
7530,2003,"CA","CDF CAL FIRE (State)","HUU","""10""","00004453",2003-09-03 07:00:00,2003-09-10 07:00:00,"Lightning","GPS Air","Suppression (Wildfire)",212.8838,NA,NA,NA,"00000204",NA,"2000-2009",1475484.33203125,5834.45608807695,-124.08480752506,40.1320793716977,16.984765625
7535,2003,"CA","USF U.S. Forest Service","MNF","LOGAN (LEE LOGAN)","00000934",2003-09-03 07:00:00,2003-09-10 07:00:00,"Lightning","GPS Air","Suppression (Wildfire)",200.2145,NA,"GRINDSTONE COMPLEX",NA,"00000030","AYQ8","2000-2009",1366948.66015625,5005.74297126792,-122.885852353127,39.6118758429126,23.52529296875
7536,2003,"CA","CDF CAL FIRE (State)","LNU","BRUSHY","00006617",2003-09-03 07:00:00,2003-09-03 07:00:00,"Lightning","GPS Ground","Suppression (Wildfire)",198.6972,NA,NA,NA,"00000615",NA,"2000-2009",1330299.921875,6850.91423233999,-122.466480091973,38.9205457007773,26.104638671875
7553,2003,"CA","NPS National Park Service","YNP","STARR LAKE","00000000",2003-09-03 07:00:00,2003-11-07 08:00:00,"Lightning","Hand-drawn","Suppression (Wildfire)",142.5522,NA,NA,NA,"YNP-3102",NA,"2000-2009",923504.38671875,5650.75904589164,-119.498862162424,37.7177041868663,13.569970703125
7555,2003,"CA","USF U.S. Forest Service","MNF","ICE","00000934",2003-09-03 07:00:00,2003-09-06 07:00:00,"Lightning","GPS Air","Suppression (Wildfire)",139.8961,NA,"GRINDSTONE COMPLEX",NA,"00000057","AYQ8","2000-2009",957951.08984375,4586.09153405431,-122.804190179358,39.7146157362529,24.179345703125
7559,2003,"CA","USF U.S. Forest Service","KNF","WHITES","00000000",2003-09-03 07:00:00,2003-09-08 07:00:00,"Lightning","Hand-drawn","Suppression (Wildfire)",131.598,NA,NA,NA,"00000101",NA,"2000-2009",943662.0859375,4193.34087477547,-123.005000855874,41.273886556629,20.9759765625
7560,2003,"CA","USF U.S. Forest Service","MNF","WEST CROCKETT","00000934",2003-09-03 07:00:00,2003-09-09 07:00:00,"Lightning","GPS Air","Suppression (Wildfire)",131.5727,NA,"GRINDSTONE COMPLEX",NA,"00000068","AYQ8","2000-2009",893565.65234375,4380.2956410787,-122.801005935814,39.4267844976825,24.853662109375
7564,2003,"CA","USF U.S. Forest Service","MNF","HARDIN","00000934",2003-09-03 07:00:00,2003-09-09 07:00:00,"Lightning","GPS Air","Suppression (Wildfire)",123.2896,NA,"GRINDSTONE COMPLEX",NA,"00000037","AYQ8","2000-2009",844454.0859375,4632.38586258221,-122.696418864466,39.7235684950178,25.037744140625
7567,2003,"CA","CDF CAL FIRE (State)","MEU","LIGHTNING #64","00007244",2003-09-03 07:00:00,2003-09-04 07:00:00,"Lightning","GPS Ground","Suppression (Wildfire)",112.8616,NA,NA,NA,"00000307",NA,"2000-2009",760262.36328125,3483.37301581159,-123.340306191561,39.1387404012497,21.238671875
7574,2003,"CA","USF U.S. Forest Service","MNF","HORSE (HULL)","00000934",2003-09-03 07:00:00,2003-09-09 07:00:00,"Lightning","GPS Air","Suppression (Wildfire)",102.3731,NA,"GRINDSTONE COMPLEX",NA,"00000022","AYQ8","2000-2009",697060.33984375,4275.39908411402,-122.900414736208,39.5175314180454,23.693505859375
7591,2003,"CA","NPS National Park Service","KNP","COFFEEPOT2","00000000",2003-09-03 07:00:00,2003-09-20 07:00:00,"Lightning","GPS Ground","Suppression (Wildfire)",79.95559,NA,NA,NA,"00000078",NA,"2000-2009",500431.234375,3886.78829340071,-118.763755467102,36.3988985518296,17.289697265625
7594,2003,"CA","USF U.S. Forest Service","MNF","WALKER CABIN","00000934",2003-09-03 07:00:00,2003-09-09 07:00:00,"Lightning","GPS Air","Suppression (Wildfire)",75.27887,NA,"GRINDSTONE COMPLEX",NA,"00000052","AYQ8","2000-2009",515443.08203125,3725.57288176218,-122.816183942778,39.7121979142944,24.06044921875
7625,2003,"CA","USF U.S. Forest Service","MNF","BROCK","00000934",2003-09-03 07:00:00,2003-09-08 07:00:00,"Lightning","GPS Air","Suppression (Wildfire)",42.08467,NA,"GRINDSTONE COMPLEX",NA,"00000069","AYQ8","2000-2009",288423.328125,2419.08748206146,-122.79635973451,39.7441006483472,24.23916015625
7632,2003,"CA","USF U.S. Forest Service","MNF","MANZANITA SPRINGS","00000934",2003-09-03 07:00:00,2003-09-07 07:00:00,"Lightning","GPS Air","Suppression (Wildfire)",37.86018,NA,"GRINDSTONE COMPLEX",NA,"00000036","AYQ8","2000-2009",259172.125,2265.83372724013,-122.645154669302,39.7040217014953,25.30751953125
7644,2003,"CA","USF U.S. Forest Service","MNF","RED ROCK","00000934",2003-09-03 07:00:00,2003-09-06 07:00:00,"Lightning","GPS Air","Suppression (Wildfire)",33.11336,NA,"GRINDSTONE COMPLEX",NA,"00000023","AYQ8","2000-2009",225801.65234375,2187.57496129077,-122.925910495759,39.5690362291585,23.33876953125
7647,2003,"CA","USF U.S. Forest Service","MNF","CROCKETT 2","00000934",2003-09-03 07:00:00,2003-09-06 07:00:00,"Lightning","GPS Air","Suppression (Wildfire)",32.66311,NA,"GRINDSTONE COMPLEX",NA,"00000072","AYQ8","2000-2009",221759.35546875,2096.31506372826,-122.802709749293,39.4157777940556,24.844140625
7663,2003,"CA","NPS National Park Service","KNP","EAST FORK","00000000",2003-09-03 07:00:00,2003-11-12 08:00:00,"Lightning","Mixed Methods","Resource Benefit (Wildland Fire Use)",24.76123,NA,NA,NA,"00000084",NA,"2000-2009",155301.8515625,2125.46898966203,-118.638189091779,36.4807935077746,14.37783203125
7673,2003,"CA","CDF CAL FIRE (State)","MEU","LIGHTNING #81","00007269",2003-09-03 07:00:00,2003-09-03 07:00:00,"Lightning","GPS Ground","Suppression (Wildfire)",22.03114,NA,NA,NA,"00000324",NA,"2000-2009",148442.23046875,1567.40850871644,-123.62261251345,39.1471553835256,17.226953125
7676,2003,"CA","USF U.S. Forest Service","MNF","SMOKEHOUSE","00000934",2003-09-03 07:00:00,2003-09-06 07:00:00,"Lightning","GPS Air","Suppression (Wildfire)",21.05291,NA,"GRINDSTONE COMPLEX",NA,"00000018","AYQ8","2000-2009",143231.41796875,2045.32556063852,-122.980143287502,39.4886194123942,23.217919921875
7679,2003,"CA","BLM Bureau of Land Management","NOD","IRON CANYON","00000000",2003-09-03 07:00:00,2003-09-03 07:00:00,"Unknown/Unidentified","Unknown","Suppression (Wildfire)",18.84302,NA,NA,NA,"0000D257",NA,"2000-2009",131059.265625,1654.32201047671,-122.177192183944,40.2520994562524,25.2611328125
7698,2003,"CA","USF U.S. Forest Service","MNF","BUCK RIDGE","00000934",2003-09-03 07:00:00,2003-09-07 07:00:00,"Lightning","GPS Ground","Suppression (Wildfire)",13.43308,NA,"GRINDSTONE COMPLEX",NA,"00000065","AYQ8","2000-2009",91763.3203125,1116.74150577957,-122.826603630723,39.6308801257697,24.007470703125
7707,2003,"CA","USF U.S. Forest Service","MNF","SHEEP RIDGE","00000934",2003-09-03 07:00:00,2003-09-09 07:00:00,"Lightning","GPS Air","Suppression (Wildfire)",11.37663,NA,"GRINDSTONE COMPLEX",NA,"00000053","AYQ8","2000-2009",77628.26171875,1278.98148470498,-122.817873172494,39.5917433954472,24.126123046875
7708,2003,"CA","USF U.S. Forest Service","MNF","MIDDLE","00000934",2003-09-03 07:00:00,2003-09-08 07:00:00,"Lightning","GPS Air","Suppression (Wildfire)",11.33622,NA,"GRINDSTONE COMPLEX",NA,"00000071","AYQ8","2000-2009",77335.08203125,1007.80705966032,-122.810245115284,39.5838528681179,24.21279296875
7711,2003,"CA","CDF CAL FIRE (State)","MEU","LIGHTNING #13","00007167",2003-09-03 07:00:00,2003-09-05 07:00:00,"Lightning","GPS Ground","Suppression (Wildfire)",10.33334,NA,NA,NA,"00000253",NA,"2000-2009",70093.24609375,1136.1290496895,-123.540736830677,39.3842679595075,21.13173828125
7714,2003,"CA","USF U.S. Forest Service","INF","MCGEE","00000000",2003-09-03 07:00:00,2003-09-03 07:00:00,"Lightning","GPS Air","Suppression (Wildfire)",8.035213,NA,NA,NA,"00000063",NA,"2000-2009",51900.2421875,1191.68416925424,-118.809995236316,37.6062444249986,15.141015625
7715,2003,"CA","USF U.S. Forest Service","MNF","HAVALON","00000934",2003-09-03 07:00:00,2003-09-07 07:00:00,"Lightning","Hand-drawn","Suppression (Wildfire)",7.761516,NA,"GRINDSTONE COMPLEX",NA,"00000044","AYQ8","2000-2009",53284.9375,939.28781921008,-122.678820880143,39.8041275893313,24.902734375
7716,2003,"CA","USF U.S. Forest Service","MNF","DOE #2","00000934",2003-09-03 07:00:00,2003-09-08 07:00:00,"Lightning","GPS Air","Suppression (Wildfire)",6.044219,NA,"GRINDSTONE COMPLEX",NA,"00000034","AYQ8","2000-2009",41621.16015625,963.595862624624,-122.964097723422,39.9089572281913,22.065087890625
7722,2003,"CA","USF U.S. Forest Service","MNF","CONKLIN","00000934",2003-09-03 07:00:00,2003-09-03 07:00:00,"Lightning","Hand-drawn","Suppression (Wildfire)",4.24912,NA,"GRINDSTONE COMPLEX",NA,"00000046","AYQ8","2000-2009",29169.1171875,740.269563966203,-122.684685822887,39.80144332965,24.885888671875
7723,2003,"CA","USF U.S. Forest Service","MNF","DOE #3","00000934",2003-09-03 07:00:00,2003-09-06 07:00:00,"Lightning","GPS Air","Suppression (Wildfire)",3.318981,NA,"GRINDSTONE COMPLEX",NA,"00000035","AYQ8","2000-2009",22858.16796875,1103.15508337735,-122.984432355123,39.9139526490586,21.879052734375
7725,2003,"CA","USF U.S. Forest Service","MNF","TRIPLETT 2","00000934",2003-09-03 07:00:00,2003-09-04 07:00:00,"Lightning","Hand-drawn","Suppression (Wildfire)",2.658751,NA,"GRINDSTONE COMPLEX",NA,"00000074","AYQ8","2000-2009",18092.42578125,841.020825075566,-122.642666456971,39.496157875778,25.508203125
7726,2003,"CA","USF U.S. Forest Service","MNF","MARE","00000934",2003-09-03 07:00:00,2003-09-05 07:00:00,"Lightning","GPS Air","Suppression (Wildfire)",2.241319,NA,"GRINDSTONE COMPLEX",NA,"00000028","AYQ8","2000-2009",15396.9765625,447.91547158533,-122.997619777442,39.8259913218424,22.07412109375
7727,2003,"CA","USF U.S. Forest Service","MNF","ERICSON","00000934",2003-09-03 07:00:00,2003-09-05 07:00:00,"Lightning","GPS Air","Suppression (Wildfire)",1.688774,NA,"GRINDSTONE COMPLEX",NA,"00000021","AYQ8","2000-2009",11477.515625,411.933055209798,-122.980954198277,39.4522978345957,23.437158203125
7728,2003,"CA","USF U.S. Forest Service","MNF","TRIPLETT","00000934",2003-09-03 07:00:00,2003-09-03 07:00:00,"Lightning","Hand-drawn","Suppression (Wildfire)",1.594769,NA,"GRINDSTONE COMPLEX",NA,"00000067","AYQ8","2000-2009",10852.73046875,452.15341146689,-122.643740738295,39.4979104804911,25.501611328125
7729,2003,"CA","USF U.S. Forest Service","MNF","CEDAR 3","00000934",2003-09-03 07:00:00,2003-09-04 07:00:00,"Lightning","Hand-drawn","Suppression (Wildfire)",1.146085,NA,"GRINDSTONE COMPLEX",NA,"00000075","AYQ8","2000-2009",7820.2109375,361.380084138194,-122.742821062186,39.5913068946736,24.883935546875
7730,2003,"CA","USF U.S. Forest Service","MNF","STREETER","00000934",2003-09-03 07:00:00,2003-09-04 07:00:00,"Lightning","GPS Air","Suppression (Wildfire)",0.5584593,NA,"GRINDSTONE COMPLEX",NA,"00000027","AYQ8","2000-2009",3778.69140625,288.571124715061,-122.944565398093,39.2961563353494,24.616357421875
7731,2003,"CA","USF U.S. Forest Service","MNF","GARRETT","00000934",2003-09-03 07:00:00,2003-09-04 07:00:00,"Lightning","GPS Air","Suppression (Wildfire)",0.1756178,NA,"GRINDSTONE COMPLEX",NA,"00000020","AYQ8","2000-2009",1189.34765625,154.60873847919,-123.006748684364,39.3278654413437,24.077783203125
7732,2003,"CA","USF U.S. Forest Service","MNF","GRAVELLY","00000934",2003-09-03 07:00:00,2003-09-04 07:00:00,"Lightning","Unknown","Suppression (Wildfire)",0.1165791,NA,"GRINDSTONE COMPLEX",NA,"00000017","AYQ8","2000-2009",792.33984375,99.7977512207901,-122.943103872188,39.4522426976599,23.735986328125
7735,2003,"CA","USF U.S. Forest Service","MNF","YOUNG","00000934",2003-09-03 07:00:00,2003-09-04 07:00:00,"Lightning","GPS Air","Suppression (Wildfire)",0.04278698,NA,"GRINDSTONE COMPLEX",NA,"00000016","AYQ8","2000-2009",289.1484375,67.7318222234723,-122.934318992282,39.2519174031666,24.614404296875
7736,2003,"CA","USF U.S. Forest Service","MNF","DOE #1","00000934",2003-09-03 07:00:00,2003-09-03 07:00:00,"Lightning","GPS Air","Suppression (Wildfire)",0.03367797,NA,"GRINDSTONE COMPLEX",NA,"00000029","AYQ8","2000-2009",231.81640625,69.4438722629169,-122.990793831791,39.8949289535194,21.881494140625
7737,2003,"CA","USF U.S. Forest Service","MNF","BUCKHORN #2","00000934",2003-09-03 07:00:00,2003-09-04 07:00:00,"Lightning","Hand-drawn","Suppression (Wildfire)",0.03343417,NA,"GRINDSTONE COMPLEX",NA,"00000033","AYQ8","2000-2009",228.48046875,90.9911515665964,-122.919043405344,39.6455728305826,23.166162109375
7407,2003,"CA","CDF CAL FIRE (State)","HUU","HONEYDEW","00004545",2003-09-04 07:00:00,2003-10-07 07:00:00,"Lightning","GPS Air","Suppression (Wildfire)",11794.33,NA,NA,NA,"00000236",NA,"2000-2009",81805515.78125,48519.6366025218,-124.166925949219,40.1570829756321,13.9310546875
7517,2003,"CA","USF U.S. Forest Service","INF","OLANCHA","00000000",2003-09-04 07:00:00,2003-09-15 07:00:00,"Lightning","GPS Air","Suppression (Wildfire)",271.6833,NA,NA,NA,"00000077",NA,"2000-2009",1696434.41015625,6465.17870052612,-118.098921096007,36.3065340189388,19.68642578125
7534,2003,"CA","USF U.S. Forest Service","SHF","RAY","00000000",2003-09-04 07:00:00,2003-09-30 07:00:00,"Lightning","Unknown","Suppression (Wildfire)",202.7475,NA,NA,NA,"00000127",NA,"2000-2009",1428030.34765625,6993.19767352264,-123.423227312803,40.6779922483608,19.864404296875
7562,2003,"CA","CDF CAL FIRE (State)","AEU","MARSHAL","00014843",2003-09-04 07:00:00,2003-09-04 07:00:00,"Vehicle","GPS Ground","Suppression (Wildfire)",126.8676,NA,NA,NA,"00000510",NA,"2000-2009",847343.67578125,4945.95906040235,-120.894795186638,38.8340137102224,22.030419921875
7581,2003,"CA","CDF CAL FIRE (State)","HUU","TECTAH","00004570",2003-09-04 07:00:00,2003-09-06 07:00:00,"Lightning","GPS Air","Suppression (Wildfire)",96.65542,NA,NA,NA,"00000242",NA,"2000-2009",694460.38671875,3990.36209051679,-123.891994409053,41.3384210805144,18.94814453125
7648,2003,"CA","NPS National Park Service","KNP","BUCKEYE","00000000",2003-09-04 07:00:00,2003-09-20 07:00:00,"Lightning","GPS Air","Suppression (Wildfire)",30.9279,NA,NA,NA,"00000086",NA,"2000-2009",194143.109375,1900.51957428504,-118.742147976924,36.5138294212311,15.527490234375
7664,2003,"CA","BLM Bureau of Land Management","NOD","SNOWSTORM","00000000",2003-09-04 07:00:00,2003-09-04 07:00:00,"Lightning","Unknown","Suppression (Wildfire)",24.16784,NA,NA,NA,"0000Z349",NA,"2000-2009",169893.53125,2821.80663106294,-120.327663688508,40.6127213902872,21.37734375
7719,2003,"CA","CDF CAL FIRE (State)","HUU","JOHNSON","00004583",2003-09-04 07:00:00,2003-09-05 07:00:00,"Vehicle","Unknown","Suppression (Wildfire)",5.019665,NA,NA,NA,"00000245",NA,"2000-2009",36029.6484375,763.408995031301,-123.919598889911,41.3054590265077,18.74404296875
7452,2003,"CA","USF U.S. Forest Service","BDF","BRIDGE","00000000",2003-09-05 07:00:00,2003-09-14 07:00:00,"Miscellaneous","Unknown","Suppression (Wildfire)",1157.075,NA,NA,NA,"00000131",NA,"2000-2009",6858345.27734375,18519.0242805338,-117.173194686195,34.1762186206824,23.040185546875
7481,2003,"CA","USF U.S. Forest Service","MDF","YELLOW","00000000",2003-09-05 07:00:00,2003-09-07 07:00:00,"Lightning","Unknown","Suppression (Wildfire)",554.8458,NA,NA,NA,"00000115",NA,"2000-2009",4038443.921875,11838.442787058,-121.618870656885,41.7599291747425,18.2435546875
7506,2003,"CA","USF U.S. Forest Service","MDF","TIMBER","00000000",2003-09-05 07:00:00,2003-09-09 07:00:00,"Lightning","Unknown","Suppression (Wildfire)",313.6276,NA,NA,NA,"00000134",NA,"2000-2009",2268468.89453125,8647.5058237304,-121.308276207457,41.5564818381382,18.200830078125
7532,2003,"CA","NPS National Park Service","KNP","HMRS NOS2","00000000",2003-09-05 07:00:00,2003-11-17 08:00:00,"Lightning","Hand-drawn","Suppression (Wildfire)",205.2301,NA,NA,NA,"00000090",NA,"2000-2009",1283602.6171875,6668.39629862638,-118.744397086092,36.3712597933572,17.758935546875
7652,2003,"CA","USF U.S. Forest Service","SHF","THIMBLEBERRY","00000000",2003-09-05 07:00:00,2003-09-06 07:00:00,"Lightning","Unknown","Suppression (Wildfire)",29.57423,NA,NA,NA,"00000160",NA,"2000-2009",212375.58203125,2174.75409271071,-122.120888341,41.3210297412712,17.45888671875
7678,2003,"CA","USF U.S. Forest Service","MDF","ROCK","00000000",2003-09-05 07:00:00,2003-09-07 07:00:00,"Lightning","GPS Air","Suppression (Wildfire)",19.13757,NA,NA,NA,"00000117",NA,"2000-2009",140287.4609375,2274.37251036877,-121.110274688301,41.9890238062265,20.0228515625
7693,2003,"CA","USF U.S. Forest Service","SHF","CHINA #1","00000000",2003-09-05 07:00:00,2003-09-05 07:00:00,"Lightning","Unknown","Suppression (Wildfire)",14.6062,NA,NA,NA,"00000137",NA,"2000-2009",102405.69921875,2033.32537854715,-123.066841198308,40.5232707002544,22.100244140625
7697,2003,"CA","USF U.S. Forest Service","SHF","GREEN","00000000",2003-09-05 07:00:00,2003-09-08 07:00:00,"Lightning","Unknown","Suppression (Wildfire)",13.50682,NA,NA,NA,"00000155",NA,"2000-2009",96054.26953125,1434.34230992132,-122.286530255249,40.9995913490683,22.566552734375
7526,2003,"CA","CDF CAL FIRE (State)","LMU","DIANE","00003203",2003-09-07 07:00:00,2003-09-12 07:00:00,"Arson","GPS Air","Suppression (Wildfire)",220.6193,NA,NA,NA,"00000274",NA,"2000-2009",1539362.140625,8502.7259488274,-120.582357112246,40.3602719823245,13.039453125
7600,2003,"CA","CDF CAL FIRE (State)","BEU","INDIAN SPRINGS","00003465",2003-09-09 07:00:00,2003-09-09 07:00:00,"Equipment Use","Mixed Methods","Suppression (Wildfire)",67.17598,NA,NA,NA,"00000349",NA,"2000-2009",422486.35546875,3757.75511245495,-121.641244445196,36.588088396959,12.529931640625
7547,2003,"CA","CDF CAL FIRE (State)","BTU","OREGON","00010601",2003-09-10 07:00:00,2003-09-11 07:00:00,"Railroad","GPS Air","Suppression (Wildfire)",163.4828,NA,NA,NA,"00000461",NA,"2000-2009",1114232.23828125,4687.84388697853,-121.523597852949,39.5513075761231,17.206201171875
7509,2003,"CA","CDF CAL FIRE (State)","BTU","PALERMO","00010757",2003-09-13 07:00:00,2003-09-14 07:00:00,"Miscellaneous","GPS Air","Suppression (Wildfire)",298.7748,NA,NA,NA,"00000472",NA,"2000-2009",2023889.30078125,6696.2702428964,-121.525606856996,39.3362141582723,23.402001953125
7427,2003,"CA","USF U.S. Forest Service","SHF","LOMA","00000000",2003-09-14 07:00:00,2003-09-22 07:00:00,"Miscellaneous","Unknown","Suppression (Wildfire)",3739.199,NA,NA,NA,"00000194",NA,"2000-2009",26423364.8671875,31149.8667749313,-123.301098605624,40.7881966638287,17.2015625
7499,2003,"CA","BLM Bureau of Land Management","BBD","MICHAELS","00000000",2003-09-15 07:00:00,2003-09-18 07:00:00,"Unknown/Unidentified","Unknown","Suppression (Wildfire)",388.8308,NA,NA,NA,"0000U964",NA,"2000-2009",2403578.109375,7939.63481864058,-117.994741363804,35.9072217692436,21.635400390625
7657,2003,"CA","USF U.S. Forest Service","ANF","DEL","00000000",2003-09-21 07:00:00,2003-09-21 07:00:00,"Equipment Use","Unknown","Suppression (Wildfire)",27.97444,NA,NA,NA,"00000154",NA,"2000-2009",167631.765625,1648.01859264836,-118.739461736763,34.6366877244716,19.281396484375
7520,2003,"CA","CDF CAL FIRE (State)","MEU","MOUSE TWO","00007887",2003-09-22 07:00:00,2003-09-23 07:00:00,"Lightning","GPS Air","Suppression (Wildfire)",246.5859,NA,NA,NA,"00000391",NA,"2000-2009",1661284.90625,8398.3770469556,-123.615067488838,39.1435061636183,18.951318359375
7631,2003,"CA","CDF CAL FIRE (State)","NEU","PINES","00014448",2003-09-24 07:00:00,2003-09-25 07:00:00,"Arson","GPS Ground","Suppression (Wildfire)",38.79679,NA,NA,NA,"00000717",NA,"2000-2009",260452.40625,2196.75939290545,-120.942176975517,39.0171378083278,19.92080078125
7666,2003,"CA","CDF CAL FIRE (State)","FKU","HIGHOAK","00011887",2003-09-24 07:00:00,2003-09-24 07:00:00,"Unknown/Unidentified","GPS Ground","Suppression (Wildfire)",23.79488,NA,NA,NA,"00000175",NA,"2000-2009",150082.4375,2781.56894693427,-119.110478130713,36.6996826862364,19.198876953125
7683,2003,"CA","USF U.S. Forest Service","SRF","SUGAR","00000000",2003-09-24 07:00:00,2003-09-26 07:00:00,"Arson","Unknown","Suppression (Wildfire)",17.13098,NA,NA,NA,"00000066",NA,"2000-2009",121867.38671875,1549.0634349682,-123.641008250209,41.0104309059618,16.284326171875
7592,2003,"CA","USF U.S. Forest Service","LNF","CINDER","00000000",2003-09-25 07:00:00,2003-10-03 07:00:00,"Miscellaneous","Unknown","Suppression (Wildfire)",79.2459,NA,NA,NA,"00000059",NA,"2000-2009",554328.3515625,4383.70566463446,-121.227972612453,40.4456452529125,16.97158203125
7417,2003,"CA","USF U.S. Forest Service","MNF","SPANISH","00000000",2003-09-27 07:00:00,2003-09-28 07:00:00,"Campfire","GPS Ground","Suppression (Wildfire)",6049.687,NA,NA,NA,"00000079",NA,"2000-2009",41330463.1015625,31767.3732848527,-122.828509047846,39.6344095786122,18.648828125
7446,2003,"CA","NPS National Park Service","KNP","PARADISE 2","00000000",2003-09-27 07:00:00,2003-12-15 08:00:00,"Lightning","Mixed Methods","Suppression (Wildfire)",1297.062,NA,NA,NA,"00000101",NA,"2000-2009",8136340.64453125,14931.1690169269,-118.745778781424,36.4865742006474,12.887353515625
7542,2003,"CA","CCO Contract County","LAC","GORMAN","00200343",2003-09-27 07:00:00,2003-09-27 07:00:00,"Aircraft","Hand-drawn","Suppression (Wildfire)",175.1584,NA,NA,NA,"00200343",NA,"2000-2009",1053417.1953125,6074.02341145634,-118.862430263436,34.787974665842,19.658349609375
7654,2003,"CA","USF U.S. Forest Service","LNF","DOW","00000000",2003-09-27 07:00:00,2003-09-27 07:00:00,"Equipment Use","GPS Air","Suppression (Wildfire)",28.79254,NA,NA,NA,"00000060",NA,"2000-2009",203165.58203125,2561.35502681532,-120.825579956995,40.7389096459646,16.705712890625
7572,2003,"CA","CDF CAL FIRE (State)","RRU","HOLLAND","00075444",2003-09-30 07:00:00,2003-09-30 07:00:00,"Arson","Unknown","Suppression (Wildfire)",106.8073,NA,NA,NA,"00001760",NA,"2000-2009",625733.0234375,3140.71924072248,-117.224585284046,33.6744207546,20.8216796875
7616,2003,"CA","USF U.S. Forest Service","INF","JUNE","00000000",2003-09-30 07:00:00,2003-10-06 07:00:00,"Miscellaneous","GPS Air","Suppression (Wildfire)",50.43307,NA,NA,NA,"00000083",NA,"2000-2009",327619.71484375,3464.40224748846,-119.066827562568,37.8198322289064,7.90493164062502
7463,2003,"CA","USF U.S. Forest Service","BDF","LYTLE","00000000",2003-10-01 07:00:00,2003-10-01 07:00:00,"Unknown/Unidentified","GPS Ground","Suppression (Wildfire)",840.1028,NA,NA,NA,"00000000",NA,"2000-2009",4991830.51171875,16379.8151104245,-117.522073803408,34.2808979737848,21.435693359375
7699,2003,"CA","CDF CAL FIRE (State)","SHU","WILDCAT","00010706",2003-10-11 07:00:00,2003-10-11 07:00:00,"Equipment Use","GPS Ground","Suppression (Wildfire)",13.30417,NA,NA,NA,"00000468",NA,"2000-2009",93052.375,1298.70674117323,-122.047150989449,40.441660031003,13.504296875
7501,2003,"CA","CCO Contract County","LAC","AQUEDUCT","00211757",2003-10-13 07:00:00,2003-10-13 07:00:00,"Equipment Use","Mixed Methods","Suppression (Wildfire)",356.0853,NA,NA,NA,"00211757",NA,"2000-2009",2140447.26171875,9435.83192491982,-118.76607567554,34.7669969800105,15.193505859375
7451,2003,"CA","BLM Bureau of Land Management","NOD","SECRET","00000000",2003-10-15 07:00:00,2003-10-19 07:00:00,"Equipment Use","Unknown","Suppression (Wildfire)",1195.115,NA,NA,NA,"0000AWN6",NA,"2000-2009",8405270.953125,18880.2667921825,-120.241895735135,40.6284650025928,10.48525390625
7586,2003,"CA","CDF CAL FIRE (State)","NEU","DONNER","00015832",2003-10-18 07:00:00,2003-10-23 07:00:00,"Arson","GPS Ground","Suppression (Wildfire)",85.22264,NA,NA,NA,"00000796",NA,"2000-2009",577258.18359375,3809.73070072153,-120.273162216059,39.3339826735513,9.17226562500002
7733,2003,"CA","CDF CAL FIRE (State)","TCU","MEDINA","00007983",2003-10-18 07:00:00,2003-10-18 07:00:00,"Unknown/Unidentified","Hand-drawn","Suppression (Wildfire)",0.1017515,NA,NA,NA,"00000745",NA,"2000-2009",668.6796875,115.726727081244,-120.323998218817,38.2462543742085,11.801171875
7691,2003,"CA","USF U.S. Forest Service","SQF","WALSER","00000000",2003-10-20 07:00:00,2003-10-20 07:00:00,"Equipment Use","Hand-drawn","Suppression (Wildfire)",14.81134,NA,NA,NA,"00000136",NA,"2000-2009",90453.640625,1220.13508343787,-118.535973499842,35.418862329209,15.52333984375
7403,2003,"CA","USF U.S. Forest Service","BDF","GRAND PRIX","00000000",2003-10-21 07:00:00,2003-11-14 08:00:00,"Arson","Unknown","Suppression (Wildfire)",50617.94,NA,NA,NA,"00000144",NA,"2000-2009",300200267.238281,147701.02118551,-117.526144227452,34.2006025000259,20.42177734375
7416,2003,"CA","BLM Bureau of Land Management","CDD","ROBLAR 2","00000000",2003-10-21 07:00:00,2003-10-28 08:00:00,"Equipment Use","Unknown","Suppression (Wildfire)",6892.213,NA,NA,NA,"0000AW5J",NA,"2000-2009",40142718.1992188,38014.946223991,-117.374606587354,33.4193367637758,22.70546875
7432,2003,"CA","CDF CAL FIRE (State)","RRU","PASS","00081407",2003-10-21 07:00:00,2003-10-25 07:00:00,"Arson","Unknown","Suppression (Wildfire)",2455.806,NA,NA,NA,"00001895",NA,"2000-2009",14495162.3867188,26159.8445043992,-117.256666191573,33.9963155695358,19.20595703125
7599,2003,"CA","CCO Contract County","LAC","WILDWOOD","00217933",2003-10-21 07:00:00,2003-10-21 07:00:00,"Smoking","Mixed Methods","Suppression (Wildfire)",68.41597,NA,NA,NA,"00217933",NA,"2000-2009",405757.80078125,3158.03743400019,-118.298017557741,34.2008850930799,19.488427734375
7401,2003,"CA","USF U.S. Forest Service","LPF","PIRU","00000000",2003-10-23 07:00:00,2003-10-31 08:00:00,"Equipment Use","Unknown","Suppression (Wildfire)",63726.41,NA,NA,NA,"00000038",NA,"2000-2009",380445240.972656,121405.910679914,-118.861643768141,34.4798755710944,16.4212890625
7660,2003,"CA","USF U.S. Forest Service","ANF","BRAINARD","00000000",2003-10-23 07:00:00,2003-10-23 07:00:00,"Playing with Fire","Unknown","Suppression (Wildfire)",26.39773,NA,NA,NA,"00000171",NA,"2000-2009",156849.3125,1724.60938008898,-118.350288188857,34.2797848281686,18.4115234375
7412,2003,"CA","CCO Contract County","LAC","VERDALE","00220027",2003-10-24 07:00:00,2003-10-28 08:00:00,"Aircraft","Mixed Methods","Suppression (Wildfire)",8474.283,NA,NA,NA,"00220027",NA,"2000-2009",50526532.9335938,50843.3448644878,-118.715816404012,34.4259299311476,17.584130859375
7514,2003,"CA","USF U.S. Forest Service","LPF","HAPPY","00000000",2003-10-24 07:00:00,2003-10-25 07:00:00,"Miscellaneous","GPS Air","Suppression (Wildfire)",285.5646,NA,NA,NA,"00000029",NA,"2000-2009",1713256.76953125,6459.86087564917,-119.917208135382,34.6870528427758,19.566796875
7590,2003,"CA","CDF CAL FIRE (State)","SHU","WEST","00011165",2003-10-24 07:00:00,2003-10-24 07:00:00,"Smoking","Mixed Methods","Suppression (Wildfire)",80.03024,NA,NA,NA,"00000536",NA,"2000-2009",558766.80859375,4040.5209723156,-122.402881873671,40.3821155644956,17.28212890625
7398,2003,"CA","USF U.S. Forest Service","CNF","CEDAR","00000000",2003-10-25 07:00:00,2003-11-05 08:00:00,"Equipment Use","Unknown","Suppression (Wildfire)",270686,NA,NA,NA,"00000087",NA,"2000-2009",1559594418.34375,431692.801144303,-116.765434067781,32.9404006012252,18.264794921875
7399,2003,"CA","CCO Contract County","VNC","SIMI","03080724",2003-10-25 07:00:00,NA,"Unknown/Unidentified",NA,"Suppression (Wildfire)",107570.4,NA,NA,NA,"03080724",NA,"2000-2009",639998035.847656,262024.542064622,-118.792201147939,34.3353658017692,16.934228515625
7400,2003,"CA","USF U.S. Forest Service","BDF","OLD","00000000",2003-10-25 07:00:00,2003-11-15 08:00:00,"Arson","Unknown","Suppression (Wildfire)",91428,NA,NA,NA,"00000147",NA,"2000-2009",542604557.914062,218778.177759435,-117.258238353967,34.2296833913283,17.562890625
7409,2003,"CA","USF U.S. Forest Service","ANF","PADUA","00000000",2003-10-25 07:00:00,2003-11-03 08:00:00,"Arson","Unknown","Suppression (Wildfire)",10457.86,NA,NA,NA,"00000174",NA,"2000-2009",61982217.5742188,56039.9357330283,-117.688985255672,34.1729245479392,18.197412109375
7402,2003,"CA","USF U.S. Forest Service","CNF","PARADISE","00000000",2003-10-26 07:00:00,2003-11-04 08:00:00,"Arson","Unknown","Suppression (Wildfire)",56545.7,NA,NA,NA,"00000089",NA,"2000-2009",327740954.761719,150346.168978377,-116.915745181822,33.2048152894746,14.270166015625
7404,2003,"CA","BLM Bureau of Land Management","CDD","MINE/OTAY","00000000",2003-10-26 07:00:00,2003-10-30 08:00:00,"Miscellaneous","Unknown","Suppression (Wildfire)",44734.13,NA,NA,NA,"0000AXS3",NA,"2000-2009",255905420.882812,83971.4434021158,-116.853053865382,32.6192608604523,17.983056640625
7410,2003,"CA","CDF CAL FIRE (State)","RRU","MOUNTAIN","00082809",2003-10-26 07:00:00,2003-11-08 08:00:00,"Unknown/Unidentified","Unknown","Suppression (Wildfire)",10331.39,NA,NA,NA,"00001946",NA,"2000-2009",60428056.921875,42803.3817910775,-116.982770641072,33.6035111588555,13.956689453125
7515,2003,"CA","NPS National Park Service","RWP","TUK","00000052",2003-10-26 07:00:00,2003-11-01 08:00:00,"Escaped Prescribed Burn","GPS Ground","Suppression (Wildfire)",278.7794,NA,NA,NA,"00000052",NA,"2000-2009",1995999.3203125,9892.27188092939,-123.984446032572,41.2232181720657,15.033349609375
7582,2003,"CA","CDF CAL FIRE (State)","BTU","CENTERVILLE","00012661",2003-10-26 07:00:00,2003-10-27 08:00:00,"Campfire","GPS Air","Suppression (Wildfire)",91.45284,NA,NA,NA,"00000579",NA,"2000-2009",626648.62890625,4083.2276994032,-121.691548105916,39.7377522247725,19.781396484375
7621,2003,"CA","CDF CAL FIRE (State)","SHU","PLATINA","00011133",2003-10-26 07:00:00,2003-10-26 07:00:00,"Unknown/Unidentified","Mixed Methods","Suppression (Wildfire)",44.60995,NA,NA,NA,"00000535",NA,"2000-2009",311344.484375,2522.90714243974,-122.88206123722,40.3690457407753,16.89052734375
7458,2003,"CA","CDF CAL FIRE (State)","SHU","WHITMORE","00011176",2003-10-27 08:00:00,2003-10-28 08:00:00,"Debris","Mixed Methods","Suppression (Wildfire)",1004.413,NA,NA,NA,"00011176",NA,"2000-2009",7064563.12890625,16634.6978392635,-121.849460179472,40.6308506529305,15.318994140625
7605,2003,"CA","CCO Contract County","SBC","CAT","00007603",2003-10-27 08:00:00,2003-10-27 08:00:00,"Powerline","GPS Ground","Suppression (Wildfire)",58.16185,NA,NA,NA,"00007603",NA,"2000-2009",349787.08203125,3656.5069642385,-120.24771671555,34.7876125701366,19.322900390625
7608,2003,"CA","CDF CAL FIRE (State)","SHU","OLINDA","00011035",2003-10-27 08:00:00,2003-10-27 08:00:00,"Vehicle","GPS Ground","Suppression (Wildfire)",56.5569,NA,NA,NA,"00000525",NA,"2000-2009",395490.328125,3204.59558177226,-122.385121479212,40.4347288635223,19.890283203125
7626,2003,"CA","CDF CAL FIRE (State)","MVU","JEWELL","00008278",2003-10-28 08:00:00,2003-10-29 08:00:00,"Campfire","GPS Ground","Suppression (Wildfire)",41.74498,NA,NA,NA,"00000853",NA,"2000-2009",238755.8359375,3149.63255370898,-116.23553862725,32.6098852831895,17.747216796875
7687,2003,"CA","CDF CAL FIRE (State)","SHU","WONDER","00011193",2003-10-28 08:00:00,2003-10-28 08:00:00,"Vehicle","Mixed Methods","Suppression (Wildfire)",15.7122,NA,NA,NA,"00000540",NA,"2000-2009",110888.8828125,2603.76823727629,-122.303690815916,40.7451564505673,19.484033203125
7585,2003,"CA","CDF CAL FIRE (State)","LNU","CALPINE","00008505",2003-10-29 08:00:00,2003-10-30 08:00:00,"Powerline","Hand-drawn","Suppression (Wildfire)",85.58295,NA,NA,NA,"00000818",NA,"2000-2009",570551.8671875,3607.04533883995,-122.706326498513,38.7677810497526,18.30751953125
7597,2003,"CA","CDF CAL FIRE (State)","LNU","SILVERADO","00008496",2003-10-29 08:00:00,2003-10-30 08:00:00,"Powerline","GPS Ground","Suppression (Wildfire)",69.32242,NA,NA,NA,"00000814",NA,"2000-2009",458838.05859375,3387.87265943167,-122.441236323533,38.5079987406581,17.633447265625
7503,2003,"CA","USF U.S. Forest Service","TMU","ROYAL","00000000",2003-11-17 08:00:00,2003-11-29 08:00:00,"Debris","Hand-drawn","Suppression (Wildfire)",338.8016,NA,NA,NA,"00000073",NA,"2000-2009",2290127.9453125,9038.89982477863,-120.047650006908,39.2606795999064,2.81093750000002
7702,2003,"CA","USF U.S. Forest Service","TNF","MCCLOUD","00000000",2003-11-23 08:00:00,2003-11-26 08:00:00,"Arson",NA,"Suppression (Wildfire)",11.99447,"Containment 'fire_day' estimated",NA,NA,"00000152",NA,"2000-2009",81337.29296875,1383.39437805547,-120.128532438893,39.3740320125959,-8.17294921874998
7504,2003,"CA","USF U.S. Forest Service","MDF","SAND","00000000",2003-11-28 08:00:00,2003-11-29 08:00:00,"Debris","Unknown","Suppression (Wildfire)",333.0275,NA,NA,NA,"00000149",NA,"2000-2009",2416780.58203125,17374.8930357926,-121.400683678033,41.6641368350364,1.31313476562502
7523,2003,"CA","CDF CAL FIRE (State)","SLU","CUESTA","00007914",2003-11-28 08:00:00,2003-11-29 08:00:00,"Vehicle","Mixed Methods","Suppression (Wildfire)",237.9146,NA,NA,NA,"00000447",NA,"2000-2009",1450050.76171875,5405.95320723287,-120.621154630526,35.3373632129804,9.29970703125002
7650,2003,"CA","USF U.S. Forest Service","ANF","ROSCOE","00000000",2003-12-18 08:00:00,2003-12-18 08:00:00,"Miscellaneous","Unknown","Suppression (Wildfire)",29.67153,NA,NA,NA,"00000190",NA,"2000-2009",177344.375,1756.01683902115,-118.646238118105,34.5287937785795,7.59194335937502
