"OBJECTID","YEAR_","STATE","AGENCY","UNIT_ID","FIRE_NAME","INC_NUM","ALARM_DATE","CONT_DATE","CAUSE","C_METHOD","OBJECTIVE","GIS_ACRES","COMMENTS","COMPLEX_NAME","IRWINID","FIRE_NUM","COMPLEX_ID","DECADES","Shape__Area","Shape__Length","Lon","Lat","TEMPERATURE_2M_ALARM_DATE"
9513,1995,"CA","DOD Department of Defense","AFV","SLC-6","00000717",1997-08-15 07:00:00,1997-08-15 07:00:00,"Miscellaneous","Other Imagery","Suppression (Wildfire)",2.177445,NA,NA,NA,"00000717",NA,"1990-1999",13030.51953125,543.010387379222,-120.624927225394,34.5806707329365,15.666650390625
8833,1997,"CA","NPS National Park Service","LNP","HUFFER WF",NA,NA,NA,"Lightning","Mixed Methods","Suppression (Wildfire)",1202.811,"PNF exceeded MMA",NA,NA,"97-18",NA,"1990-1999",8431662.80078125,34544.4901180993,-121.278763697026,40.517749426594,NA
8837,1997,"CA","NPS National Park Service","LNP","HUFFER PNF",NA,NA,NA,"Lightning","Mixed Methods","Resource Benefit (Wildland Fire Use)",1089.598,NA,NA,NA,"97-15",NA,"1990-1999",7636534.60546875,14093.8496558638,-121.284574166145,40.5110348558344,NA
8839,1997,"CA","CDF CAL FIRE (State)","MMU","MILE","00010039",NA,NA,"Unknown/Unidentified",NA,"Suppression (Wildfire)",1058.822,NA,NA,NA,"00011580",NA,"1990-1999",6734190.41796875,13702.769414206,-119.768450934657,37.0205901985593,NA
8841,1997,"CA","CDF CAL FIRE (State)","MMU","DRY CREEK","00007988",NA,NA,"Unknown/Unidentified",NA,"Suppression (Wildfire)",959.8632,NA,NA,NA,"00011152",NA,"1990-1999",6194399.28515625,10833.6126243095,-120.403901633566,37.5732230177159,NA
8843,1997,"CA","CDF CAL FIRE (State)","TGU","PONDEROSA","00002891",NA,NA,"Arson",NA,"Suppression (Wildfire)",878.4354,NA,NA,NA,"00000233",NA,"1990-1999",6125470.6640625,15772.1305603717,-121.794738077248,40.3393126150577,NA
8853,1997,"CA","CDF CAL FIRE (State)","SCU","BLACK DIAMOND MI","00001689",NA,NA,"Unknown/Unidentified",NA,"Suppression (Wildfire)",475.3738,NA,NA,NA,"00000147",NA,"1990-1999",3099967.6796875,9603.40713059783,-121.873119443571,37.9623429455249,NA
8873,1997,"CA","DOD Department of Defense","CRB"," ","00000000",NA,NA,"Firefighter Training",NA,"Suppression (Wildfire)",317.9402,NA,NA,NA,"00000000",NA,"1990-1999",1959090.0390625,6267.17338036704,-120.746463482409,35.7793493912295,NA
8894,1997,"CA","CDF CAL FIRE (State)","SCU","BLACK DIAMOND ES","00001707",NA,NA,"Miscellaneous",NA,"Suppression (Wildfire)",175.4741,NA,NA,NA,"00000150",NA,"1990-1999",1144172.8046875,5585.04325431007,-121.856764116872,37.9586558257262,NA
8902,1997,"CA","CDF CAL FIRE (State)","SCU","SITE 300","00003088",NA,NA,"Powerline",NA,"Suppression (Wildfire)",150.5226,NA,NA,NA,"00000363",NA,"1990-1999",973091.40234375,5108.89759112332,-121.517371808015,37.6390289800454,NA
8905,1997,"CA","DOD Department of Defense","CRB"," ","00000000",NA,NA,"Unknown/Unidentified",NA,"Suppression (Wildfire)",131.5814,NA,NA,NA,"00000000",NA,"1990-1999",811575.5703125,3926.88764836171,-120.734087947807,35.8185758915991,NA
8909,1997,"CA","CDF CAL FIRE (State)","SCU","BENNY","00002261",NA,NA,"Vehicle",NA,"Suppression (Wildfire)",113.0734,NA,NA,NA,"00000244",NA,"1990-1999",732994.21484375,3978.81765168509,-121.599929496727,37.7413392183612,NA
8912,1997,"CA","CDF CAL FIRE (State)","SCU","PRIMEX","00001975",NA,NA,"Miscellaneous",NA,"Suppression (Wildfire)",101.2553,NA,NA,NA,"00000193",NA,"1990-1999",654666.44140625,3707.25151330271,-121.498603956085,37.6433863039584,NA
8916,1997,"CA","CDF CAL FIRE (State)","SCU","GRANTLINE #2","00001768",NA,NA,"Debris",NA,"Suppression (Wildfire)",90.42258,NA,NA,NA,"00000162",NA,"1990-1999",586349.48046875,3442.44033854999,-121.569452231599,37.7533371286777,NA
8917,1997,"CA","CDF CAL FIRE (State)","SCU","REDWOOD RETREAT","00001674",NA,NA,"Vehicle",NA,"Suppression (Wildfire)",90.0514,NA,NA,NA,"00000137",NA,"1990-1999",573191.765625,3366.01243547788,-121.718898609488,37.0511863628359,NA
8918,1997,"CA","CDF CAL FIRE (State)","SCU","ENGINE 93","00001742",NA,NA,"Equipment Use",NA,"Suppression (Wildfire)",87.27885,NA,NA,NA,"00000157",NA,"1990-1999",564999.15625,4101.80137448731,-121.478715834325,37.6895920175909,NA
8923,1997,"CA","CDF CAL FIRE (State)","BDU"," ","00000697",NA,NA,"Unknown/Unidentified",NA,"Suppression (Wildfire)",77.5333,NA,NA,NA,"00000000",NA,"1990-1999",459688.359375,3464.19423742453,-117.410030655492,34.187738809818,NA
8933,1997,"CA","USF U.S. Forest Service","SQF"," ","00000000",NA,NA,"Lightning",NA,"Suppression (Wildfire)",58.34153,NA,NA,NA,"00000030",NA,"1990-1999",355986.3515625,2329.08903587507,-118.403774545789,35.3836384580278,NA
8936,1997,"CA","CDF CAL FIRE (State)","SCU","SHEA","00002675",NA,NA,"Vehicle",NA,"Suppression (Wildfire)",50.27386,NA,NA,NA,"00000304",NA,"1990-1999",321613.90625,2730.71621343247,-121.74915757625,37.2429119439829,NA
8937,1997,"CA","CDF CAL FIRE (State)","SCU","STUHR ACCIDENT","00002015",NA,NA,"Vehicle",NA,"Suppression (Wildfire)",50.1132,NA,NA,NA,"00000199",NA,"1990-1999",321462.88671875,2403.71922400349,-121.114703122676,37.3465084122656,NA
8954,1997,"CA","NPS National Park Service","YNP","FORESTA #1","00000000",NA,NA,"Miscellaneous",NA,"Suppression (Wildfire)",32.74763,NA,NA,NA,"00000165",NA,"1990-1999",212043.40234375,1995.21283782876,-119.756700818387,37.6987704497926,NA
8955,1997,"CA","CDF CAL FIRE (State)","BDU"," ","00000697",NA,NA,"Unknown/Unidentified",NA,"Suppression (Wildfire)",31.26967,NA,NA,NA,"00000000",NA,"1990-1999",185356.37109375,1762.3377607677,-117.387470527874,34.1788195490782,NA
8869,1997,"CA","USF U.S. Forest Service","CNF","EAST GRADE","00000000",1997-03-11 08:00:00,1997-03-12 08:00:00,"Miscellaneous","Unknown","Suppression (Wildfire)",339.7711,NA,NA,NA,"00000005",NA,"1990-1999",1973714.76171875,8596.81169057699,-116.791381977208,33.303019588422,12.049951171875
8985,1997,"CA","USF U.S. Forest Service","ANF","ROBERTS","00000000",1997-03-13 08:00:00,1997-03-13 08:00:00,"Miscellaneous","Unknown","Suppression (Wildfire)",4.827242,NA,NA,NA,"00000030",NA,"1990-1999",28607.171875,715.173241941842,-117.90878110282,34.168206574562,11.31142578125
8924,1997,"CA","CDF CAL FIRE (State)","MEU","ROBINSON","00001153",1997-04-02 08:00:00,NA,"Debris",NA,"Suppression (Wildfire)",75.62143,NA,NA,NA,"00000015",NA,"1990-1999",504865.8125,2871.70013976012,-123.467833845167,38.8193393522118,8.08730468750002
8883,1997,"CA","BLM Bureau of Land Management","BBD","HILL","00000000",1997-04-04 08:00:00,1997-04-04 08:00:00,"Powerline","Unknown","Suppression (Wildfire)",230.7428,NA,NA,NA,"0000U898",NA,"1990-1999",1403882.86328125,7239.38948397933,-119.596176581229,35.2659755076927,10.636376953125
8956,1997,"CA","BLM Bureau of Land Management","BBD","BLM#1","00000000",1997-04-06 08:00:00,1997-04-06 08:00:00,"Powerline","Unknown","Suppression (Wildfire)",30.94952,NA,NA,NA,"0000U896",NA,"1990-1999",194798.01171875,1729.55732379675,-120.687964109176,36.6177800064867,10.43154296875
8963,1997,"CA","USF U.S. Forest Service","SQF","WHITE","00000000",1997-04-11 07:00:00,1997-04-13 07:00:00,"Miscellaneous","Unknown","Suppression (Wildfire)",22.0374,NA,NA,NA,"00000001",NA,"1990-1999",139454.37109375,1789.11208986167,-119.130667445457,36.8266252330789,4.81850585937502
8896,1997,"CA","USF U.S. Forest Service","SQF","NELSON","00000000",1997-04-17 07:00:00,1997-05-18 07:00:00,"Miscellaneous","Unknown","Suppression (Wildfire)",168.5642,NA,NA,NA,"00000003",NA,"1990-1999",1048524.671875,4573.1898142048,-118.603309112807,36.1557206892193,7.91201171875002
8945,1997,"CA","USF U.S. Forest Service","ANF","FERN","00000000",1997-04-18 07:00:00,1997-04-24 07:00:00,"Miscellaneous","Unknown","Suppression (Wildfire)",41.92315,NA,NA,NA,"00000050",NA,"1990-1999",248831.99609375,2005.12863221388,-118.165275279198,34.2344515659404,13.3353515625
8851,1997,"CA","CDF CAL FIRE (State)","RRU","PERRIS LAKE","00021852",1997-04-26 07:00:00,NA,"Equipment Use",NA,"Suppression (Wildfire)",523.3517,NA,NA,NA,"00000537",NA,"1990-1999",3080019.484375,9372.34006704142,-117.19177386992,33.8707068640998,15.513818359375
8860,1997,"CA","CCO Contract County","LAC","SHOOTING","00006638",1997-05-01 07:00:00,NA,"Unknown/Unidentified",NA,"Suppression (Wildfire)",425.7301,NA,NA,NA,"00040000",NA,"1990-1999",2531479.2265625,9509.53105740257,-118.354130228031,34.3114082191406,16.099267578125
8885,1997,"CA","CCO Contract County","LAC","LINDA","00006650",1997-05-01 07:00:00,NA,"Unknown/Unidentified",NA,"Suppression (Wildfire)",215.7694,NA,NA,NA,"00000000",NA,"1990-1999",1288085.44921875,5326.95930188839,-118.553391767419,34.4781714335883,15.87197265625
8960,1997,"CA","USF U.S. Forest Service","ANF","SHOOTING","00000000",1997-05-01 07:00:00,1997-05-02 07:00:00,"Miscellaneous","Unknown","Suppression (Wildfire)",24.59614,NA,NA,NA,"00000060",NA,"1990-1999",146715.203125,1840.48005607209,-118.089949763765,34.4445333166834,13.486474609375
8967,1997,"CA","USF U.S. Forest Service","ANF","GLENDORA","00000000",1997-05-05 07:00:00,1997-05-05 07:00:00,"Equipment Use","Unknown","Suppression (Wildfire)",18.6786,NA,NA,NA,"00000065",NA,"1990-1999",110595.05078125,1292.45095099877,-117.794302438946,34.1304449783523,18.021142578125
8981,1997,"CA","USF U.S. Forest Service","INF","HINDS","00000000",1997-05-05 07:00:00,1997-05-06 07:00:00,"Miscellaneous","Unknown","Suppression (Wildfire)",9.89928,NA,NA,NA,"00000002",NA,"1990-1999",63132.2109375,1994.06115038084,-118.393731708672,37.1249344248325,7.73745117187502
8855,1997,"CA","CCO Contract County","LAC","K I C","00006934",1997-05-06 07:00:00,NA,"Unknown/Unidentified",NA,"Suppression (Wildfire)",460.2026,NA,NA,NA,"00040000",NA,"1990-1999",2759801.38671875,9278.24888731804,-118.241728416863,34.6688353981597,17.29677734375
8874,1997,"CA","CCO Contract County","KRN","LOKERN","00000000",1997-05-07 07:00:00,NA,"Powerline",NA,"Suppression (Wildfire)",317.8633,NA,NA,NA,"00000000",NA,"1990-1999",1940550.01953125,5889.42627277582,-119.642652462522,35.4050762261988,20.730126953125
8819,1997,"CA","CCO Contract County","KRN","COTTONWOOD","00000000",1997-05-08 07:00:00,NA,"Arson",NA,"Suppression (Wildfire)",3540.491,NA,NA,NA,"00000000",NA,"1990-1999",21613312.3867188,27908.5554507254,-118.757214358405,35.4025879836884,16.14736328125
8920,1997,"CA","USF U.S. Forest Service","SQF","CASTLE","00000000",1997-05-08 07:00:00,1997-05-16 07:00:00,"Lightning","Unknown","Suppression (Wildfire)",84.56194,NA,NA,NA,"00000011",NA,"1990-1999",525975.27734375,3112.82439661368,-118.457784389884,36.1536572338496,10.157861328125
8822,1997,"CA","CDF CAL FIRE (State)","RRU","BEACH","00024410",1997-05-09 07:00:00,NA,"Miscellaneous",NA,"Suppression (Wildfire)",2295.228,NA,NA,NA,"00000621",NA,"1990-1999",13516247.6757812,16406.5472644855,-117.150400359005,33.8975325084325,18.9369140625
8922,1997,"CA","USF U.S. Forest Service","ANF","ESCONDIDO","00000000",1997-05-09 07:00:00,1997-05-09 07:00:00,"Miscellaneous","Unknown","Suppression (Wildfire)",81.10481,NA,NA,NA,"00000069",NA,"1990-1999",484441.1796875,2999.65909081534,-118.244215851202,34.5021114244778,16.73720703125
8878,1997,"CA","CDF CAL FIRE (State)","RRU","BROWN","00024633",1997-05-10 07:00:00,NA,"Arson",NA,"Suppression (Wildfire)",267.9394,NA,NA,NA,"00000634",NA,"1990-1999",1574917.671875,5492.27242539054,-117.306142320494,33.8172459048786,18.9955078125
8948,1997,"CA","USF U.S. Forest Service","ANF","HORN","00000000",1997-05-11 07:00:00,1997-05-15 07:00:00,"Lightning","Unknown","Suppression (Wildfire)",40.78406,NA,NA,NA,"00000074",NA,"1990-1999",242278.24609375,3085.43770192189,-117.679360666704,34.270774018013,14.625390625
8987,1997,"CA","DOD Department of Defense","AFV","UMBRA","00001382",1997-05-11 07:00:00,1997-05-11 07:00:00,"Powerline","Other Imagery","Suppression (Wildfire)",3.261202,NA,NA,NA,"00001382",NA,"1990-1999",19612.390625,672.161716905199,-120.574390954209,34.7863603346557,12.121484375
8858,1997,"CA","BLM Bureau of Land Management","BBD","COUNTYLINE","00000000",1997-05-12 07:00:00,1997-05-13 07:00:00,"Equipment Use","Unknown","Suppression (Wildfire)",453.3643,NA,NA,NA,"0000U91O",NA,"1990-1999",2794079.8359375,9457.17146015209,-119.594458296621,35.7868839429862,24.48037109375
8913,1997,"CA","NPS National Park Service","YNP","KIBBIE","00000018",1997-05-12 07:00:00,1997-07-27 07:00:00,"Lightning","Unknown","Resource Benefit (Wildland Fire Use)",101.2472,NA,NA,NA,"00000018",NA,"1990-1999",661162.85546875,3859.42853282793,-119.857066447942,38.0137288929308,11.621484375
8935,1997,"CA","USF U.S. Forest Service","ANF","SAND","00003262",1997-05-15 07:00:00,1997-05-15 07:00:00,"Arson","Unknown","Suppression (Wildfire)",54.13991,NA,NA,NA,"00000079",NA,"1990-1999",323809.3828125,3010.59228056478,-118.532566045981,34.5572541090606,19.10048828125
8943,1997,"CA","USF U.S. Forest Service","INF","DECHAMBEAU","00000000",1997-05-15 07:00:00,1997-05-16 07:00:00,"Lightning","Unknown","Suppression (Wildfire)",42.11316,NA,NA,NA,"00000019",NA,"1990-1999",275246.28515625,2371.75544841966,-119.084015527907,38.0459134838463,9.83754882812502
8899,1997,"CA","CDF CAL FIRE (State)","TUU","CARANTON","00004279",1997-05-17 07:00:00,NA,"Equipment Use",NA,"Suppression (Wildfire)",165.45,NA,NA,NA,"00000052",NA,"1990-1999",1025917.6953125,4291.9071008955,-118.923299240624,36.0308725016032,19.590478515625
8932,1997,"CA","BLM Bureau of Land Management","BBD","CALIENTE","00000000",1997-05-17 07:00:00,1997-05-18 07:00:00,"Lightning","Unknown","Suppression (Wildfire)",62.17432,NA,NA,NA,"0000U912",NA,"1990-1999",376812.9140625,2420.14765198347,-119.864180868026,35.1066364273234,22.86513671875
8968,1997,"CA","USF U.S. Forest Service","SNF","HELLS","00000000",1997-05-17 07:00:00,1997-05-22 07:00:00,"Miscellaneous","Unknown","Suppression (Wildfire)",17.99587,NA,NA,NA,"00000012",NA,"1990-1999",115605.16015625,1418.53025033793,-119.296404472301,37.4010059405366,10.48134765625
8979,1997,"CA","USF U.S. Forest Service","SNF","FULLER","00000000",1997-05-17 07:00:00,1997-05-31 07:00:00,"Lightning","Unknown","Suppression (Wildfire)",11.01649,NA,NA,NA,"00000011",NA,"1990-1999",70778.5703125,1176.11618071339,-119.284785445849,37.4057150091617,10.32216796875
8849,1997,"CA","USF U.S. Forest Service","INF","TOWER II","00000000",1997-05-18 07:00:00,1997-06-23 07:00:00,"Lightning","Unknown","Suppression (Wildfire)",529.697,NA,NA,NA,"00000018",NA,"1990-1999",3310147.0390625,9179.77134662282,-118.38886164041,36.3378313448549,10.952783203125
8965,1997,"CA","CDF CAL FIRE (State)","MEU","MCCOY","00001691",1997-05-18 07:00:00,NA,"Debris",NA,"Suppression (Wildfire)",20.93017,NA,NA,NA,"00000032",NA,"1990-1999",144327.9765625,1532.15773658174,-123.746487753755,39.956889522652,17.632470703125
8814,1997,"CA","CCO Contract County","KRN","LOKERN TWO","00000000",1997-05-19 07:00:00,NA,"Vehicle",NA,"Suppression (Wildfire)",4566.402,NA,NA,NA,"00000000",NA,"1990-1999",27869413.3046875,22529.6909795454,-119.601929038403,35.3928293419992,24.98525390625
8827,1997,"CA","CDF CAL FIRE (State)","FKU","GROVE","00020596",1997-05-19 07:00:00,NA,"Lightning",NA,"Suppression (Wildfire)",1400.299,NA,NA,NA,"00000101",NA,"1990-1999",8883668.0234375,18400.6291609222,-119.715063348015,36.9241571170032,22.29140625
8941,1997,"CA","USF U.S. Forest Service","SQF","ERSKIN","00000000",1997-05-19 07:00:00,1997-05-20 07:00:00,"Equipment Use","Unknown","Suppression (Wildfire)",45.24128,NA,NA,NA,"00000021",NA,"1990-1999",277393.4453125,2056.0760376859,-118.427346008636,35.5802752606214,18.08388671875
8854,1997,"CA","USF U.S. Forest Service","TNF","MAYBERT","00000000",1997-05-21 07:00:00,1997-05-23 07:00:00,"Debris",NA,"Suppression (Wildfire)",470.6738,NA,NA,NA,"00000008",NA,"1990-1999",3190557.453125,7294.80745738798,-120.736913479065,39.3608652842725,11.0072265625
8826,1997,"CA","CCO Contract County","KRN","GRANITE","00000000",1997-05-22 07:00:00,NA,"Vehicle",NA,"Suppression (Wildfire)",1432.198,NA,NA,NA,"00000000",NA,"1990-1999",8774062.58984375,12519.2679193304,-118.969324601808,35.5463944383127,19.50087890625
8859,1997,"CA","CCO Contract County","SBC","JANEWAY","00000000",1997-05-23 07:00:00,NA,"Equipment Use",NA,"Suppression (Wildfire)",445.4276,NA,NA,NA,"00000000",NA,"1990-1999",2667823.55859375,8681.66291926431,-119.929123745186,34.6159723824327,16.63369140625
8988,1997,"CA","CCO Contract County","SBC","JANEWAY (SPOT)","00000000",1997-05-23 07:00:00,NA,"Equipment Use",NA,"Suppression (Wildfire)",3.229736,NA,NA,NA,"00000000",NA,"1990-1999",19345.62890625,940.582377104574,-119.920743533679,34.6194258261474,16.5951171875
8946,1997,"CA","USF U.S. Forest Service","SQF","CEMETERY","00000000",1997-05-25 07:00:00,1997-05-25 07:00:00,"Smoking","Unknown","Suppression (Wildfire)",41.50529,NA,NA,NA,"00000026",NA,"1990-1999",255338.6875,2389.96417886027,-118.43897617364,35.7149914240199,9.86684570312502
8964,1997,"CA","CCO Contract County","LAC","FREEWAY I","00008104",1997-05-27 07:00:00,NA,"Unknown/Unidentified",NA,"Suppression (Wildfire)",22.0313,NA,NA,NA,"00060000",NA,"1990-1999",130274.59765625,1646.04090716698,-117.8070398848,34.0742434729163,19.66982421875
8889,1997,"CA","CCO Contract County","ORC","COTO","00026962",1997-05-29 07:00:00,NA,"Playing with Fire",NA,"Suppression (Wildfire)",197.5885,NA,NA,NA,"00000000",NA,"1990-1999",1155892.6328125,5134.919460089,-117.59624620595,33.6111382347842,21.823388671875
8868,1997,"CA","USF U.S. Forest Service","SQF","STINE","00000000",1997-05-30 07:00:00,1997-05-30 07:00:00,"Lightning","Unknown","Suppression (Wildfire)",343.6262,NA,NA,NA,"00000027",NA,"1990-1999",2112274.96484375,6782.71481071209,-118.400140037745,35.6826762262886,17.693017578125
8911,1997,"CA","CDF CAL FIRE (State)","MEU","HANSON","00001895",1997-06-01 07:00:00,NA,"Equipment Use",NA,"Suppression (Wildfire)",103.2056,NA,NA,NA,"00000048",NA,"1990-1999",691736.08203125,3343.17894105078,-123.085293861953,38.9599798774241,14.3607421875
8863,1997,"CA","CDF CAL FIRE (State)","TUU","LEWIS","00000000",1997-06-06 07:00:00,NA,"Equipment Use",NA,"Suppression (Wildfire)",400.8379,NA,NA,NA,"00005071",NA,"1990-1999",2494834.36328125,6188.35082290656,-118.991028968549,36.1793320240555,16.13466796875
8861,1997,"CA","CDF CAL FIRE (State)","RRU","CALIMESA","00030619",1997-06-10 07:00:00,NA,"Equipment Use",NA,"Suppression (Wildfire)",422.7655,NA,NA,NA,"00000826",NA,"1990-1999",2495030.859375,8871.78873848188,-117.06352684718,33.9911528801254,17.30458984375
8871,1997,"CA","CDF CAL FIRE (State)","TUU","LEWIS","00005071",1997-06-13 07:00:00,NA,"Equipment Use",NA,"Suppression (Wildfire)",334.8095,NA,NA,NA,"00000074",NA,"1990-1999",2083778.68359375,5701.91131062434,-118.990808476822,36.1776071138921,17.758447265625
8928,1997,"CA","USF U.S. Forest Service","INF","WILLY","00000000",1997-06-13 07:00:00,1997-08-01 07:00:00,"Lightning","Unknown","Suppression (Wildfire)",71.65487,NA,NA,NA,"00000043",NA,"1990-1999",451789.20703125,3042.85318862717,-118.304497727168,36.6857469599293,2.54750976562502
8809,1997,"CA","CCO Contract County","KRN","MIDWAY","00000000",1997-06-21 07:00:00,NA,"Arson",NA,"Suppression (Wildfire)",8034.083,NA,NA,NA,"00000000",NA,"1990-1999",48835733.546875,36586.9666491758,-119.505749422956,35.2281754743667,24.332421875
8957,1997,"CA","BLM Bureau of Land Management","BBD","USL","00000000",1997-06-25 07:00:00,1997-06-25 07:00:00,"Powerline","Unknown","Suppression (Wildfire)",30.12833,NA,NA,NA,"0000D006",NA,"1990-1999",182981.859375,1577.91514231926,-119.572170909698,35.1934117486367,23.873193359375
8876,1997,"CA","CDF CAL FIRE (State)","AEU","HICKOK","00006744",1997-06-27 07:00:00,NA,"Miscellaneous",NA,"Suppression (Wildfire)",294.4628,NA,NA,NA,"00000246",NA,"1990-1999",1962210.53515625,10328.0409471729,-121.034490759817,38.7518006099466,20.731103515625
8929,1997,"CA","USF U.S. Forest Service","CNF","BRONCO","00000000",1997-06-27 07:00:00,1997-06-28 07:00:00,"Unknown/Unidentified","Unknown","Suppression (Wildfire)",67.92581,NA,NA,NA,"00000040",NA,"1990-1999",389290.3046875,2472.74731052159,-116.575710748174,32.7022755754803,16.919580078125
8919,1997,"CA","CCO Contract County","LAC","GODDE","00009921",1997-06-29 07:00:00,NA,"Unknown/Unidentified",NA,"Suppression (Wildfire)",85.49489,NA,NA,NA,"00020000",NA,"1990-1999",511988.57421875,3838.9830227557,-118.25089053171,34.6101937940802,16.586572265625
8817,1997,"CA","CCO Contract County","LAC","CANYON II","00001003",1997-07-01 07:00:00,NA,"Unknown/Unidentified",NA,"Suppression (Wildfire)",3825.171,NA,NA,NA,"00029000",NA,"1990-1999",22679819.8867188,50357.5675843509,-117.906066504297,34.1890557896025,17.33779296875
8926,1997,"CA","USF U.S. Forest Service","ANF","FENTON","00000000",1997-07-01 07:00:00,1997-07-02 07:00:00,"Miscellaneous","Unknown","Suppression (Wildfire)",73.4249,NA,NA,NA,"00000129",NA,"1990-1999",436826.875,2767.13567494904,-118.435934629883,34.333452760484,17.819482421875
8901,1997,"CA","CDF CAL FIRE (State)","RRU","GAVILAN","00034875",1997-07-02 07:00:00,NA,"Unknown/Unidentified",NA,"Suppression (Wildfire)",158.9578,NA,NA,NA,"00000000",NA,"1990-1999",933893.1015625,4516.69650234872,-117.380168936428,33.7960805548375,19.905908203125
8823,1997,"CA","CDF CAL FIRE (State)","MVU","ALL ACRES IN MEX","00004927",1997-07-03 07:00:00,NA,"Unknown/Unidentified",NA,"Suppression (Wildfire)",1793.799,NA,NA,NA,"00000000",NA,"1990-1999",10253678.3125,18262.0134553108,-116.402724448254,32.5857996503585,22.112939453125
8856,1997,"CA","CCO Contract County","LAC","PLACERITA","00001014",1997-07-03 07:00:00,NA,"Unknown/Unidentified",NA,"Suppression (Wildfire)",459.1682,NA,NA,NA,"00090000",NA,"1990-1999",2735358.74609375,10124.1050074226,-118.46617785733,34.3895745634247,20.907861328125
8906,1997,"CA","CCO Contract County","LAC","BONELLI","00001016",1997-07-03 07:00:00,NA,"Unknown/Unidentified",NA,"Suppression (Wildfire)",130.3404,NA,NA,NA,"00030000",NA,"1990-1999",770879.41796875,4750.61533693599,-117.813848609506,34.0828895972127,21.258203125
8944,1997,"CA","CDF CAL FIRE (State)","MVU","OUTSIDE ORIGIN","00004927",1997-07-03 07:00:00,NA,"Equipment Use",NA,"Suppression (Wildfire)",41.95768,NA,NA,NA,"00000000",NA,"1990-1999",239938.37890625,7086.19856872446,-116.408046562092,32.5947476000525,22.08291015625
8834,1997,"CA","USF U.S. Forest Service","SQF","TOWER","00000000",1997-07-04 07:00:00,1997-07-05 07:00:00,"Lightning","Unknown","Suppression (Wildfire)",1185.084,NA,NA,NA,"00000038",NA,"1990-1999",7286544.1171875,11401.3701270498,-118.414986696306,35.6927064367802,23.665673828125
8904,1997,"CA","CDF CAL FIRE (State)","RRU","STATE","00035283",1997-07-04 07:00:00,NA,"Equipment Use",NA,"Suppression (Wildfire)",135.4143,NA,NA,NA,"00001001",NA,"1990-1999",799846.6328125,5207.64549495088,-117.497549831506,34.0272123799312,22.7494140625
8815,1997,"CA","USF U.S. Forest Service","BDF","HEMLOCK - JULY","00000000",1997-07-05 07:00:00,1997-07-09 07:00:00,"Playing with Fire","Unknown","Suppression (Wildfire)",3947.102,NA,NA,NA,"00000069",NA,"1990-1999",23392491.3007812,28160.2963127377,-117.210179573339,34.1703720519706,22.426171875
8947,1997,"CA","USF U.S. Forest Service","SQF","ROADS","00000000",1997-07-06 07:00:00,1997-07-07 07:00:00,"Debris","Unknown","Suppression (Wildfire)",41.0801,NA,NA,NA,"00000044",NA,"1990-1999",254127.6953125,2280.45811047072,-118.487432986454,35.9370138832805,16.480859375
8966,1997,"CA","CCO Contract County","LAC","FREEWAY II","00001038",1997-07-06 07:00:00,NA,"Unknown/Unidentified",NA,"Suppression (Wildfire)",20.04352,NA,NA,NA,"00022000",NA,"1990-1999",118505.921875,1587.23335901586,-117.804650988373,34.0689718070125,21.809716796875
8962,1997,"CA","USF U.S. Forest Service","SQF","THUNDER","00000000",1997-07-10 07:00:00,1997-07-11 07:00:00,"Campfire","Unknown","Suppression (Wildfire)",22.55512,NA,NA,NA,"00000047",NA,"1990-1999",139134.75,1673.62802352608,-118.459223274532,35.8237577064609,18.627587890625
8888,1997,"CA","CCO Contract County","LAC","AMARILLO/TANK","00001105",1997-07-18 07:00:00,NA,"Unknown/Unidentified",NA,"Suppression (Wildfire)",202.3198,NA,NA,NA,"00070000",NA,"1990-1999",1198338.59375,5071.050351901,-117.687753702612,34.1451641365289,20.466455078125
8898,1997,"CA","CCO Contract County","LAC","SOLEDAD","00001118",1997-07-20 07:00:00,NA,"Unknown/Unidentified",NA,"Suppression (Wildfire)",166.0688,NA,NA,NA,"00003000",NA,"1990-1999",990286.20703125,5941.42011777548,-118.324506638981,34.4313839454836,16.673486328125
8942,1997,"CA","USF U.S. Forest Service","ANF","SOLEDAD","00000000",1997-07-20 07:00:00,1997-07-21 07:00:00,"Lightning","Unknown","Suppression (Wildfire)",44.30154,NA,NA,NA,"00000157",NA,"1990-1999",264192.32421875,1883.01885791489,-118.397699168966,34.4341867578873,16.825830078125
8939,1997,"CA","CCO Contract County","VNC","AUTUMN","00000000",1997-07-22 07:00:00,NA,"Unknown/Unidentified",NA,"Suppression (Wildfire)",46.8571,NA,NA,NA,"00000000",NA,"1990-1999",278009.30078125,3211.69264161795,-118.827975986158,34.2179747577131,18.693017578125
8984,1997,"CA","DOD Department of Defense","AFV","SALDADO","00001930",1997-07-24 07:00:00,1997-07-24 07:00:00,"Powerline","Other Imagery","Suppression (Wildfire)",7.780951,NA,NA,NA,"00001930",NA,"1990-1999",46878.953125,1037.22531085494,-120.595035966881,34.8622289980397,15.629052734375
8892,1997,"CA","CDF CAL FIRE (State)","TCU","JACK","00004421",1997-07-26 07:00:00,NA,"Arson",NA,"Suppression (Wildfire)",184.9277,NA,NA,NA,"00000625",NA,"1990-1999",1199811.8671875,5007.19559000375,-120.206022716649,37.7732125399209,21.058251953125
8897,1997,"CA","CDF CAL FIRE (State)","TCU","PRIEST","00004409",1997-07-26 07:00:00,NA,"Arson",NA,"Suppression (Wildfire)",167.182,NA,NA,NA,"00000623",NA,"1990-1999",1084537.08203125,4989.48070598952,-120.203748260239,37.7683994084132,21.06630859375
8930,1997,"CA","USF U.S. Forest Service","MDF","WILSON","00000000",1997-07-28 07:00:00,1997-07-29 07:00:00,"Lightning","Unknown","Suppression (Wildfire)",63.23659,NA,NA,NA,"00000065",NA,"1990-1999",463323.1953125,4011.71140901617,-120.980976376245,41.9730416443264,20.6419921875
8934,1997,"CA","USF U.S. Forest Service","MDF","RESEARCH","00000000",1997-07-28 07:00:00,1997-07-28 07:00:00,"Lightning","Unknown","Suppression (Wildfire)",54.29248,NA,NA,NA,"00000063",NA,"1990-1999",395707.34375,4479.80320832192,-120.612541231818,41.804012150998,21.11123046875
8958,1997,"CA","USF U.S. Forest Service","LNF","MOUNTAIN","00000000",1997-07-28 07:00:00,1997-07-28 07:00:00,"Lightning","Unknown","Suppression (Wildfire)",29.98019,NA,NA,NA,"00000032",NA,"1990-1999",212356.0546875,1943.37733989728,-121.408341437105,40.8667417991023,21.982080078125
8989,1997,"CA","USF U.S. Forest Service","PNF","RUSH","00000000",1997-07-28 07:00:00,1997-07-28 07:00:00,"Lightning","Unknown","Suppression (Wildfire)",2.158541,NA,NA,NA,"00000071",NA,"1990-1999",14928.90625,660.466524136969,-121.072797589834,40.059071737218,20.824365234375
8850,1997,"CA","CDF CAL FIRE (State)","MVU","SLAUGHTERHOUSE","00005644",1997-07-30 07:00:00,NA,"Equipment Use",NA,"Suppression (Wildfire)",528.222,NA,NA,NA,"00001091",NA,"1990-1999",3041998.359375,10354.5948370006,-116.943841051462,32.9195604253742,16.31923828125
8975,1997,"CA","USF U.S. Forest Service","MDF","CDF #6","00000000",1997-07-30 07:00:00,1997-08-08 07:00:00,"Lightning","Unknown","Suppression (Wildfire)",15.12439,NA,NA,NA,"00000086",NA,"1990-1999",108859.67578125,1251.59307133274,-120.789276662107,41.3963775810628,15.21865234375
8884,1997,"CA","CDF CAL FIRE (State)","SLU","MCMILLIAN","00002814",1997-07-31 07:00:00,NA,"Unknown/Unidentified",NA,"Suppression (Wildfire)",217.5658,NA,NA,NA,"00000000",NA,"1990-1999",1337162.4609375,5564.56250679829,-120.457670911754,35.6761168211448,17.722802734375
8983,1997,"CA","USF U.S. Forest Service","MDF","CDF #8","00000000",1997-07-31 07:00:00,1997-07-31 07:00:00,"Lightning","Unknown","Suppression (Wildfire)",7.813727,NA,NA,NA,"00000088",NA,"1990-1999",55413.609375,915.720889240471,-121.050586462036,40.9072629800247,13.876611328125
8846,1997,"CA","CDF CAL FIRE (State)","MVU","LAUREL","00005738",1997-08-01 07:00:00,NA,"Powerline",NA,"Suppression (Wildfire)",702.6112,NA,NA,NA,"00000000",NA,"1990-1999",4051057.44921875,11613.7747344464,-116.889974291836,32.9720566965343,19.8529296875
8848,1997,"CA","CDF CAL FIRE (State)","MVU","WOHLFORD","00005733",1997-08-01 07:00:00,NA,"Arson",NA,"Suppression (Wildfire)",537.6511,NA,NA,NA,"00000000",NA,"1990-1999",3114887.859375,8134.79432821001,-116.983267532978,33.1855839581926,19.01455078125
8872,1997,"CA","CDF CAL FIRE (State)","LNU","MARKLEY","00003038",1997-08-03 07:00:00,NA,"Campfire",NA,"Suppression (Wildfire)",333.6006,NA,NA,NA,"00000226",NA,"1990-1999",2208752.296875,6896.8195810186,-122.109706861219,38.5192490223357,20.138330078125
8940,1997,"CA","CCO Contract County","LAC","FREEWAY IC","00001194",1997-08-03 07:00:00,NA,"Unknown/Unidentified",NA,"Suppression (Wildfire)",45.27452,NA,NA,NA,"00006000",NA,"1990-1999",269523.23046875,2560.20479950488,-118.503477596402,34.3603619305139,24.584130859375
8805,1997,"CA","USF U.S. Forest Service","LPF","LOGAN","00000000",1997-08-04 07:00:00,1997-08-16 07:00:00,"Miscellaneous","Unknown","Suppression (Wildfire)",49490.48,NA,NA,NA,"00000040",NA,"1990-1999",299986203.394531,163181.00883559,-120.10298962047,35.1127536683603,23.09658203125
8847,1997,"CA","CDF CAL FIRE (State)","LMU","GOOCH","00000230",1997-08-04 07:00:00,NA,"Unknown/Unidentified",NA,"Suppression (Wildfire)",642.2961,NA,NA,NA,"00000000",NA,"1990-1999",4538320.01171875,9555.54646667765,-120.881978583535,40.7843673245632,17.141748046875
8806,1997,"CA","USF U.S. Forest Service","LPF","HOPPER","00000000",1997-08-05 07:00:00,1997-08-13 07:00:00,"Miscellaneous","Unknown","Suppression (Wildfire)",24797.38,NA,NA,NA,"00000042",NA,"1990-1999",148021052.1875,68077.4998400792,-118.816369583189,34.4745481819718,25.137353515625
8891,1997,"CA","CCO Contract County","LAC","GORMAN","00001208",1997-08-05 07:00:00,NA,"Unknown/Unidentified",NA,"Suppression (Wildfire)",187.8304,NA,NA,NA,"00072000",NA,"1990-1999",1129056.7265625,9106.56057752679,-118.773367041669,34.7669349198142,23.6498046875
8910,1997,"CA","CDF CAL FIRE (State)","RRU","OLIVE","00041692",1997-08-05 07:00:00,NA,"Unknown/Unidentified",NA,"Suppression (Wildfire)",104.7814,NA,NA,NA,"00001211",NA,"1990-1999",615078.12109375,5420.72153409516,-117.296135343039,33.7600099334478,25.771630859375
8816,1997,"CA","USF U.S. Forest Service","SQF","CHOKE","00000000",1997-08-06 07:00:00,1997-08-12 07:00:00,"Lightning","Unknown","Suppression (Wildfire)",3933.424,NA,NA,NA,"00000064",NA,"1990-1999",24902809.4453125,20361.1866960571,-118.725679224721,36.8448992065808,15.582177734375
8915,1997,"CA","CCO Contract County","ORC","EL MORO","00000000",1997-08-06 07:00:00,NA,"Arson",NA,"Suppression (Wildfire)",90.68682,NA,NA,NA,"00000000",NA,"1990-1999",530044.1796875,4215.8512263295,-117.805901995639,33.5722506734196,25.157861328125
8980,1997,"CA","USF U.S. Forest Service","STF","NORTH SHORE",NA,1997-08-06 07:00:00,1997-08-07 07:00:00,"Miscellaneous","GPS Air","Suppression (Wildfire)",9.998665,"20090305",NA,NA,"00000041",NA,"1990-1999",65618.078125,1325.17704076266,-119.99310847246,38.1966317788585,16.486474609375
8813,1997,"CA","USF U.S. Forest Service","SQF","JACKS","00000000",1997-08-08 07:00:00,1997-08-18 07:00:00,"Lightning","Unknown","Suppression (Wildfire)",5747.024,NA,NA,NA,"00000067",NA,"1990-1999",35274348.4648438,44517.6190678675,-118.087139460813,35.6225152593334,24.657861328125
8887,1997,"CA","USF U.S. Forest Service","SQF","HIGHWAY","00000000",1997-08-08 07:00:00,1997-08-09 07:00:00,"Miscellaneous","Unknown","Suppression (Wildfire)",213.6487,NA,NA,NA,"00000066",NA,"1990-1999",1309741.265625,5730.34549779075,-118.575355582,35.5731651877734,27.589990234375
8900,1997,"CA","CDF CAL FIRE (State)","RRU","STATE","00042286",1997-08-08 07:00:00,NA,"Equipment Use",NA,"Suppression (Wildfire)",161.0356,NA,NA,NA,"00001231",NA,"1990-1999",946658.015625,4498.54733613329,-117.492501017348,33.8222030016579,23.633447265625
8880,1997,"CA","BLM Bureau of Land Management","NOD","SHU DEADWO","00000000",1997-08-09 07:00:00,1997-08-10 07:00:00,"Smoking","Unknown","Suppression (Wildfire)",264.0222,NA,NA,NA,"0000D432",NA,"1990-1999",1862180.86328125,9358.79963506846,-122.756203776551,40.7243306587514,24.82705078125
8828,1997,"CA","CCO Contract County","KRN","POSO","00000000",1997-08-10 07:00:00,NA,"Powerline",NA,"Suppression (Wildfire)",1394.269,NA,NA,NA,"00000000",NA,"1990-1999",8537239.1484375,13116.5859542164,-118.991094356396,35.5252646726476,21.594384765625
8972,1997,"CA","CDF CAL FIRE (State)","MEU","HOPPER","00003352",1997-08-11 07:00:00,NA,"Unknown/Unidentified",NA,"Suppression (Wildfire)",16.41537,NA,NA,NA,"00000173",NA,"1990-1999",111136.7734375,1230.2427634209,-123.090700765333,39.3171117205726,15.74794921875
8865,1997,"CA","CDF CAL FIRE (State)","TUU","SCHOOL","00006909",1997-08-12 07:00:00,NA,"Unknown/Unidentified",NA,"Suppression (Wildfire)",386.9835,NA,NA,NA,"00000124",NA,"1990-1999",2405695.36328125,8434.63174864727,-118.837114676085,36.131549336136,20.370751953125
8807,1997,"CA","USF U.S. Forest Service","ANF","NARROWS","00000000",1997-08-13 07:00:00,1997-08-23 07:00:00,"Debris","Unknown","Suppression (Wildfire)",18160.34,NA,NA,NA,"00000186",NA,"1990-1999",108034151.414062,67723.1294434142,-117.709678299908,34.3306228259436,14.684228515625
8831,1997,"CA","CDF CAL FIRE (State)","BDU","SCOTCH","00049104",1997-08-14 07:00:00,NA,"Unknown/Unidentified",NA,"Suppression (Wildfire)",1290.568,NA,NA,NA,"00000706",NA,"1990-1999",7622921.67578125,15281.5906753939,-117.23803346633,34.0270327290795,21.254541015625
8877,1997,"CA","NPS National Park Service","KNP","SUGARLOAF","00000000",1997-08-15 07:00:00,1997-10-26 07:00:00,"Lightning","Unknown","Resource Benefit (Wildland Fire Use)",280.4754,NA,NA,NA,"00000043",NA,"1990-1999",1770304.609375,12331.5103344242,-118.666754637816,36.7270420490986,10.743310546875
8925,1997,"CA","CDF CAL FIRE (State)","MEU","RAILROAD #4","00003437",1997-08-15 07:00:00,NA,"Railroad",NA,"Suppression (Wildfire)",74.71687,NA,NA,NA,"00000182",NA,"1990-1999",510828.51171875,2737.85791200659,-123.348308835243,39.6599729466456,19.63857421875
8927,1997,"CA","CDF CAL FIRE (State)","MEU","RAILROAD #5","00003438",1997-08-15 07:00:00,NA,"Railroad",NA,"Suppression (Wildfire)",73.07514,NA,NA,NA,"00000183",NA,"1990-1999",499688.4765625,2732.99237949076,-123.350781515844,39.6658302492549,19.65615234375
8852,1997,"CA","CCO Contract County","LAC","SIERRA","00001279",1997-08-18 07:00:00,NA,"Unknown/Unidentified",NA,"Suppression (Wildfire)",522.9176,NA,NA,NA,"00031000",NA,"1990-1999",3112415.47265625,15033.7318312758,-118.51454853296,34.3527678209404,16.973779296875
8808,1997,"CA","CCO Contract County","KRN","CHOCTAW","00000000",1997-08-19 07:00:00,NA,"Arson",NA,"Suppression (Wildfire)",10521.97,NA,NA,NA,"00000000",NA,"1990-1999",64322414.9296875,63432.0831896984,-118.880752958133,35.4593934973539,25.89345703125
8832,1997,"CA","CCO Contract County","KRN","COMANCHE","00000000",1997-08-19 07:00:00,NA,"Vehicle",NA,"Suppression (Wildfire)",1245.665,NA,NA,NA,"00000000",NA,"1990-1999",7548667.1171875,15373.5804377427,-118.67360649349,35.102287810472,20.426904296875
8820,1997,"CA","CCO Contract County","SBC","SANTA ROSA","00000000",1997-08-20 07:00:00,NA,"Unknown/Unidentified",NA,"Suppression (Wildfire)",3074.245,NA,NA,NA,"00000000",NA,"1990-1999",18419948.5625,29320.3976025373,-120.330483081248,34.6323395914198,19.9466796875
8857,1997,"CA","CDF CAL FIRE (State)","MVU","PALA","00006411",1997-08-20 07:00:00,NA,"Unknown/Unidentified",NA,"Suppression (Wildfire)",457.8924,NA,NA,NA,"00000000",NA,"1990-1999",2664785.30859375,8621.46577235452,-117.088665746647,33.3840692584036,20.61904296875
8879,1997,"CA","BLM Bureau of Land Management","BBD","EUCALYPTUS","00000000",1997-08-25 07:00:00,1997-08-25 07:00:00,"Escaped Prescribed Burn","Unknown","Suppression (Wildfire)",264.1226,NA,NA,NA,"0000D067",NA,"1990-1999",1662947.36328125,8553.10629263545,-121.729666419431,36.630539246495,15.211572265625
8810,1997,"CA","CDF CAL FIRE (State)","RRU","PAUBA","00046599",1997-08-31 07:00:00,NA,"Miscellaneous",NA,"Suppression (Wildfire)",7100.551,NA,NA,NA,"00000000",NA,"1990-1999",41453456.40625,43060.7595374718,-116.945755397165,33.5221266887855,20.558740234375
8970,1997,"CA","USF U.S. Forest Service","SQF","SOUTH LAKE","00000000",1997-08-31 07:00:00,1997-08-31 07:00:00,"Arson","Unknown","Suppression (Wildfire)",16.82125,NA,NA,NA,"00000071",NA,"1990-1999",103356.67578125,1485.85369624493,-118.342878883517,35.6662658372966,21.116357421875
8971,1997,"CA","BLM Bureau of Land Management","NOD","CLARKS","00000000",1997-08-31 07:00:00,NA,"Campfire",NA,"Suppression (Wildfire)",16.43079,NA,NA,NA,"0000D451",NA,"1990-1999",117068.7578125,2435.87266879567,-120.229723838533,41.0621424417381,14.53896484375
8862,1997,"CA","DOD Department of Defense","AFV","GLOBE","00002154",1997-09-01 07:00:00,1997-09-01 07:00:00,"Powerline","Other Imagery","Suppression (Wildfire)",401.7757,NA,NA,NA,"00002154",NA,"1990-1999",2420356.19140625,8371.35002209446,-120.575539787415,34.8574739589687,17.2455078125
8870,1997,"CA","CCO Contract County","ORC","SANTIAGO","00044623",1997-09-02 07:00:00,NA,"Vehicle",NA,"Suppression (Wildfire)",338.1379,NA,NA,NA,"00000000",NA,"1990-1999",1982119.7734375,7271.94190401264,-117.624446264176,33.6991657591851,22.502099609375
8907,1997,"CA","CDF CAL FIRE (State)","MVU","EAGLE","00006810",1997-09-02 07:00:00,NA,"Miscellaneous",NA,"Suppression (Wildfire)",129.5052,NA,NA,NA,"00000000",NA,"1990-1999",747691.09765625,4100.907608159,-116.694566806712,33.0317116978769,22.18984375
8835,1997,"CA","CDF CAL FIRE (State)","MVU","MARGARITA","00006857",1997-09-04 07:00:00,NA,"Unknown/Unidentified",NA,"Suppression (Wildfire)",1164.129,NA,NA,NA,"00000000",NA,"1990-1999",6784645.828125,17190.505266733,-117.304694038182,33.4473885821802,24.6302734375
8886,1997,"CA","USF U.S. Forest Service","SQF","THORTON","00000000",1997-09-04 07:00:00,1997-09-09 07:00:00,"Lightning","Unknown","Suppression (Wildfire)",214.9382,NA,NA,NA,"00000104",NA,"1990-1999",1311562.7265625,5780.19597472303,-118.310804714672,35.3859768197662,15.92568359375
8893,1997,"CA","DOD Department of Defense","AFV","BOAT_HOUSE","00002203",1997-09-05 07:00:00,1997-09-05 07:00:00,"Escaped Prescribed Burn","Other Imagery","Suppression (Wildfire)",179.4616,NA,NA,NA,"00002203",NA,"1990-1999",1073584.43359375,6388.30081931923,-120.602391878101,34.5662120587309,NA
8931,1997,"CA","USF U.S. Forest Service","INF","TUNAWEE","00000000",1997-09-05 07:00:00,1997-09-13 07:00:00,"Lightning","Unknown","Suppression (Wildfire)",62.6753,NA,NA,NA,"00000093",NA,"1990-1999",389015.85546875,3140.14748894683,-118.047828329878,36.0697451062666,16.401513671875
8903,1997,"CA","CDF CAL FIRE (State)","RRU","PATTERSON","00047738",1997-09-07 07:00:00,NA,"Miscellaneous",NA,"Suppression (Wildfire)",149.156,NA,NA,NA,"00001401",NA,"1990-1999",875884.16015625,4121.21940936302,-117.308799173162,33.7759270404931,21.89248046875
8864,1997,"CA","CDF CAL FIRE (State)","TCU","PRIEST #2","00005534",1997-09-08 07:00:00,NA,"Arson",NA,"Suppression (Wildfire)",398.3938,NA,NA,NA,"00000762",NA,"1990-1999",2585608.16796875,8179.42200348379,-120.256934922369,37.7851506337698,20.121484375
8921,1997,"CA","CCO Contract County","VNC","ALOSTA","00000000",1997-09-08 07:00:00,NA,"Unknown/Unidentified",NA,"Suppression (Wildfire)",81.2674,NA,NA,NA,"00000000",NA,"1990-1999",482578.40625,4100.40347148397,-119.028211896245,34.2539417807803,21.50087890625
8840,1997,"CA","CCO Contract County","KRN","OSO","00000000",1997-09-09 07:00:00,NA,"Unknown/Unidentified",NA,"Suppression (Wildfire)",995.7709,NA,NA,NA,"00000000",NA,"1990-1999",5996090.0078125,10231.4872742269,-118.812562383381,34.8400031220244,22.110009765625
8977,1997,"CA","CDF CAL FIRE (State)","MVU","PAMOOSA","00007005",1997-09-09 07:00:00,NA,"Playing with Fire",NA,"Suppression (Wildfire)",12.48018,NA,NA,NA,"00000000",NA,"1990-1999",72420.140625,1391.35683076425,-117.111119928857,33.2564066089796,22.44033203125
8881,1997,"CA","CDF CAL FIRE (State)","MVU","YSABEL","00007029",1997-09-10 07:00:00,NA,"Equipment Use",NA,"Suppression (Wildfire)",260.2943,NA,NA,NA,"00000000",NA,"1990-1999",1504216.79296875,5523.71591593536,-116.988948817272,33.0737290560309,21.480126953125
8830,1997,"CA","USF U.S. Forest Service","BDF","MILL","00000000",1997-09-13 07:00:00,1997-09-20 07:00:00,"Miscellaneous","Unknown","Suppression (Wildfire)",1326.308,NA,NA,NA,"00000136",NA,"1990-1999",7864553.90234375,18054.0955011071,-117.13998398756,34.1930828142142,15.89345703125
8824,1997,"CA","BLM Bureau of Land Management","BBD","AMERICAN","00000000",1997-09-19 07:00:00,1997-09-20 07:00:00,"Powerline","Unknown","Suppression (Wildfire)",1630.588,NA,NA,NA,"0000D089",NA,"1990-1999",9901307.98046875,20434.9222471625,-119.89766320572,35.1856080398614,17.586572265625
8950,1997,"CA","USF U.S. Forest Service","ANF","LODI","00000000",1997-09-21 07:00:00,1997-09-21 07:00:00,"Arson","Unknown","Suppression (Wildfire)",36.68085,NA,NA,NA,"00000220",NA,"1990-1999",217318.28125,1855.25562236957,-117.776493177464,34.1565243151621,18.04482421875
8844,1997,"CA","CDF CAL FIRE (State)","BDU","WILDWOOD","00056908",1997-09-22 07:00:00,NA,"Powerline",NA,"Suppression (Wildfire)",819.2449,NA,NA,NA,"00000000",NA,"1990-1999",4839312.93359375,11083.7746111634,-116.984465909791,34.0299394234013,18.93837890625
8825,1997,"CA","CDF CAL FIRE (State)","RRU","POPPET","00050833",1997-09-23 07:00:00,NA,"Arson",NA,"Suppression (Wildfire)",1457.181,NA,NA,NA,"00001482",NA,"1990-1999",8576308.984375,14471.7229146499,-116.875592116125,33.8734032370585,21.743798828125
8842,1997,"CA","CCO Contract County","SBC","RANGE","00000000",1997-09-23 07:00:00,NA,"Escaped Prescribed Burn",NA,"Suppression (Wildfire)",944.644,NA,NA,NA,"00000000",NA,"1990-1999",5654344.3984375,9248.5331688436,-120.285917111835,34.5903511653673,18.3607421875
8882,1997,"CA","NPS National Park Service","KNP","AMPHITHEA","00000000",1997-09-23 07:00:00,1997-09-30 07:00:00,"Escaped Prescribed Burn","Unknown","Suppression (Wildfire)",242.7219,NA,NA,NA,"00000063",NA,"1990-1999",1524735.1484375,9642.49570832855,-118.781062451259,36.5420177331861,13.847314453125
8818,1997,"CA","CDF CAL FIRE (State)","RRU","STATE","00051067",1997-09-24 07:00:00,NA,"Smoking",NA,"Suppression (Wildfire)",3666.854,NA,NA,NA,"00001494",NA,"1990-1999",21610858.3945312,22039.5917704068,-117.071719687388,33.9320000610498,21.6419921875
8821,1997,"CA","USF U.S. Forest Service","SQF","COFFEE","00000000",1997-09-24 07:00:00,1997-09-27 07:00:00,"Miscellaneous","Unknown","Suppression (Wildfire)",2424.635,NA,NA,NA,"00000111",NA,"1990-1999",15084479.90625,23942.9614886006,-118.758386617658,36.1621366261751,15.623193359375
8838,1997,"CA","CDF CAL FIRE (State)","MVU","DEL DIOS","00007434",1997-09-24 07:00:00,NA,"Arson",NA,"Suppression (Wildfire)",1072.887,NA,NA,NA,"00000000",NA,"1990-1999",6201489.40625,11757.9839136735,-117.129013827247,33.0835905980156,20.21474609375
8845,1997,"CA","USF U.S. Forest Service","SQF","DEMOCRAT","00000000",1997-09-24 07:00:00,1997-09-28 07:00:00,"Arson","Unknown","Suppression (Wildfire)",812.2969,NA,NA,NA,"00000112",NA,"1990-1999",4973990.39453125,15140.2719856741,-118.644425651412,35.5270635630902,17.644189453125
8952,1997,"CA","BLM Bureau of Land Management","BBD","INDIAN","00000000",1997-09-24 07:00:00,1997-09-25 07:00:00,"Playing with Fire","Unknown","Suppression (Wildfire)",33.12743,NA,NA,NA,"0000D092",NA,"1990-1999",201731.46484375,2212.37070865515,-118.4397352351,35.3020138102137,16.952294921875
8973,1997,"CA","USF U.S. Forest Service","SRF","ROUND","00000000",1997-09-25 07:00:00,1997-09-25 07:00:00,"Miscellaneous","Unknown","Suppression (Wildfire)",16.04885,NA,NA,NA,"00000042",NA,"1990-1999",111430.875,1258.02308453623,-123.453521872837,40.1927060600795,18.448876953125
8969,1997,"CA","BLM Bureau of Land Management","NOD","BOOT","00000000",1997-09-26 07:00:00,NA,"Escaped Prescribed Burn",NA,"Suppression (Wildfire)",17.09389,NA,NA,NA,"0000D468",NA,"1990-1999",121955.3515625,2435.64514998602,-120.101826260535,41.1061624493751,11.754052734375
8974,1997,"CA","USF U.S. Forest Service","MDF","BOOT","00000000",1997-09-26 07:00:00,1997-09-28 07:00:00,"Miscellaneous","Unknown","Suppression (Wildfire)",16.01331,NA,NA,NA,"00000107",NA,"1990-1999",114250.58203125,2310.43491116694,-120.113461865705,41.1074914007097,11.611474609375
8986,1997,"CA","BLM Bureau of Land Management","NOD","BOOT","00000000",1997-09-26 07:00:00,NA,"Escaped Prescribed Burn",NA,"Suppression (Wildfire)",3.362803,NA,NA,NA,"0000D468",NA,"1990-1999",23993.7421875,724.001915913905,-120.115410555107,41.1089580669023,11.576318359375
8991,1997,"CA","BLM Bureau of Land Management","NOD","BOOT","00000000",1997-09-26 07:00:00,NA,"Escaped Prescribed Burn",NA,"Suppression (Wildfire)",1.056571,NA,NA,NA,"0000D468",NA,"1990-1999",7536.19140625,630.948531084988,-120.103100399667,41.0980262381975,11.782373046875
8812,1997,"CA","CDF CAL FIRE (State)","NEU","WILLIAMS","00011935",1997-09-27 07:00:00,NA,"Miscellaneous",NA,"Suppression (Wildfire)",5837.901,NA,NA,NA,"00000853",NA,"1990-1999",39590066.9921875,33286.8067142017,-121.251501201558,39.3757034965408,15.9466796875
8829,1997,"CA","DOD Department of Defense","AFV","AZALEA","00002278",1997-09-27 07:00:00,1997-09-27 07:00:00,"Playing with Fire","Other Imagery","Suppression (Wildfire)",1351.468,NA,NA,NA,"00002278",NA,"1990-1999",8112692.03515625,15611.7030541292,-120.493338060068,34.7102401094724,18.311669921875
8866,1997,"CA","USF U.S. Forest Service","LPF","HOMESTEAD","00000000",1997-09-28 07:00:00,1997-09-28 07:00:00,"Miscellaneous","Unknown","Suppression (Wildfire)",360.4976,NA,NA,NA,"00000058",NA,"1990-1999",2154087.9453125,7633.67938474885,-120.175929290249,34.5175163887367,NA
8982,1997,"CA","USF U.S. Forest Service","STF","LYONS",NA,1997-10-05 07:00:00,1997-10-06 07:00:00,"Smoking","Unknown","Suppression (Wildfire)",9.674961,"20090305",NA,NA,"00000060",NA,"1990-1999",63363.59765625,1075.72757999774,-120.174790689882,38.1211788122721,10.912255859375
8914,1997,"CA","CCO Contract County","MRN","CENTER","00001494",1997-10-06 07:00:00,NA,"Unknown/Unidentified",NA,"Suppression (Wildfire)",98.94878,NA,NA,NA,"00000027",NA,"1990-1999",647932.98046875,3927.32889827846,-122.625955152891,38.1151855484086,14.24404296875
8976,1997,"CA","USF U.S. Forest Service","ENF","SKY PILOT","00000000",1997-10-09 07:00:00,1997-10-19 07:00:00,"Debris","Unknown","Suppression (Wildfire)",13.30804,NA,NA,NA,"00000076",NA,"1990-1999",88778.56640625,1282.51636925985,-120.540363494,38.7914709966731,7.35390625000002
8811,1997,"CA","CCO Contract County","ORC","BAKER","00052502",1997-10-13 07:00:00,NA,"Unknown/Unidentified",NA,"Suppression (Wildfire)",6319.715,NA,NA,NA,"00000000",NA,"1990-1999",37107165.8515625,44576.3401609425,-117.692894591426,33.7713745388277,13.82802734375
8895,1997,"CA","CDF CAL FIRE (State)","MVU","FOUR ""S""","00007915",1997-10-13 07:00:00,NA,"Unknown/Unidentified",NA,"Suppression (Wildfire)",170.4838,NA,NA,NA,"00000000",NA,"1990-1999",983750.375,4212.22637063197,-117.102073662966,33.0077877523474,12.355615234375
8961,1997,"CA","CDF CAL FIRE (State)","MVU","ROCKWOOD","00007904",1997-10-13 07:00:00,NA,"Unknown/Unidentified",NA,"Suppression (Wildfire)",24.26743,NA,NA,NA,"00000000",NA,"1990-1999",140304.05078125,1831.24179470535,-116.969385415193,33.0942566627034,10.709130859375
8890,1997,"CA","CDF CAL FIRE (State)","MVU","BLACK","00007942",1997-10-14 07:00:00,NA,"Unknown/Unidentified",NA,"Suppression (Wildfire)",197.3837,NA,NA,NA,"00000000",NA,"1990-1999",1141206.42578125,5407.41318574265,-116.838368238002,33.0949344894629,12.33779296875
8953,1997,"CA","CDF CAL FIRE (State)","MEU","HANES #1","00004533",1997-10-15 07:00:00,NA,"Debris",NA,"Suppression (Wildfire)",32.92227,NA,NA,NA,"00000284",NA,"1990-1999",220581.97265625,1814.40240646038,-123.424345525683,38.947110674139,13.795556640625
8990,1997,"CA","CCO Contract County","KRN","GRANDVIEW","00000000",1997-10-20 07:00:00,NA,"Unknown/Unidentified",NA,"Suppression (Wildfire)",1.715109,NA,NA,NA,"00000000",NA,"1990-1999",10564.72265625,518.070545090721,-118.438311647595,35.7661629740969,12.17958984375
8875,1997,"CA","CCO Contract County","VNC","SISAR","00000000",1997-10-22 07:00:00,NA,"Unknown/Unidentified",NA,"Suppression (Wildfire)",306.2729,NA,NA,NA,"00000000",NA,"1990-1999",1827102.1640625,6165.22000621436,-119.143345560609,34.4490116023014,13.05947265625
8978,1997,"CA","USF U.S. Forest Service","ENF","LAWYER 2","00000000",1997-10-24 07:00:00,1997-10-25 07:00:00,"Debris","Unknown","Suppression (Wildfire)",11.10678,NA,NA,NA,"00000078",NA,"1990-1999",74555.28515625,1340.27610108049,-120.374597032457,39.0136651918875,3.01308593750002
8951,1997,"CA","CDF CAL FIRE (State)","MVU","DALEY","00008174",1997-10-25 07:00:00,NA,"Campfire",NA,"Suppression (Wildfire)",36.45194,NA,NA,NA,"00000000",NA,"1990-1999",210593.3515625,1926.03897775688,-116.656912346553,33.0612783087121,9.74208984375002
8949,1997,"CA","USF U.S. Forest Service","SRF","TELESCOPE","00003555",1997-10-26 07:00:00,1997-10-30 08:00:00,"Miscellaneous","Unknown","Suppression (Wildfire)",38.21358,NA,NA,NA,"00000048",NA,"1990-1999",271753.921875,2669.00782171553,-123.702091273412,40.9991913540934,6.66518554687502
8959,1997,"CA","USF U.S. Forest Service","ANF","CHERRY II","00003692",1997-10-29 08:00:00,1997-10-29 08:00:00,"Equipment Use","Unknown","Suppression (Wildfire)",29.62481,NA,NA,NA,"00000245",NA,"1990-1999",177522.54296875,1666.07066188909,-118.739174221835,34.636977912493,8.71254882812502
8836,1997,"CA","DOD Department of Defense","AFV","HALOWEEN","00000000",1997-10-31 08:00:00,1997-10-31 08:00:00,"Smoking","Other Imagery","Suppression (Wildfire)",1128.872,NA,NA,NA,"00000000",NA,"1990-1999",6775797.453125,13466.5704079703,-120.577249730293,34.7060536024401,NA
8867,1997,"CA","CDF CAL FIRE (State)","SLU","MONTANA","00004293",1997-11-01 08:00:00,NA,"Unknown/Unidentified",NA,"Suppression (Wildfire)",350.1406,NA,NA,NA,"00000000",NA,"1990-1999",2130190.49609375,7252.57171291176,-120.88200625272,35.2634588206927,NA
8908,1997,"CA","CCO Contract County","LAC","RHAPSODY","00001699",1997-11-01 08:00:00,NA,"Unknown/Unidentified",NA,"Suppression (Wildfire)",122.1804,NA,NA,NA,"00080000",NA,"1990-1999",724038.71484375,4555.11516077423,-118.783523887726,34.1666510401126,15.891259765625
8938,1997,"CA","CDF CAL FIRE (State)","MVU","HOPE","00008441",1997-11-04 08:00:00,NA,"Unknown/Unidentified",NA,"Suppression (Wildfire)",48.04124,NA,NA,NA,"00000000",NA,"1990-1999",276549.11328125,2819.96260041759,-116.946266233674,32.900567363106,17.504296875
