"OBJECTID","YEAR_","STATE","AGENCY","UNIT_ID","FIRE_NAME","INC_NUM","ALARM_DATE","CONT_DATE","CAUSE","C_METHOD","OBJECTIVE","GIS_ACRES","COMMENTS","COMPLEX_NAME","IRWINID","FIRE_NUM","COMPLEX_ID","DECADES","Shape__Area","Shape__Length","Lon","Lat","TEMPERATURE_2M_ALARM_DATE"
10543,1988,"CA","CDF CAL FIRE (State)","SNU"," ","00000000",NA,NA,"Unknown/Unidentified",NA,NA,11380.36,NA,NA,NA,"00000000",NA,"1980-1989",75886366.2695312,38003.412463924,-122.861742648699,38.7760275302787,NA
10553,1988,"CA","USF U.S. Forest Service","BDF"," ","00000000",NA,NA,"Unknown/Unidentified",NA,"Suppression (Wildfire)",5243.982,NA,NA,NA,"00000000",NA,"1980-1989",31082288.9765625,28100.106907721,-117.474868593928,34.1756341628307,NA
10555,1988,"CA","USF U.S. Forest Service","BDF"," ","00000000",NA,NA,"Unknown/Unidentified",NA,"Suppression (Wildfire)",4357.64,NA,NA,NA,"00000000",NA,"1980-1989",25826545.1210938,26635.6069197347,-117.514899307769,34.1720261942263,NA
10569,1988,"CA","CCO Contract County","ORC","ORTEGA","00000000",NA,NA,"Unknown/Unidentified",NA,"Suppression (Wildfire)",2471.109,NA,NA,NA,"00000000",NA,"1980-1989",14421518.484375,16839.2290818802,-117.603701013792,33.5070900072399,NA
10572,1988,"CA","BLM Bureau of Land Management","NOD"," ","00000000",NA,NA,"Unknown/Unidentified","Unknown","Suppression (Wildfire)",2054.816,NA,NA,NA,"0000D417",NA,"1980-1989",14510555.1132812,19050.8892303297,-120.499424199454,40.7651877404086,NA
10573,1988,"CA","CDF CAL FIRE (State)","RRU"," ","00000000",NA,NA,"Unknown/Unidentified",NA,"Suppression (Wildfire)",1896.849,NA,NA,NA,"00000000",NA,"1980-1989",11177771.15625,16649.4643356967,-117.081806937712,33.9264712876474,NA
10579,1988,"CA","CDF CAL FIRE (State)","RRU","GILMAN","00000000",NA,NA,"Unknown/Unidentified",NA,"Suppression (Wildfire)",1482.813,NA,NA,NA,"00000000",NA,"1980-1989",8722773.140625,23404.6304474596,-116.968501546542,33.851665716398,NA
10586,1988,"CA","CDF CAL FIRE (State)","RRU"," ","00000000",NA,NA,"Unknown/Unidentified",NA,"Suppression (Wildfire)",1043.188,NA,NA,NA,"00000000",NA,"1980-1989",6153353.66796875,10809.0055835064,-117.062644202869,33.9686947349681,NA
10608,1988,"CA","USF U.S. Forest Service","INF"," ","00000000",NA,NA,"Miscellaneous",NA,"Suppression (Wildfire)",614.9384,NA,NA,NA,"00005323",NA,"1980-1989",3903667.8671875,11899.0162535652,-118.298617245895,36.9480335110274,NA
10610,1988,"CA","USF U.S. Forest Service","LPF"," ","00000000",NA,NA,"Miscellaneous",NA,"Suppression (Wildfire)",592.0198,NA,NA,NA,"00000020",NA,"1980-1989",3571338.58203125,8395.81270798177,-119.725191828969,34.9147059935983,NA
10613,1988,"CA","BLM Bureau of Land Management","CCD"," ","00000000",NA,NA,"Unknown/Unidentified","Unknown","Suppression (Wildfire)",577.7464,NA,NA,NA,"0000J797",NA,"1980-1989",3959489.828125,10408.3209488916,-120.119028196785,39.7437443520624,NA
10636,1988,"CA","USF U.S. Forest Service","BDF"," ","00000000",NA,NA,"Unknown/Unidentified",NA,"Suppression (Wildfire)",341.7617,NA,NA,NA,"00000000",NA,"1980-1989",2034387.140625,5860.78536774425,-117.073861713699,34.357230510681,NA
10637,1988,"CA","USF U.S. Forest Service","BDF"," ","00000000",NA,NA,"Unknown/Unidentified",NA,"Suppression (Wildfire)",335.8584,NA,NA,NA,"00000000",NA,"1980-1989",1995397.89453125,6016.33920707042,-117.519299911413,34.2756150879171,NA
10639,1988,"CA","USF U.S. Forest Service","BDF"," ","00000000",NA,NA,"Unknown/Unidentified",NA,"Suppression (Wildfire)",322.3326,NA,NA,NA,"00000000",NA,"1980-1989",1907624.24609375,6397.92165288684,-117.006677943615,34.1105326651738,NA
10641,1988,"CA","USF U.S. Forest Service","BDF"," ","00000000",NA,NA,"Unknown/Unidentified",NA,"Suppression (Wildfire)",317.5254,NA,NA,NA,"00000000",NA,"1980-1989",1878621.37109375,7225.787715265,-117.036819999886,34.0979631257644,NA
10647,1988,"CA","USF U.S. Forest Service","BDF"," ","00000000",NA,NA,"Unknown/Unidentified",NA,"Suppression (Wildfire)",276.95,NA,NA,NA,"00000000",NA,"1980-1989",1645433.625,5162.365107148,-117.529977606254,34.2761791886006,NA
10651,1988,"CA","USF U.S. Forest Service","BDF"," ","00000000",NA,NA,"Unknown/Unidentified",NA,"Suppression (Wildfire)",257.7452,NA,NA,NA,"00000000",NA,"1980-1989",1524587.74609375,5508.17335334429,-117.028693139658,34.0882453964909,NA
10652,1988,"CA","USF U.S. Forest Service","BDF"," ","00000000",NA,NA,"Unknown/Unidentified",NA,"Suppression (Wildfire)",256.4971,NA,NA,NA,"00000000",NA,"1980-1989",1504326.18359375,4896.22233788093,-116.687207680599,33.7214745451653,NA
10661,1988,"CA","USF U.S. Forest Service","MNF"," ","00000000",NA,NA,"Debris",NA,"Suppression (Wildfire)",238.4555,NA,NA,NA,"00000056",NA,"1980-1989",1646823.05078125,5304.42384598338,-123.078074160461,40.0093836355262,NA
10673,1988,"CA","CDF CAL FIRE (State)","RRU"," ","00000000",NA,NA,"Unknown/Unidentified",NA,"Suppression (Wildfire)",184.0202,NA,NA,NA,"00000000",NA,"1980-1989",1085867.17578125,6123.24143934852,-116.910695100416,33.9846699098197,NA
10675,1988,"CA","USF U.S. Forest Service","BDF"," ","00000000",NA,NA,"Unknown/Unidentified",NA,"Suppression (Wildfire)",177.6332,NA,NA,NA,"00000000",NA,"1980-1989",1046342.6171875,4436.58722589671,-116.722803999792,33.9093649153691,NA
10676,1988,"CA","USF U.S. Forest Service","BDF"," ","00000000",NA,NA,"Unknown/Unidentified",NA,"Suppression (Wildfire)",177.2555,NA,NA,NA,"00000000",NA,"1980-1989",1048294.73828125,3804.69931825694,-117.039332308595,34.0805321871716,NA
10681,1988,"CA","USF U.S. Forest Service","BDF"," ","00000000",NA,NA,"Unknown/Unidentified",NA,"Suppression (Wildfire)",161.0854,NA,NA,NA,"00000000",NA,"1980-1989",949782.83984375,3982.00535399649,-116.906817571798,33.9507629710562,NA
10683,1988,"CA","CDF CAL FIRE (State)","RRU","MILLARD","00000000",NA,NA,"Unknown/Unidentified",NA,"Suppression (Wildfire)",153.0401,NA,NA,NA,"00000000",NA,"1980-1989",903293.29296875,4992.27104324766,-116.7805090549,33.9957557666096,NA
10684,1988,"CA","USF U.S. Forest Service","BDF"," ","00000000",NA,NA,"Unknown/Unidentified",NA,"Suppression (Wildfire)",152.3644,NA,NA,NA,"00000000",NA,"1980-1989",890911.9296875,4258.16468651511,-116.463656835122,33.5906339274518,NA
10688,1988,"CA","USF U.S. Forest Service","BDF"," ","00000000",NA,NA,"Unknown/Unidentified",NA,"Suppression (Wildfire)",146.5137,NA,NA,NA,"00000000",NA,"1980-1989",871250.08984375,3948.34767639605,-117.471988043453,34.313781402519,NA
10689,1988,"CA","USF U.S. Forest Service","BDF"," ","00000000",NA,NA,"Unknown/Unidentified",NA,"Suppression (Wildfire)",143.4387,NA,NA,NA,"00000000",NA,"1980-1989",841863.68359375,3729.09148474172,-116.837304705991,33.7529593455183,NA
10697,1988,"CA","BLM Bureau of Land Management","NOD"," ","00000000",NA,NA,"Unknown/Unidentified","Unknown","Suppression (Wildfire)",123.1225,NA,NA,NA,"0000D248",NA,"1980-1989",865676.06640625,3914.85877558332,-120.461312462841,40.6188545066072,NA
10701,1988,"CA","USF U.S. Forest Service","BDF"," ","00000000",NA,NA,"Unknown/Unidentified",NA,"Suppression (Wildfire)",117.6133,NA,NA,NA,"00000000",NA,"1980-1989",700202.8828125,3396.5164656086,-117.608730393187,34.3628031620639,NA
10706,1988,"CA","USF U.S. Forest Service","BDF"," ","00000000",NA,NA,"Unknown/Unidentified",NA,"Suppression (Wildfire)",110.6244,NA,NA,NA,"00000000",NA,"1980-1989",655739.51953125,3633.94214453694,-117.459036568756,34.1784464108008,NA
10717,1988,"CA","USF U.S. Forest Service","MNF"," ","00000000",NA,NA,"Smoking",NA,"Suppression (Wildfire)",79.23766,NA,NA,NA,"00000008",NA,"1980-1989",537218.41015625,3170.85064965819,-122.978127581063,39.366760901027,NA
10722,1988,"CA","CDF CAL FIRE (State)","RRU"," ","00000000",NA,NA,"Unknown/Unidentified",NA,"Suppression (Wildfire)",69.4738,NA,NA,NA,"00000000",NA,"1980-1989",410247.30078125,3095.65051058352,-117.289551321393,34.015614155395,NA
10758,1988,"CA","USF U.S. Forest Service","INF"," ","00000000",NA,NA,"Lightning",NA,"Suppression (Wildfire)",20.07752,NA,NA,NA,"00005322",NA,"1980-1989",127506.9140625,1393.05387489501,-118.316662226943,36.9641627926505,NA
10772,1988,"CA","USF U.S. Forest Service","INF"," ","00000000",NA,NA,"Lightning",NA,"Suppression (Wildfire)",10.38901,NA,NA,NA,"00005206",NA,"1980-1989",67026.48828125,1085.07138565894,-119.099645774054,37.5630594971541,NA
10776,1988,"CA","NPS National Park Service","YNP"," ","00000000",NA,NA,"Lightning",NA,"Suppression (Wildfire)",10.04157,NA,NA,NA,"00000059",NA,"1980-1989",65220.33984375,906.533993816194,-119.746846994022,37.8135679817821,NA
10777,1988,"CA","NPS National Park Service","YNP"," ","00000000",NA,NA,"Lightning",NA,"Suppression (Wildfire)",9.442187,NA,NA,NA,"00000148",NA,"1980-1989",61031.84765625,876.967007894509,-119.639920199412,37.6331676529489,NA
10778,1988,"CA","NPS National Park Service","YNP"," ",NA,NA,NA,"Unknown/Unidentified","Unknown","Resource Benefit (Wildland Fire Use)",8.947634,"000000000YNP-143",NA,NA,NA,NA,"1980-1989",57957.390625,854.572870269621,-119.489860650704,37.7121477327288,NA
10779,1988,"CA","NPS National Park Service","YNP"," ",NA,NA,NA,"Unknown/Unidentified","Unknown","Resource Benefit (Wildland Fire Use)",7.956891,"000000000YNP-020",NA,NA,NA,NA,"1980-1989",51692.5703125,807.06366491188,-119.462294050088,37.8224000484315,NA
10790,1988,"CA","USF U.S. Forest Service","TNF"," ","00000000",NA,NA,"Miscellaneous",NA,"Suppression (Wildfire)",4.485412,NA,NA,NA,"00000011",NA,"1980-1989",30590.6484375,832.459473099875,-120.754757782476,39.5741326591781,NA
10632,1988,"CA","CDF CAL FIRE (State)","HUU","QUEENS PEAK","00001648",1988-01-26 08:00:00,NA,"Unknown/Unidentified",NA,"Suppression (Wildfire)",364.2781,NA,NA,NA,"00000000",NA,"1980-1989",2520404.53515625,8692.6670705965,-124.045729706759,40.0724851202979,8.66982421875002
10753,1988,"CA","USF U.S. Forest Service","SNF","MAGNESS","00000000",1988-02-16 08:00:00,1988-02-17 08:00:00,"Debris","Unknown","Suppression (Wildfire)",27.74999,NA,NA,NA,"00000001",NA,"1980-1989",178446.3125,1665.80135133767,-119.55259888393,37.4392956465649,-0.0127929687499773
10708,1988,"CA","USF U.S. Forest Service","TNF","POURIER","00000000",1988-03-17 08:00:00,1988-03-29 08:00:00,"Escaped Prescribed Burn",NA,"Suppression (Wildfire)",107.6713,NA,NA,NA,"00000004",NA,"1980-1989",732493.23046875,3429.64343677892,-121.030530403623,39.4868077173259,2.48403320312502
10756,1988,"CA","USF U.S. Forest Service","TNF","OAK","00000000",1988-03-17 08:00:00,1988-03-29 08:00:00,"Escaped Prescribed Burn",NA,"Suppression (Wildfire)",25.4977,NA,NA,NA,"00000005",NA,"1980-1989",173507.53125,1618.25911093562,-121.013444533094,39.4959974496485,2.15737304687502
10624,1988,"CA","CDF CAL FIRE (State)","RRU","SPRINGS #361","00009431",1988-03-18 08:00:00,NA,"Playing with Fire",NA,"Suppression (Wildfire)",412.0168,NA,NA,NA,"00000361",NA,"1980-1989",2431708.96484375,7106.17925731615,-117.296040081529,33.9931133341148,7.17250976562502
10658,1988,"CA","CDF CAL FIRE (State)","RRU","SUGARLOAF","00010297",1988-03-25 08:00:00,NA,"Smoking",NA,"Suppression (Wildfire)",248.3753,NA,NA,NA,"00000413",NA,"1980-1989",1465911.55078125,5150.25165168968,-117.321732690058,33.9933708965441,13.00185546875
10667,1988,"CA","CDF CAL FIRE (State)","NEU","USFS ASSIST 3","00001142",1988-03-27 08:00:00,NA,"Miscellaneous",NA,"Suppression (Wildfire)",212.0675,NA,NA,NA,"00000191",NA,"1980-1989",1442200.66796875,5031.07408846095,-120.989700795452,39.4745404578232,10.02919921875
10719,1988,"CA","USF U.S. Forest Service","PNF"," ","00000000",1988-03-27 08:00:00,1988-03-30 08:00:00,"Debris","Unknown","Suppression (Wildfire)",71.44357,NA,NA,NA,"00000005",NA,"1980-1989",490014.9921875,2939.81151940825,-121.290761587489,39.7712595346346,8.87294921875002
10686,1988,"CA","USF U.S. Forest Service","CNF","HODGES #2","00000000",1988-03-29 08:00:00,NA,"Miscellaneous",NA,"Suppression (Wildfire)",149.6339,NA,NA,NA,"00000001",NA,"1980-1989",864501.12890625,4643.85313090453,-117.087444458922,33.0624646170926,13.428125
10657,1988,"CA","CDF CAL FIRE (State)","MVU","GAVILAN","00000730",1988-03-31 08:00:00,NA,"Campfire",NA,"Suppression (Wildfire)",249.1475,NA,NA,NA,"00000132",NA,"1980-1989",1451318.390625,5173.31800399578,-117.209158673151,33.4251975749433,11.177880859375
10648,1988,"CA","CDF CAL FIRE (State)","RRU","LAKE","00011388",1988-04-02 08:00:00,NA,"Playing with Fire",NA,"Suppression (Wildfire)",260.0726,NA,NA,NA,"00000485",NA,"1980-1989",1530594.4375,5235.42951818287,-117.189608203796,33.8712686414414,10.05263671875
10589,1988,"CA","BLM Bureau of Land Management","BBD","KETTLEMAN","00000000",1988-04-08 07:00:00,1988-04-08 07:00:00,"Escaped Prescribed Burn","Unknown","Suppression (Wildfire)",979.0428,NA,NA,NA,"0000D170",NA,"1980-1989",6078282.98828125,10891.8732981101,-120.130436761025,36.0796416513472,16.707421875
10653,1988,"CA","CDF CAL FIRE (State)","RRU"," ","00012200",1988-04-08 07:00:00,NA,"Arson",NA,"Suppression (Wildfire)",255.8816,NA,NA,NA,"00000543",NA,"1980-1989",1507289.12890625,4712.06917411915,-116.76166232133,33.9101257733047,15.277001953125
10789,1988,"CA","USF U.S. Forest Service","STF","KNIGHT",NA,1988-04-09 07:00:00,1988-04-11 07:00:00,"Campfire","Hand-drawn","Suppression (Wildfire)",4.623025,"20090305",NA,NA,"00000006",NA,"1980-1989",30284.59375,641.588048366043,-120.293004410743,38.1300990385214,8.69350585937502
10631,1988,"CA","CCO Contract County","VNC","SYCAMORE","00000000",1988-04-10 07:00:00,NA,"Unknown/Unidentified",NA,"Suppression (Wildfire)",368.0042,NA,NA,NA,"00000000",NA,"1980-1989",2179222.1640625,7480.57383190195,-118.971522057162,34.1360941167729,18.3470703125
10680,1988,"CA","CDF CAL FIRE (State)","MVU","COYOTE","00001015",1988-05-02 07:00:00,NA,"Campfire",NA,"Suppression (Wildfire)",164.3949,NA,NA,NA,"00000215",NA,"1980-1989",956502.40625,6342.01880685942,-116.442497638794,33.3738488599725,11.690576171875
10782,1988,"CA","DOD Department of Defense","AFV","MAB_1","00000000",1988-05-03 07:00:00,1988-05-03 07:00:00,"Unknown/Unidentified","Other Imagery","Suppression (Wildfire)",7.194487,NA,NA,NA,"00000000",NA,"1980-1989",43286.18359375,942.198705071071,-120.578102610744,34.8052476277957,13.26650390625
10694,1988,"CA","CDF CAL FIRE (State)","RRU"," ","00016128",1988-05-10 07:00:00,NA,"Arson",NA,"Suppression (Wildfire)",129.5169,NA,NA,NA,"00000752",NA,"1980-1989",762615.3515625,3632.41725789632,-116.733802921115,33.8924638730899,16.14296875
10773,1988,"CA","USF U.S. Forest Service","KNF","PANTHER","00000000",1988-05-10 07:00:00,1988-05-14 07:00:00,"Campfire","Unknown","Suppression (Wildfire)",10.26584,NA,NA,NA,"00000009",NA,"1980-1989",75156.47265625,1211.04552585325,-122.175592076136,41.94763039755,5.02749023437502
10785,1988,"CA","USF U.S. Forest Service","PNF"," ","00000000",1988-05-10 07:00:00,1988-05-16 07:00:00,"Debris","Unknown","Suppression (Wildfire)",6.247367,NA,NA,NA,"00000018",NA,"1980-1989",43419.43359375,796.071620941949,-120.507958870665,40.2261734140274,5.71425781250002
10645,1988,"CA","USF U.S. Forest Service","SQF"," ","00000000",1988-05-15 07:00:00,1988-05-16 07:00:00,"Equipment Use","Unknown","Suppression (Wildfire)",293.7556,NA,NA,NA,"00000017",NA,"1980-1989",1794359.57421875,6020.56115274317,-118.737518786015,35.4274458000659,13.94423828125
10605,1988,"CA","CDF CAL FIRE (State)","RRU","SPRINGS","00017322",1988-05-19 07:00:00,NA,"Miscellaneous",NA,"Suppression (Wildfire)",649.0332,NA,NA,NA,"00000837",NA,"1980-1989",3828789.3359375,9609.10259664375,-117.279852377189,33.9731494292726,16.635400390625
10714,1988,"CA","CDF CAL FIRE (State)","SLU","SLU 1059","00001059",1988-05-19 07:00:00,NA,"Unknown/Unidentified",NA,"Suppression (Wildfire)",84.9022,NA,NA,NA,"00000000",NA,"1980-1989",512581.3984375,2831.09862643473,-119.608081646838,34.9479509153637,13.681787109375
10625,1988,"CA","CDF CAL FIRE (State)","SCU","RAMERO","00000856",1988-05-21 07:00:00,NA,"Unknown/Unidentified",NA,"Suppression (Wildfire)",401.5613,NA,NA,NA,"00000069",NA,"1980-1989",2561860.734375,6806.20462088633,-121.085978596437,37.1387024351676,20.777734375
10725,1988,"CA","CCO Contract County","MRN","RUBICON 1","00000623",1988-05-21 07:00:00,NA,"Unknown/Unidentified",NA,"Suppression (Wildfire)",57.52937,NA,NA,NA,"00000002",NA,"1980-1989",375988.84375,3201.17236515056,-122.583796129008,38.0443590294115,15.124658203125
10635,1988,"CA","CDF CAL FIRE (State)","BDU","RIVER","000OV113",1988-05-23 07:00:00,NA,"Unknown/Unidentified",NA,"Suppression (Wildfire)",351.8093,NA,NA,NA,"00000041",NA,"1980-1989",2246349.37109375,7918.5495922008,-118.255679323809,37.1708145334822,13.939599609375
10669,1988,"CA","NPS National Park Service","KNP","TOMBSTONE","00000000",1988-05-23 07:00:00,1988-07-25 07:00:00,"Lightning","Unknown","Resource Benefit (Wildland Fire Use)",207.0884,NA,NA,NA,"00000002",NA,"1980-1989",1312998.75,6302.91466943258,-118.797303445459,36.9008761553614,8.25454101562502
10741,1988,"CA","USF U.S. Forest Service","CNF","OTAY #3 (#4)","00000000",1988-05-30 07:00:00,NA,"Miscellaneous",NA,"Suppression (Wildfire)",35.43729,NA,NA,NA,"00000004",NA,"1980-1989",202430.0078125,2000.0961218794,-116.91772512241,32.5541014242465,13.39736328125
10592,1988,"CA","CDF CAL FIRE (State)","RRU","CORONA STATE #983","00019372",1988-06-02 07:00:00,NA,"Equipment Use",NA,"Suppression (Wildfire)",912.6426,NA,NA,NA,"00000983",NA,"1980-1989",5356853.6953125,12756.4539235285,-117.425291642916,33.7563243863665,19.430322265625
10602,1988,"CA","CDF CAL FIRE (State)","RRU","LOCAL","00019657",1988-06-04 07:00:00,NA,"Unknown/Unidentified",NA,"Suppression (Wildfire)",688.6042,NA,NA,NA,"00012135",NA,"1980-1989",4061802.71875,8348.123164844,-116.577217578106,33.9685106371223,19.69521484375
10716,1988,"CA","CCO Contract County","LAC"," ","00000000",1988-06-10 07:00:00,NA,"Unknown/Unidentified",NA,"Suppression (Wildfire)",83.16398,NA,NA,NA,"00000000",NA,"1980-1989",499869.69140625,3769.72520860716,-118.784147584692,34.7642208280421,12.8705078125
10751,1988,"CA","CCO Contract County","LAC"," ","00000000",1988-06-10 07:00:00,NA,"Unknown/Unidentified",NA,"Suppression (Wildfire)",28.38499,NA,NA,NA,"00000000",NA,"1980-1989",168160.9765625,2321.63675435287,-117.942476913549,34.1545194038479,14.302392578125
10598,1988,"CA","CCO Contract County","LAC"," ","00000000",1988-06-12 07:00:00,NA,"Unknown/Unidentified",NA,"Suppression (Wildfire)",729.8926,NA,NA,NA,"00000000",NA,"1980-1989",4383082.2890625,15724.573252125,-118.791946462576,34.7257442425012,14.071435546875
10650,1988,"CA","CDF CAL FIRE (State)","RRU","STATE","00020859",1988-06-14 07:00:00,NA,"Miscellaneous",NA,"Suppression (Wildfire)",258.3694,NA,NA,NA,"00001095",NA,"1980-1989",1513810.5,4876.92192578075,-116.799758008539,33.6786378241723,18.355859375
10559,1988,"CA","BLM Bureau of Land Management","BBD","TWISSLMAN","00000000",1988-06-19 07:00:00,1988-06-20 07:00:00,"Lightning","Unknown","Suppression (Wildfire)",3806.063,NA,NA,NA,"0000D201",NA,"1980-1989",23279240.7851562,21321.837899927,-119.892099214312,35.480671849051,25.582177734375
10742,1988,"CA","BLM Bureau of Land Management","NOD"," ","00000000",1988-06-19 07:00:00,NA,"Lightning",NA,"Suppression (Wildfire)",35.13131,NA,NA,NA,"0000D269",NA,"1980-1989",255009.69140625,1924.30753467965,-120.030655431274,41.6720529107875,19.35927734375
10561,1988,"CA","NPS National Park Service","YNP","EAST LECONTE","00000011",1988-06-20 07:00:00,1988-11-19 08:00:00,"Lightning","Other Imagery","Resource Benefit (Wildland Fire Use)",3752.67,NA,NA,NA,"00000011",NA,"1980-1989",24463811.9101562,25081.5654270527,-119.651152358148,37.9505564071593,10.54091796875
10562,1988,"CA","BLM Bureau of Land Management","BBD","LIGHTNING9","00000000",1988-06-20 07:00:00,1988-06-22 07:00:00,"Lightning","Unknown","Suppression (Wildfire)",3649.375,NA,NA,NA,"0000D191",NA,"1980-1989",23011672.6367188,27712.3877211775,-120.743450991003,36.6892471622925,21.91689453125
10567,1988,"CA","NPS National Park Service","YNP","WALKER","00000166",1988-06-20 07:00:00,1988-11-10 08:00:00,"Lightning","Other Imagery","Suppression (Wildfire)",2650.475,NA,NA,NA,"00000166",NA,"1980-1989",17196887.3671875,26705.7269753034,-119.732475314528,37.7745063036748,13.20400390625
10617,1988,"CA","NPS National Park Service","YNP","WALKER","00000014",1988-06-20 07:00:00,1988-11-10 08:00:00,"Lightning","Unknown","Resource Benefit (Wildland Fire Use)",497.589,NA,NA,NA,"00000014",NA,"1980-1989",3228258.5625,8521.73372526571,-119.748884480358,37.7720455085837,13.546533203125
10783,1988,"CA","NPS National Park Service","KNP","SUGARBABY","00000000",1988-06-20 07:00:00,1988-08-14 07:00:00,"Lightning","Unknown","Resource Benefit (Wildland Fire Use)",6.896135,NA,NA,NA,"00000018",NA,"1980-1989",43510.4921875,1124.39427172564,-118.641270197878,36.7123253480108,11.69619140625
10577,1988,"CA","BLM Bureau of Land Management","BBD","SANTIAGO","00000000",1988-06-21 07:00:00,1988-06-24 07:00:00,"Lightning","Unknown","Suppression (Wildfire)",1770.672,NA,NA,NA,"0000D200",NA,"1980-1989",10682430.3359375,12662.9600318649,-119.299337232713,34.9182098323087,16.156396484375
10581,1988,"CA","NPS National Park Service","YNP","ECHO","00000015",1988-06-21 07:00:00,1988-11-10 08:00:00,"Lightning","Other Imagery","Resource Benefit (Wildland Fire Use)",1424.198,NA,NA,NA,"00000015",NA,"1980-1989",9236004.44140625,15448.773291377,-119.432413954713,37.7562537798262,7.96523437500002
10582,1988,"CA","CDF CAL FIRE (State)","TUU","LINDSAY","00004066",1988-06-22 07:00:00,NA,"Unknown/Unidentified",NA,"Suppression (Wildfire)",1334.562,NA,NA,NA,"00000096",NA,"1980-1989",8313143.31640625,15778.363030943,-118.998130920941,36.2115065198734,23.29873046875
10614,1988,"CA","CDF CAL FIRE (State)","RRU","STATE #1161","00022024",1988-06-23 07:00:00,NA,"Arson",NA,"Suppression (Wildfire)",548.4343,NA,NA,NA,"00001161",NA,"1980-1989",3232327.2265625,9252.24729386162,-117.097289481165,33.9331752405365,18.469873046875
10628,1988,"CA","USF U.S. Forest Service","SQF"," ","00000000",1988-06-23 07:00:00,1988-06-25 07:00:00,"Lightning","Unknown","Suppression (Wildfire)",381.3596,NA,NA,NA,"00000050",NA,"1980-1989",2346014.3359375,6129.83743417539,-118.200900283876,35.7133907833882,19.082666015625
10596,1988,"CA","CDF CAL FIRE (State)","BDU","STATE PARK","00035216",1988-06-24 07:00:00,NA,"Miscellaneous",NA,"Suppression (Wildfire)",820.4838,NA,NA,NA,"00000681",NA,"1980-1989",4837260.69140625,12423.2373553006,-117.692745785048,33.9468795713563,15.99794921875
10664,1988,"CA","CCO Contract County","LAC","THE AVE ""L""","00938462",1988-06-24 07:00:00,NA,"Unknown/Unidentified",NA,"Suppression (Wildfire)",222.0037,NA,NA,NA,"00000088",NA,"1980-1989",1330876.83203125,7162.45577150481,-118.253049770485,34.6544238306963,18.3939453125
10672,1988,"CA","CDF CAL FIRE (State)","SLU","SLU 1461","00001461",1988-06-24 07:00:00,NA,"Unknown/Unidentified",NA,"Suppression (Wildfire)",186.5318,NA,NA,NA,"00000000",NA,"1980-1989",1139125.140625,5632.28668157701,-120.233199470298,35.4176263225483,17.94423828125
10713,1988,"CA","USF U.S. Forest Service","CNF","ASSIST #59(POMERADO)","00000000",1988-06-24 07:00:00,NA,"Miscellaneous",NA,"Suppression (Wildfire)",86.87315,NA,NA,NA,"00000005",NA,"1980-1989",501735.02734375,3256.28019964574,-117.068857266127,33.0474543425031,15.771875
10762,1988,"CA","USF U.S. Forest Service","PNF"," ","00000000",1988-06-24 07:00:00,1988-06-29 07:00:00,"Lightning","Unknown","Suppression (Wildfire)",18.6369,NA,NA,NA,"00000161",NA,"1980-1989",128251.4609375,1502.66950532056,-120.239945861086,39.8862574880287,18.542138671875
10656,1988,"CA","USF U.S. Forest Service","SNF","LAKE","00000000",1988-06-25 07:00:00,1988-09-30 07:00:00,"Lightning","Unknown","Suppression (Wildfire)",250.3342,NA,NA,NA,"00000037",NA,"1980-1989",1603120.4140625,4846.53186837029,-119.236569595451,37.2825498309124,15.899072265625
10587,1988,"CA","CDF CAL FIRE (State)","TCU","LIGHTNING #84 (STENT)","00002273",1988-06-26 07:00:00,NA,"Unknown/Unidentified",NA,"Suppression (Wildfire)",1006.318,NA,NA,NA,"00000441",NA,"1980-1989",6551810.99609375,11373.155624993,-120.428899923999,37.9029899763872,20.11220703125
10792,1988,"CA","DOD Department of Defense","AFV","MAB_2","00000000",1988-06-26 07:00:00,1988-06-26 07:00:00,"Powerline","Other Imagery","Suppression (Wildfire)",1.330759,NA,NA,NA,"00000000",NA,"1980-1989",8006.88671875,397.462477344057,-120.584039065639,34.8067037998151,14.129296875
10618,1988,"CA","USF U.S. Forest Service","TOI"," ","00000000",1988-06-27 07:00:00,NA,"Equipment Use",NA,"Suppression (Wildfire)",494.9721,NA,NA,NA,"00000134",NA,"1980-1989",3303433.1015625,8035.87793224391,-119.788960834705,38.8072353731642,11.026025390625
10583,1988,"CA","CDF CAL FIRE (State)","TCU","PARDEE","00002324",1988-06-28 07:00:00,NA,"Miscellaneous",NA,"Suppression (Wildfire)",1208.841,NA,NA,NA,"00000460",NA,"1980-1989",7946778.68359375,18005.8214860519,-120.808054476973,38.2591481719435,18.961083984375
10595,1988,"CA","CDF CAL FIRE (State)","RRU","PEACH","00022700",1988-06-28 07:00:00,NA,"Miscellaneous",NA,"Suppression (Wildfire)",830.0247,NA,NA,NA,"00001203",NA,"1980-1989",4887119.296875,10756.9454088382,-116.779545118713,33.8907520494268,21.809228515625
10660,1988,"CA","CCO Contract County","LAC","THE ADOBE","00891443",1988-06-28 07:00:00,NA,"Unknown/Unidentified",NA,"Suppression (Wildfire)",241.3018,NA,NA,NA,"00000788",NA,"1980-1989",1429041.03125,5562.14359772897,-118.788376149405,34.1395607398171,20.027490234375
10663,1988,"CA","CDF CAL FIRE (State)","LNU","HESSEL","00000000",1988-06-28 07:00:00,1988-07-01 07:00:00,"Arson","GPS Ground","Suppression (Wildfire)",227.2938,NA,NA,NA,NA,NA,"1980-1989",1497489.66796875,11398.1696503525,-122.784612306156,38.339509039761,15.4583984375
10691,1988,"CA","CDF CAL FIRE (State)","SLU"," ","00001537",1988-06-30 07:00:00,NA,"Unknown/Unidentified",NA,"Suppression (Wildfire)",139.7041,NA,NA,NA,"00000000",NA,"1980-1989",859727.10546875,4964.96912391958,-120.561224791649,35.7277975772142,20.078271484375
10692,1988,"CA","CCO Contract County","LAC","THE PARADISE","00831493",1988-06-30 07:00:00,NA,"Unknown/Unidentified",NA,"Suppression (Wildfire)",138.5013,NA,NA,NA,"00000588",NA,"1980-1989",828543.62890625,5698.85509775086,-118.681225439437,34.5659104332561,19.30849609375
10707,1988,"CA","CCO Contract County","LAC","THE WESTLAKE","00881444",1988-06-30 07:00:00,NA,"Unknown/Unidentified",NA,"Suppression (Wildfire)",109.7727,NA,NA,NA,"00000588",NA,"1980-1989",650037.83984375,3526.99391781261,-118.847400367161,34.135635332207,18.56630859375
10738,1988,"CA","USF U.S. Forest Service","CNF","DEL DIOS #2","00000000",1988-06-30 07:00:00,NA,"Miscellaneous",NA,"Suppression (Wildfire)",36.68644,NA,NA,NA,"00000006",NA,"1980-1989",211875.734375,2815.41378373551,-117.154144135586,33.0460999150663,18.1546875
10568,1988,"CA","USF U.S. Forest Service","STF","CLEARHOUSE",NA,1988-07-02 07:00:00,1988-07-08 07:00:00,"Miscellaneous","Hand-drawn","Suppression (Wildfire)",2499.556,"20090305",NA,NA,"00000046",NA,"1980-1989",16175279.5117188,23130.8879359871,-119.880422424294,37.676707493934,17.254052734375
10705,1988,"CA","CCO Contract County","MRN","IDLEBERRY","00000877",1988-07-03 07:00:00,NA,"Unknown/Unidentified",NA,"Suppression (Wildfire)",110.894,NA,NA,NA,"00000023",NA,"1980-1989",724550.57421875,4053.73356969461,-122.555436141028,38.033760199079,17.104150390625
10604,1988,"CA","USF U.S. Forest Service","SQF"," ","00000000",1988-07-04 07:00:00,1988-07-05 07:00:00,"Smoking","Unknown","Suppression (Wildfire)",665.8233,NA,NA,NA,"00000061",NA,"1980-1989",4071174.97265625,10431.666500898,-118.705724942434,35.4683387966053,20.8626953125
10754,1988,"CA","USF U.S. Forest Service","STF","BOARDS","00000000",1988-07-04 07:00:00,1988-07-05 07:00:00,"Campfire","Unknown","Suppression (Wildfire)",26.7305,NA,NA,NA,"00000122",NA,"1980-1989",175816.71875,1914.93603662467,-120.261992942012,38.2786286015906,16.4291015625
10793,1988,"CA","NPS National Park Service","CNP","FRY'S HARBOR","00000000",1988-07-04 07:00:00,1988-07-04 07:00:00,"Miscellaneous","Photo Interpretation",NA,0.9715481,"Fire documented in TNC fire history for Santa Cruz Island. Should add to SACS",NA,NA,"00000002",NA,"1980-1989",5742.08203125,283.454596108417,-119.749758159508,34.0530668585946,14.86318359375
10721,1988,"CA","CCO Contract County","LAC","EMERALD","00000000",1988-07-05 07:00:00,NA,"Unknown/Unidentified",NA,"Suppression (Wildfire)",69.93089,NA,NA,NA,"00000000",NA,"1980-1989",414033.8203125,4220.75637677484,-117.759320225425,34.1280376713289,17.50234375
10728,1988,"CA","CCO Contract County","LAC"," ","00000000",1988-07-05 07:00:00,NA,"Unknown/Unidentified",NA,"Suppression (Wildfire)",55.41005,NA,NA,NA,"00000000",NA,"1980-1989",328308.203125,2521.38588693282,-118.771710273365,34.1600849570298,18.432763671875
10715,1988,"CA","USF U.S. Forest Service","CNF","OUTSIDE ORIGIN #8","00000000",1988-07-06 07:00:00,NA,"Miscellaneous",NA,"Suppression (Wildfire)",83.90405,NA,NA,NA,"00000007",NA,"1980-1989",488648.97265625,2874.36712656634,-117.296802940789,33.4159045352081,19.495263671875
10599,1988,"CA","USF U.S. Forest Service","SQF"," ","00000000",1988-07-08 07:00:00,1988-07-09 07:00:00,"Miscellaneous","Unknown","Suppression (Wildfire)",727.5397,NA,NA,NA,"00000066",NA,"1980-1989",4451052.828125,11471.1120925288,-118.715070539527,35.4912401642325,23.018212890625
10703,1988,"CA","USF U.S. Forest Service","CNF","CLEVENGER","00000000",1988-07-08 07:00:00,1988-07-09 07:00:00,"Miscellaneous","Unknown","Suppression (Wildfire)",113.6197,NA,NA,NA,"00000043",NA,"1980-1989",656721.38671875,3689.73211995757,-116.924191703354,33.0821071039031,18.62734375
10644,1988,"CA","CDF CAL FIRE (State)","RRU","CHIMNEY","00024419",1988-07-10 07:00:00,NA,"Unknown/Unidentified",NA,"Suppression (Wildfire)",297.4152,NA,NA,NA,"00001338",NA,"1980-1989",1744330.46875,6746.90480403538,-116.780274539385,33.7220889964228,22.201806640625
10731,1988,"CA","USF U.S. Forest Service","CNF","RINCON #2","00000000",1988-07-10 07:00:00,NA,"Miscellaneous",NA,"Suppression (Wildfire)",49.59417,NA,NA,NA,"00000009",NA,"1980-1989",287753.07421875,2311.50531393845,-116.947086307733,33.2514150942084,18.9544921875
10774,1988,"CA","NPS National Park Service","CNP","NORTHOAKS","00000000",1988-07-10 07:00:00,1988-07-10 07:00:00,"Lightning","Hand-drawn",NA,10.25301,"Location, perimeter corrected from original CHIS map. SACS loc off by 6.5km",NA,NA,"00000001",NA,"1980-1989",60514.31640625,872.071447503836,-120.074996913029,33.994094584929,14.873193359375
10627,1988,"CA","CDF CAL FIRE (State)","SCU","ALTAMONT #1 - 6","00001575",1988-07-11 07:00:00,NA,"Equipment Use",NA,"Suppression (Wildfire)",383.5675,NA,NA,NA,"00000227",NA,"1980-1989",2486238.75390625,10405.7358386375,-121.608411051195,37.7379875070134,19.5423828125
10643,1988,"CA","CDF CAL FIRE (State)","RRU","STATE","00024587",1988-07-11 07:00:00,NA,"Miscellaneous",NA,"Suppression (Wildfire)",301.8513,NA,NA,NA,"00001351",NA,"1980-1989",1781189.5,5105.44516211328,-116.573523099284,33.9852473926569,23.630517578125
10730,1988,"CA","CCO Contract County","LAC","SAN ANTONIO","00000000",1988-07-11 07:00:00,NA,"Unknown/Unidentified",NA,"Suppression (Wildfire)",51.27717,NA,NA,NA,"00000000",NA,"1980-1989",303889.2421875,2539.51365056253,-117.680638680814,34.1697013792072,20.218896484375
10735,1988,"CA","USF U.S. Forest Service","CNF","OTAY #10","00000000",1988-07-14 07:00:00,NA,"Miscellaneous",NA,"Suppression (Wildfire)",39.82626,NA,NA,NA,"00000010",NA,"1980-1989",227512.484375,1862.46370373958,-116.914474212973,32.5563216477094,17.40126953125
10626,1988,"CA","CDF CAL FIRE (State)","SCU","ALMADEN","00001647",1988-07-16 07:00:00,NA,"Equipment Use",NA,"Suppression (Wildfire)",392.5573,NA,NA,NA,"00000247",NA,"1980-1989",2505603.6796875,7101.04359552765,-121.821247859886,37.1567235388754,14.953515625
10547,1988,"CA","CDF CAL FIRE (State)","SLU","CDF 807","00001759",1988-07-17 07:00:00,NA,"Unknown/Unidentified",NA,"Suppression (Wildfire)",6349.193,NA,NA,NA,"00000264",NA,"1980-1989",38564957.28125,39121.7411380409,-120.403427503106,35.1973350258121,24.46474609375
10551,1988,"CA","USF U.S. Forest Service","LPF","CAMP",NA,1988-07-17 07:00:00,1988-07-22 07:00:00,"Arson","Unknown",NA,5814.841,NA,NA,NA,"00000036",NA,"1980-1989",35388584.5898438,38466.6686946235,-120.39821405886,35.2775126695252,25.021630859375
10695,1988,"CA","BLM Bureau of Land Management","BBD","LOCKWOOD","00000000",1988-07-17 07:00:00,1988-07-18 07:00:00,"Equipment Use","Unknown","Suppression (Wildfire)",127.6624,NA,NA,NA,"0000D211",NA,"1980-1989",790969.27734375,4826.89852109715,-121.07420500143,35.9989154907842,24.5072265625
10638,1988,"CA","CDF CAL FIRE (State)","AEU","AMADOR","00002364",1988-07-18 07:00:00,NA,"Arson",NA,"Suppression (Wildfire)",329.0369,NA,NA,NA,"00000253",NA,"1980-1989",2170846.015625,7741.52168738324,-120.688717676037,38.390698945657,23.52626953125
10649,1988,"CA","CDF CAL FIRE (State)","TCU","HIGHWAY","00002713",1988-07-18 07:00:00,NA,"Arson",NA,"Suppression (Wildfire)",260.0249,NA,NA,NA,"00000543",NA,"1980-1989",1706822.140625,6879.93851670169,-120.698664957761,38.2043945930135,24.694970703125
10711,1988,"CA","NPS National Park Service","KNP","FUNSTON","00000000",1988-07-18 07:00:00,1988-08-14 07:00:00,"Lightning","Unknown","Resource Benefit (Wildland Fire Use)",101.6764,NA,NA,NA,"00000037",NA,"1980-1989",637260.96875,3955.88581453853,-118.400061621286,36.453133649809,16.109765625
10546,1988,"CA","CDF CAL FIRE (State)","TCU","BRIDGE",NA,1988-07-21 07:00:00,NA,"Arson","Unknown","Suppression (Wildfire)",6690.322,"20090305, BLM submission removed (alarm date 7/19/88, cont date 7/26/88) ",NA,NA,"00000546",NA,"1980-1989",44077659.0195312,36167.133251906,-120.469275081416,38.3391152901087,21.5619140625
10556,1988,"CA","CDF CAL FIRE (State)","TCU","MASON","00002733",1988-07-21 07:00:00,NA,"Arson",NA,"Suppression (Wildfire)",4049.6,NA,NA,NA,"00000548",NA,"1980-1989",26635585.453125,27710.1150656426,-120.467204312913,38.2783753361512,21.859521484375
10588,1988,"CA","NPS National Park Service","KNP","SIMPSON","00000000",1988-07-21 07:00:00,1988-08-31 07:00:00,"Lightning","Unknown","Resource Benefit (Wildland Fire Use)",980.5899,NA,NA,NA,"00000059",NA,"1980-1989",6230845.23828125,17532.1769711642,-118.638479083764,36.9850111225804,15.544091796875
10590,1988,"CA","USF U.S. Forest Service","SQF"," ","00000000",1988-07-21 07:00:00,1988-07-22 07:00:00,"Lightning","Unknown","Suppression (Wildfire)",977.0555,NA,NA,NA,"00000074",NA,"1980-1989",5975084.765625,10753.3429993871,-118.762631128695,35.4743190853221,31.058984375
10752,1988,"CA","USF U.S. Forest Service","PNF"," ","00000000",1988-07-21 07:00:00,1988-07-23 07:00:00,"Lightning","Unknown","Suppression (Wildfire)",27.75292,NA,NA,NA,"00000182",NA,"1980-1989",191492.59765625,1990.59076025291,-120.480034390952,39.9779668441693,23.008935546875
10755,1988,"CA","NPS National Park Service","KNP","HOCKETT","00000000",1988-07-21 07:00:00,1988-09-02 07:00:00,"Lightning","Unknown","Resource Benefit (Wildland Fire Use)",25.80394,NA,NA,NA,"00000043",NA,"1980-1989",161429.8828125,2163.46713789572,-118.692483154048,36.3810463109558,18.4837890625
10607,1988,"CA","CDF CAL FIRE (State)","BDU"," ","00042816",1988-07-22 07:00:00,NA,"Playing with Fire",NA,"Suppression (Wildfire)",630.2985,NA,NA,NA,"00000845",NA,"1980-1989",3726923.33984375,9428.32033583708,-116.99979114108,34.0727220080746,24.482568359375
10623,1988,"CA","CDF CAL FIRE (State)","SCU","UVAS","00001739",1988-07-22 07:00:00,NA,"Equipment Use",NA,"Suppression (Wildfire)",412.6043,NA,NA,NA,"00000263",NA,"1980-1989",2630225.34765625,7479.52452947802,-121.716533727883,37.1083847175838,16.958642578125
10791,1988,"CA","NPS National Park Service","KNP","CASTLE","00000000",1988-07-22 07:00:00,1988-07-25 07:00:00,"Lightning","Unknown","Suppression (Wildfire)",4.226367,NA,NA,NA,"00000055",NA,"1980-1989",26529.3359375,897.762981996627,-118.732901832543,36.5127002216084,17.7865234375
10646,1988,"CA","USF U.S. Forest Service","SQF"," ","00000000",1988-07-23 07:00:00,1988-07-24 07:00:00,"Equipment Use","Unknown","Suppression (Wildfire)",277.778,NA,NA,NA,"00000087",NA,"1980-1989",1699516.53125,7217.73640090462,-118.694938479564,35.4932468774571,25.34560546875
10677,1988,"CA","CDF CAL FIRE (State)","FKU"," ","00007687",1988-07-23 07:00:00,NA,"Unknown/Unidentified",NA,"Suppression (Wildfire)",176.3935,NA,NA,NA,"00000150",NA,"1980-1989",1123241.9375,5080.31562568495,-119.467191457433,37.0671513727202,25.992822265625
10723,1988,"CA","USF U.S. Forest Service","SNF","RIDGE","00000000",1988-07-23 07:00:00,1988-09-30 07:00:00,"Lightning","Unknown","Suppression (Wildfire)",63.38392,NA,NA,NA,"00000140",NA,"1980-1989",409071.796875,3159.63516131936,-119.232161630063,37.5758684708036,13.46474609375
10744,1988,"CA","NPS National Park Service","KNP","LEWIS CR","00000000",1988-07-23 07:00:00,1988-08-09 07:00:00,"Lightning","Unknown","Resource Benefit (Wildland Fire Use)",33.80985,NA,NA,NA,"00000054",NA,"1980-1989",214098.43359375,2102.43675219432,-118.694348408968,36.8531270259428,13.96474609375
10768,1988,"CA","USF U.S. Forest Service","SNF","HUEY","00000000",1988-07-23 07:00:00,1988-07-30 07:00:00,"Lightning","Unknown","Suppression (Wildfire)",13.28475,NA,NA,NA,"00000148",NA,"1980-1989",85304.76171875,1110.10296938709,-119.098677531204,37.3849356447484,12.381494140625
10552,1988,"CA","USF U.S. Forest Service","SNF","OBELISK","00000000",1988-07-24 07:00:00,1988-10-31 08:00:00,"Lightning","Unknown","Suppression (Wildfire)",5420.904,NA,NA,NA,"00000124",NA,"1980-1989",34347955.6484375,30446.819536917,-118.832233144507,36.876097995502,16.931298828125
10603,1988,"CA","NPS National Park Service","YNP","HORIZON","00000049",1988-07-24 07:00:00,1988-11-10 08:00:00,"Lightning","Other Imagery","Resource Benefit (Wildland Fire Use)",673.6695,NA,NA,NA,"00000049",NA,"1980-1989",4355941.65234375,11169.2254644259,-119.578709367615,37.6462241070804,17.341943359375
10767,1988,"CA","USF U.S. Forest Service","KNF","MEDICINE","00000000",1988-07-25 07:00:00,NA,"Lightning",NA,"Suppression (Wildfire)",13.87192,NA,NA,NA,"00000046",NA,"1980-1989",100035.390625,1362.98165567753,-123.320845406714,41.4587325433531,20.519921875
10698,1988,"CA","USF U.S. Forest Service","SNF","DESK","00000000",1988-07-27 07:00:00,1988-08-25 07:00:00,"Lightning","Unknown","Suppression (Wildfire)",122.3106,NA,NA,NA,"00000183",NA,"1980-1989",785105.90234375,3187.94853339547,-118.961845298035,37.3713990005156,11.04482421875
10736,1988,"CA","USF U.S. Forest Service","STF","MANZANITA",NA,1988-07-27 07:00:00,1988-07-27 07:00:00,"Playing with Fire","Hand-drawn","Suppression (Wildfire)",38.5298,"20090305",NA,NA,"00000061",NA,"1980-1989",249628.82421875,1841.42306152554,-120.087522250623,37.7205223888495,22.152978515625
10761,1988,"CA","USF U.S. Forest Service","SNF","GRETCHEN","00000000",1988-07-27 07:00:00,1988-08-14 07:00:00,"Lightning","Unknown","Suppression (Wildfire)",18.78285,NA,NA,NA,"00000172",NA,"1980-1989",120716.27734375,1331.35829615249,-119.103638902621,37.418414201359,11.34169921875
10665,1988,"CA","USF U.S. Forest Service","ANF"," ","00000000",1988-07-29 07:00:00,1988-07-29 07:00:00,"Unknown/Unidentified","Unknown","Suppression (Wildfire)",221.2385,NA,NA,NA,"00000110",NA,"1980-1989",1329519.8203125,5401.42152788155,-118.864125981857,34.7558359449641,23.834375
10666,1988,"CA","CCO Contract County","LAC","THE PYRAMID","00837728",1988-07-29 07:00:00,NA,"Unknown/Unidentified",NA,"Suppression (Wildfire)",220.0251,NA,NA,NA,"00000008",NA,"1980-1989",1318278.5625,5344.08848883341,-118.739066287534,34.6309114461822,23.214990234375
10709,1988,"CA","USF U.S. Forest Service","KNF","EAGLE","00000000",1988-07-30 07:00:00,1988-08-03 07:00:00,"Lightning","Unknown","Suppression (Wildfire)",105.7719,NA,NA,NA,"00000082",NA,"1980-1989",769438.55859375,3760.24831791002,-121.710543375216,41.7421563327322,22.77236328125
10659,1988,"CA","CDF CAL FIRE (State)","MVU","OUTSIDE ORIGIN #11","00002110",1988-07-31 07:00:00,NA,"Miscellaneous",NA,"Suppression (Wildfire)",246.7176,NA,NA,NA,"00000576",NA,"1980-1989",1426643.9765625,6037.37340983084,-117.178426998243,33.1012945375941,20.16689453125
10746,1988,"CA","USF U.S. Forest Service","KNF","CROSSING","00000000",1988-07-31 07:00:00,1988-08-03 07:00:00,"Lightning","Unknown","Suppression (Wildfire)",32.4881,NA,NA,NA,"00000081",NA,"1980-1989",237743.16796875,2293.38039811099,-122.167334637602,41.933726915233,22.237451171875
10575,1988,"CA","CDF CAL FIRE (State)","TUU","COOPER","00000000",1988-08-01 07:00:00,NA,"Unknown/Unidentified",NA,"Suppression (Wildfire)",1850.153,NA,NA,NA,"00000000",NA,"1980-1989",11636801.8984375,16437.5539273634,-118.979807365621,36.5905211309617,22.170068359375
10685,1988,"CA","USF U.S. Forest Service","SNF","EL PORTAL","00000000",1988-08-01 07:00:00,1988-08-04 07:00:00,"Miscellaneous","Unknown","Suppression (Wildfire)",150.9127,NA,NA,NA,"00000187",NA,"1980-1989",976383.3203125,5138.07432387481,-119.830943572254,37.6685780298522,18.3099609375
10794,1988,"CA","DOD Department of Defense","AFV","TRAILER_PARK","00000000",1988-08-01 07:00:00,1988-08-01 07:00:00,"Playing with Fire","Other Imagery","Suppression (Wildfire)",0.4089653,NA,NA,NA,"00000000",NA,"1980-1989",2456.078125,203.883097607677,-120.50613657903,34.7291059179203,16.09072265625
10696,1988,"CA","USF U.S. Forest Service","SNF","FAWN","00000000",1988-08-03 07:00:00,1988-08-25 07:00:00,"Lightning","Unknown","Suppression (Wildfire)",123.3767,NA,NA,NA,"00000191",NA,"1980-1989",793530.59765625,3284.25984085298,-119.118018284242,37.4467446626158,10.3412109375
10702,1988,"CA","CCO Contract County","LAC","THE BURKE","00928045",1988-08-06 07:00:00,NA,"Unknown/Unidentified",NA,"Suppression (Wildfire)",116.8397,NA,NA,NA,"00000088",NA,"1980-1989",696937.09375,4244.18671813864,-118.291852441469,34.4440610873133,19.292138671875
10718,1988,"CA","USF U.S. Forest Service","CNF","OTAY #14","00000000",1988-08-07 07:00:00,NA,"Miscellaneous",NA,"Suppression (Wildfire)",73.11253,NA,NA,NA,"00000012",NA,"1980-1989",418002.0703125,2943.68731708462,-116.904241074181,32.5929051385748,17.09365234375
10724,1988,"CA","USF U.S. Forest Service","PNF"," ","00000000",1988-08-09 07:00:00,1988-08-13 07:00:00,"Lightning","Unknown","Suppression (Wildfire)",62.812,NA,NA,NA,"00000234",NA,"1980-1989",434295.5703125,2704.53161019907,-121.066489229491,40.0492209985579,18.558251953125
10560,1988,"CA","CDF CAL FIRE (State)","LMU","LIGHTNING #97 (BISON)","00001325",1988-08-10 07:00:00,NA,"Unknown/Unidentified",NA,"Suppression (Wildfire)",3784.273,NA,NA,NA,"00000257",NA,"1980-1989",27113855.28125,22795.89909551,-120.683300423255,41.246679277422,20.8822265625
10621,1988,"CA","NPS National Park Service","YNP","ELBOW","00000075",1988-08-10 07:00:00,1988-11-10 08:00:00,"Lightning","Unknown","Resource Benefit (Wildland Fire Use)",450.454,NA,NA,NA,"00000075",NA,"1980-1989",2938229.0625,8974.98893673414,-119.394922695784,37.9720006461851,9.00795898437502
10726,1988,"CA","USF U.S. Forest Service","TOI"," ","00000000",1988-08-10 07:00:00,NA,"Lightning",NA,"Suppression (Wildfire)",57.27869,NA,NA,NA,"00000100",NA,"1980-1989",378681.09765625,2790.80026275564,-119.392513581806,38.4657434710518,11.832666015625
10739,1988,"CA","USF U.S. Forest Service","STF","MOKE",NA,1988-08-10 07:00:00,1988-08-12 07:00:00,"Lightning","Hand-drawn","Suppression (Wildfire)",36.18944,"20090305",NA,NA,"00000019",NA,"1980-1989",239487.3046875,1946.54944037438,-120.089015069189,38.5008899003929,13.29873046875
10763,1988,"CA","USF U.S. Forest Service","PNF"," ","00000000",1988-08-10 07:00:00,1988-08-10 07:00:00,"Lightning","Unknown","Suppression (Wildfire)",18.01322,NA,NA,NA,"00000247",NA,"1980-1989",123788.921875,1558.97323892129,-120.809646306467,39.8386142477138,17.634423828125
10578,1988,"CA","USF U.S. Forest Service","SQF","HAVILAH","00000000",1988-08-11 07:00:00,1988-08-14 07:00:00,"Smoking","Unknown","Suppression (Wildfire)",1489.365,NA,NA,NA,"00000157",NA,"1980-1989",9107883.87109375,16383.4026393196,-118.552453983694,35.4735153671406,19.993310546875
10593,1988,"CA","CDF CAL FIRE (State)","BDU","YUCCA","00048017",1988-08-11 07:00:00,NA,"Unknown/Unidentified",NA,"Suppression (Wildfire)",873.0775,NA,NA,NA,"00000931",NA,"1980-1989",5168816.8359375,13301.0097197978,-116.473230033321,34.1252479360849,21.44326171875
10654,1988,"CA","USF U.S. Forest Service","MDF","RENNER","00000000",1988-08-11 07:00:00,1988-08-14 07:00:00,"Lightning","Unknown","Suppression (Wildfire)",253.1135,NA,NA,NA,"00000166",NA,"1980-1989",1855227.38671875,5910.78314608137,-120.615727533917,41.9853195132761,19.262841796875
10670,1988,"CA","NPS National Park Service","YNP","BREEZE","00000081",1988-08-11 07:00:00,1988-11-10 08:00:00,"Lightning","Other Imagery","Resource Benefit (Wildland Fire Use)",195.7965,NA,NA,NA,"00000081",NA,"1980-1989",1277568.2734375,7210.32598965548,-119.607699174988,37.9842607830991,9.76088867187502
10671,1988,"CA","CDF CAL FIRE (State)","RRU"," ","00028585",1988-08-11 07:00:00,NA,"Arson",NA,"Suppression (Wildfire)",187.3834,NA,NA,NA,"00001593",NA,"1980-1989",1103840.59765625,4170.89032477402,-116.872297677725,33.9118907282439,17.82119140625
10781,1988,"CA","USF U.S. Forest Service","MDF","HORSE","00000000",1988-08-11 07:00:00,1988-08-11 07:00:00,"Lightning","Unknown","Suppression (Wildfire)",7.596387,NA,NA,NA,"00000150",NA,"1980-1989",55524.5859375,1008.38204352132,-121.266500758394,41.8962862129801,20.449853515625
10710,1988,"CA","USF U.S. Forest Service","CNF","DEHESA #3","00000000",1988-08-12 07:00:00,NA,"Miscellaneous",NA,"Suppression (Wildfire)",103.5092,NA,NA,NA,"00000013",NA,"1980-1989",594357.23828125,3641.16600831118,-116.838058012126,32.788167849559,16.268212890625
10775,1988,"CA","NPS National Park Service","KNP","DOG","00000000",1988-08-12 07:00:00,1988-09-03 07:00:00,"Lightning","Unknown","Resource Benefit (Wildland Fire Use)",10.23264,NA,NA,NA,"00000084",NA,"1980-1989",64979.6171875,1203.3072530048,-118.686585904804,36.9611678446733,7.07851562500002
10662,1988,"CA","NPS National Park Service","YNP","EDSON","00000082",1988-08-13 07:00:00,1988-11-10 08:00:00,"Lightning","Other Imagery","Resource Benefit (Wildland Fire Use)",236.186,NA,NA,NA,"00000082",NA,"1980-1989",1527130.33984375,5943.81376987178,-119.506638504418,37.6450778681418,9.41372070312502
10787,1988,"CA","USF U.S. Forest Service","SRF"," ","00000000",1988-08-13 07:00:00,NA,"Unknown/Unidentified",NA,"Suppression (Wildfire)",5.974813,NA,NA,NA,"00501151",NA,"1980-1989",42299.4921875,730.004506524056,-123.567837366582,40.8498612217547,11.996240234375
10788,1988,"CA","USF U.S. Forest Service","SRF"," ","00000000",1988-08-13 07:00:00,1988-08-13 07:00:00,"Equipment Use","Unknown","Suppression (Wildfire)",5.974432,NA,NA,NA,"00000022",NA,"1980-1989",42296.78515625,729.981260323745,-123.567768739394,40.8498615017398,11.996240234375
10574,1988,"CA","NPS National Park Service","YNP","ALASKA","00000088",1988-08-18 07:00:00,1988-11-19 08:00:00,"Lightning","Unknown","Resource Benefit (Wildland Fire Use)",1876.683,NA,NA,NA,"00000088",NA,"1980-1989",12144258.6914062,18804.5140448499,-119.483448494774,37.675941867322,11.5609375
10764,1988,"CA","USF U.S. Forest Service","SRF","NELSON","00000000",1988-08-18 07:00:00,1988-08-18 07:00:00,"Miscellaneous","Unknown","Suppression (Wildfire)",17.55058,NA,NA,NA,"00000025",NA,"1980-1989",122956.30078125,1297.49678623246,-123.552322715442,40.4977602941084,12.62880859375
10780,1988,"CA","NPS National Park Service","KNP","GNAT","00000000",1988-08-18 07:00:00,1988-09-30 07:00:00,"Lightning","Unknown","Suppression (Wildfire)",7.785125,NA,NA,NA,"00000087",NA,"1980-1989",49365.48828125,976.609871502171,-118.815602777663,36.9052454614251,12.09853515625
10630,1988,"CA","CDF CAL FIRE (State)","TCU","GRADE","00003271",1988-08-19 07:00:00,NA,"Equipment Use",NA,"Suppression (Wildfire)",375.3932,NA,NA,NA,"00000652",NA,"1980-1989",2458631.515625,7113.87322806045,-120.479992372097,38.1224814929623,20.345361328125
10765,1988,"CA","USF U.S. Forest Service","MDF","PUPPY","00000000",1988-08-22 07:00:00,1988-08-22 07:00:00,"Lightning","Unknown","Suppression (Wildfire)",17.07967,NA,NA,NA,"00000190",NA,"1980-1989",122301.94921875,1893.89820558899,-120.338671869924,41.2273458189959,14.887109375
10584,1988,"CA","CDF CAL FIRE (State)","SNU","RIVER","00000748",1988-08-24 07:00:00,NA,"Unknown/Unidentified",NA,"Suppression (Wildfire)",1205.473,NA,NA,NA,"00000214",NA,"1980-1989",8043308.05859375,18614.0303330201,-122.981608580869,38.7983424883123,16.220849609375
10571,1988,"CA","USF U.S. Forest Service","MNF","POWDERHOUSE","00000000",1988-08-26 07:00:00,1988-08-28 07:00:00,"Miscellaneous","Unknown","Suppression (Wildfire)",2162.274,NA,NA,NA,"00000042",NA,"1980-1989",14783621.6210938,16986.4838264984,-122.614606193781,39.6611088507671,24.3744140625
10612,1988,"CA","CDF CAL FIRE (State)","HUU","LAKE","00002119",1988-08-26 07:00:00,NA,"Smoking",NA,"Suppression (Wildfire)",579.2668,NA,NA,NA,"00000210",NA,"1980-1989",4025030.515625,9100.16301175678,-124.296542703386,40.2185431202521,12.57119140625
10594,1988,"CA","USF U.S. Forest Service","LNF"," ","00000000",1988-08-28 07:00:00,1988-08-31 07:00:00,"Lightning","Unknown","Suppression (Wildfire)",839.4844,NA,NA,NA,"00000155",NA,"1980-1989",5891612.26953125,12678.4923997738,-120.987730103664,40.5570913758408,18.809228515625
10700,1988,"CA","USF U.S. Forest Service","TOI"," ","00000000",1988-08-28 07:00:00,NA,"Lightning",NA,"Suppression (Wildfire)",117.7648,NA,NA,NA,"00000123",NA,"1980-1989",800895.86328125,4415.82333496055,-120.043550576449,39.4752626692938,16.93984375
10704,1988,"CA","USF U.S. Forest Service","TOI"," ","00000000",1988-08-28 07:00:00,1988-08-28 07:00:00,"Lightning",NA,"Suppression (Wildfire)",112.0197,NA,NA,NA,"00000123",NA,"1980-1989",761827.28125,4219.82426630497,-120.043708461694,39.4753950769927,16.93984375
10771,1988,"CA","USF U.S. Forest Service","ENF"," ","00000000",1988-08-28 07:00:00,1988-08-28 07:00:00,"Lightning","Unknown","Suppression (Wildfire)",11.05567,NA,NA,NA,"00000093",NA,"1980-1989",73761.4609375,979.119011351911,-120.198670244528,38.7956432417162,15.63564453125
10564,1988,"CA","CDF CAL FIRE (State)","LMU","BURNEY","00001573",1988-08-29 07:00:00,NA,"Playing with Fire",NA,"Suppression (Wildfire)",3264.268,NA,NA,NA,"00000320",NA,"1980-1989",23121439.3320312,25751.1621753465,-121.600849045675,40.8666495961631,21.145654296875
10570,1988,"CA","USF U.S. Forest Service","SNF","GARNET","00000000",1988-08-29 07:00:00,1988-09-02 07:00:00,"Lightning","Unknown","Suppression (Wildfire)",2244.904,NA,NA,NA,"00000248",NA,"1980-1989",14223791.7539062,19638.8986170396,-119.009487280507,36.8750761902266,16.525048828125
10616,1988,"CA","USF U.S. Forest Service","PNF"," ","00000000",1988-08-29 07:00:00,1988-09-01 07:00:00,"Lightning","Unknown","Suppression (Wildfire)",527.9257,NA,NA,NA,"00000282",NA,"1980-1989",3623564.76953125,9796.45200624359,-120.455840465232,39.796570079169,17.90126953125
10769,1988,"CA","NPS National Park Service","KNP","UP DEER C","00000000",1988-08-29 07:00:00,1988-08-31 07:00:00,"Lightning","Unknown","Suppression (Wildfire)",12.23482,NA,NA,NA,"00000117",NA,"1980-1989",76634.984375,1567.23206378941,-118.660025740509,36.4290283650303,14.651513671875
10601,1988,"CA","USF U.S. Forest Service","SHF"," ","00000000",1988-08-31 07:00:00,1988-09-03 07:00:00,"Miscellaneous","Unknown","Suppression (Wildfire)",701.5712,NA,NA,NA,"00000203",NA,"1980-1989",4955549.2421875,10189.9486970646,-123.111668939071,40.7735958186796,19.369287109375
10622,1988,"CA","CDF CAL FIRE (State)","MMU","SILVER","00002101",1988-08-31 07:00:00,NA,"Playing with Fire",NA,"Suppression (Wildfire)",416.7906,NA,NA,NA,"00000345",NA,"1980-1989",2680127.76953125,6297.44158969127,-119.933074081593,37.4385601850762,26.243310546875
10642,1988,"CA","CDF CAL FIRE (State)","RRU","STATE","00031293",1988-08-31 07:00:00,NA,"Miscellaneous",NA,"Suppression (Wildfire)",314.4298,NA,NA,NA,"00001766",NA,"1980-1989",1835369.44140625,5658.83292290954,-117.290104485932,33.5151744703936,22.8265625
10678,1988,"CA","NPS National Park Service","YNP","QUAKING","00000097",1988-08-31 07:00:00,1988-11-10 08:00:00,"Lightning","Unknown","Resource Benefit (Wildland Fire Use)",172.3196,NA,NA,NA,"00000097",NA,"1980-1989",1120038.3359375,4879.12604286322,-119.570451120192,37.840702575686,13.12197265625
10609,1988,"CA","NPS National Park Service","YNP","QUARTZITE","00000122",1988-09-02 07:00:00,1988-11-10 08:00:00,"Lightning","Other Imagery","Resource Benefit (Wildland Fire Use)",612.5803,NA,NA,NA,"00000122",NA,"1980-1989",3971815.3828125,9518.8236170268,-119.408240049843,37.748726530786,10.4134765625
10733,1988,"CA","NPS National Park Service","KNP","HOCKETT I","00000000",1988-09-02 07:00:00,1988-09-06 07:00:00,"Lightning","Unknown","Suppression (Wildfire)",46.49235,NA,NA,NA,"00000107",NA,"1980-1989",290857.3125,5147.31354681575,-118.69423235292,36.3811085580246,15.11708984375
10759,1988,"CA","USF U.S. Forest Service","KNF","SUGAR HILL","00000000",1988-09-02 07:00:00,1988-09-03 07:00:00,"Equipment Use","Unknown","Suppression (Wildfire)",19.13658,NA,NA,NA,"00000177",NA,"1980-1989",137236.8828125,2505.45086127611,-122.828242933421,41.2768005177368,20.11806640625
10770,1988,"CA","USF U.S. Forest Service","KNF"," ","00000000",1988-09-02 07:00:00,NA,"Miscellaneous",NA,"Suppression (Wildfire)",11.26079,NA,NA,NA,"00000177",NA,"1980-1989",80755.140625,1440.2783052473,-122.82735309882,41.2763937960481,20.130517578125
10591,1988,"CA","USF U.S. Forest Service","CNF","ASSIST #78","00000000",1988-09-03 07:00:00,NA,"Miscellaneous",NA,"Suppression (Wildfire)",935.334,NA,NA,NA,"00000014",NA,"1980-1989",5374661.546875,12092.1131158024,-117.035050818699,32.8208301049527,21.516015625
10690,1988,"CA","CDF CAL FIRE (State)","BDU"," ","00053349",1988-09-03 07:00:00,NA,"Arson",NA,"Suppression (Wildfire)",142.5087,NA,NA,NA,"00001057",NA,"1980-1989",844407.83984375,4361.5819766367,-117.666983907855,34.161812658496,23.707177734375
10541,1988,"CA","CCO Contract County","LAC","PIRU","00927654",1988-09-04 07:00:00,NA,"Powerline",NA,"Suppression (Wildfire)",13310.67,NA,NA,NA,"00000088",NA,"1980-1989",79382408.7460938,114188.807106588,-118.69892639425,34.4364095359664,24.089501953125
10550,1988,"CA","CDF CAL FIRE (State)","HUU","SADDLE","00002224",1988-09-04 07:00:00,NA,"Smoking",NA,"Suppression (Wildfire)",5907.94,NA,NA,NA,"00000228",NA,"1980-1989",40907650.3671875,33638.8837787132,-124.086682544793,40.0985950103663,16.854638671875
10554,1988,"CA","CDF CAL FIRE (State)","RRU","STAGECOACH","00031932",1988-09-04 07:00:00,NA,"Miscellaneous",NA,"Suppression (Wildfire)",4571.167,NA,NA,NA,"00001807",NA,"1980-1989",26846373.7539062,25614.4863403171,-117.120802217909,33.781156954436,25.220849609375
10557,1988,"CA","CCO Contract County","LAC","KEUHNER","00927537",1988-09-04 07:00:00,NA,"Unknown/Unidentified",NA,"Suppression (Wildfire)",3818.714,NA,NA,NA,"00000088",NA,"1980-1989",22694340.0078125,37058.1681056013,-118.64808587114,34.2880229219216,25.91201171875
10606,1988,"CA","CDF CAL FIRE (State)","RRU","ROSA","00032082",1988-09-05 07:00:00,NA,"Campfire",NA,"Suppression (Wildfire)",631.5698,NA,NA,NA,"00001825",NA,"1980-1989",3696937.8203125,9500.57249971044,-117.367057054092,33.6376711230537,26.935205078125
10729,1988,"CA","USF U.S. Forest Service","CNF","MESA","00000000",1988-09-05 07:00:00,NA,"Miscellaneous",NA,"Suppression (Wildfire)",54.88983,NA,NA,NA,"00000015",NA,"1980-1989",317744.1484375,2804.41913363948,-116.704219505453,33.1493055748523,22.964501953125
10682,1988,"CA","CDF CAL FIRE (State)","BTU","ADAMS RANCH","00004685",1988-09-07 07:00:00,NA,"Unknown/Unidentified",NA,"Suppression (Wildfire)",155.8058,NA,NA,NA,"00010861",NA,"1980-1989",1074165.02734375,3892.57435874645,-121.733987418693,39.9497192542317,21.368310546875
10655,1988,"CA","NPS National Park Service","YNP","ANITA","00000139",1988-09-08 07:00:00,1988-11-10 08:00:00,"Lightning","Unknown","Resource Benefit (Wildland Fire Use)",251.3668,NA,NA,NA,"00000139",NA,"1980-1989",1638576.0703125,5271.09063214365,-119.380799355038,37.9484258930975,8.49355468750002
10576,1988,"CA","CDF CAL FIRE (State)","RRU","BENTON","00036422",1988-09-09 07:00:00,NA,"Campfire",NA,"Suppression (Wildfire)",1784.117,NA,NA,NA,"00002034",NA,"1980-1989",10435847.578125,13378.5744554513,-117.059943689452,33.6059971155627,19.145654296875
10687,1988,"CA","USF U.S. Forest Service","SHF","SCOOTER","00000000",1988-09-09 07:00:00,1988-09-11 07:00:00,"Equipment Use","Unknown","Suppression (Wildfire)",146.6636,NA,NA,NA,"00000213",NA,"1980-1989",1047833.44921875,4064.19272913204,-122.157430219135,41.1525945334866,19.422998046875
10766,1988,"CA","USF U.S. Forest Service","STF","GATE",NA,1988-09-09 07:00:00,1988-09-18 07:00:00,"Lightning","Hand-drawn","Suppression (Wildfire)",15.75823,"20090305",NA,NA,"00000127",NA,"1980-1989",102057.40234375,1218.53837778184,-120.117005796014,37.7066954284389,19.64541015625
10600,1988,"CA","NPS National Park Service","YNP","VERN","00000140",1988-09-10 07:00:00,1988-11-10 08:00:00,"Lightning","Other Imagery","Resource Benefit (Wildland Fire Use)",715.4009,NA,NA,NA,"00000140",NA,"1980-1989",4669032.421875,9703.95596138465,-119.708010888139,37.9926359748508,10.823876953125
10757,1988,"CA","USF U.S. Forest Service","PNF"," ","00000000",1988-09-10 07:00:00,1988-09-10 07:00:00,"Smoking","Unknown","Suppression (Wildfire)",22.68128,NA,NA,NA,"00000320",NA,"1980-1989",155584.33203125,1660.35668159638,-121.274541640564,39.7754155617084,18.05263671875
10539,1988,"CA","CDF CAL FIRE (State)","NEU","49'ER","00004191",1988-09-11 07:00:00,NA,"Debris",NA,"Suppression (Wildfire)",36343.15,NA,NA,NA,"00000920",NA,"1980-1989",245508855.75,120556.36567058,-121.206779757588,39.2388051247547,18.99501953125
10548,1988,"CA","CDF CAL FIRE (State)","HUU","KLAMATH","00002330",1988-09-11 07:00:00,NA,"Miscellaneous",NA,"Suppression (Wildfire)",6158.767,NA,NA,NA,"00000248",NA,"1980-1989",44629605.484375,29071.4118826834,-124.002488472472,41.6172535332412,14.384912109375
10634,1988,"CA","CDF CAL FIRE (State)","SNU","GEYSERS SERIES","00000852",1988-09-11 07:00:00,NA,"Unknown/Unidentified",NA,"Suppression (Wildfire)",352.7104,NA,NA,NA,"00000233",NA,"1980-1989",2351815.8671875,7785.12956172106,-122.813160802174,38.7741511061379,17.32265625
10784,1988,"CA","CCO Contract County","LAC"," ","00000000",1988-09-12 07:00:00,NA,"Unknown/Unidentified",NA,"Suppression (Wildfire)",6.862807,NA,NA,NA,"00000000",NA,"1980-1989",40820.87109375,908.624353058888,-118.327603543762,34.3251153028288,16.14443359375
10540,1988,"CA","CDF CAL FIRE (State)","LNU","MILLER","00003015",1988-09-17 07:00:00,NA,"Arson",NA,"Suppression (Wildfire)",34564.53,NA,NA,NA,"00000341",NA,"1980-1989",228274520.523438,70448.1808955248,-122.092104629234,38.4276808811987,15.4857421875
10545,1988,"CA","CDF CAL FIRE (State)","SHU","FERN","00004348",1988-09-17 07:00:00,NA,"Unknown/Unidentified",NA,"Suppression (Wildfire)",7558.078,NA,NA,NA,"00000648",NA,"1980-1989",53199989.71875,40358.6144227688,-121.88505165623,40.6561943415667,14.8587890625
10615,1988,"CA","CDF CAL FIRE (State)","TGU","STONY","00002311",1988-09-17 07:00:00,NA,"Arson",NA,"Suppression (Wildfire)",529.6204,NA,NA,NA,"00000188",NA,"1980-1989",3610866.80859375,10578.1221667012,-122.536230367869,39.5628904441001,19.013818359375
10619,1988,"CA","CDF CAL FIRE (State)","LNU","RESORT","00003027",1988-09-18 07:00:00,NA,"Equipment Use",NA,"Suppression (Wildfire)",483.3407,NA,NA,NA,"00000343",NA,"1980-1989",3196860.19140625,7370.64409659441,-122.147189213689,38.4815778612263,21.062890625
10640,1988,"CA","CDF CAL FIRE (State)","SNU","BOISE","00000887",1988-09-19 07:00:00,NA,"Unknown/Unidentified",NA,"Suppression (Wildfire)",319.3421,NA,NA,NA,"00000247",NA,"1980-1989",2122122.609375,5775.75349356395,-122.861038983045,38.6521469319396,14.964501953125
10549,1988,"CA","CDF CAL FIRE (State)","LNU","BLUE","00003235",1988-09-21 07:00:00,NA,"Unknown/Unidentified",NA,"Suppression (Wildfire)",5964.426,NA,NA,NA,"00000228",NA,"1980-1989",39596204.8164062,35198.2935094596,-122.126956753437,38.6163823485922,17.56044921875
10732,1988,"CA","USF U.S. Forest Service","SRF","RATTLESNAKE","00000000",1988-09-24 07:00:00,1988-09-26 07:00:00,"Arson","Unknown","Suppression (Wildfire)",47.69778,NA,NA,NA,"00000035",NA,"1980-1989",341733.87109375,2074.92418890309,-123.537264307434,41.2452312697099,10.4173828125
10542,1988,"CA","CDF CAL FIRE (State)","BDU","TEXAS","00058203",1988-09-28 07:00:00,1988-10-07 07:00:00,"Arson","Unknown","Suppression (Wildfire)",12095.54,NA,NA,NA,"00000274",NA,"1980-1989",71695534.1015625,41973.1873613366,-117.491281937855,34.1771267900551,17.61513671875
10544,1988,"CA","USF U.S. Forest Service","SHF","HERMIT","00000000",1988-09-28 07:00:00,1988-10-02 07:00:00,"Miscellaneous","Unknown","Suppression (Wildfire)",8146.649,NA,NA,NA,"00000227",NA,"1980-1989",56551043.1914062,42080.598141568,-123.0453218683,40.1848334574564,11.144189453125
10720,1988,"CA","CDF CAL FIRE (State)","BDU","GLEN HELEN","00057914",1988-09-28 07:00:00,NA,"Miscellaneous",NA,"Suppression (Wildfire)",70.7691,NA,NA,NA,"00001136",NA,"1980-1989",419705.29296875,2427.48166680649,-117.394060417518,34.2000132622234,17.43935546875
10699,1988,"CA","CCO Contract County","LAC","DIAMOND BAR","00000000",1988-09-30 07:00:00,NA,"Unknown/Unidentified",NA,"Suppression (Wildfire)",119.4076,NA,NA,NA,"00000000",NA,"1980-1989",704360,3878.62701668305,-117.82474371031,33.9700200337545,18.68056640625
10745,1988,"CA","BLM Bureau of Land Management","BBD","JOAQUIN","00000000",1988-10-06 07:00:00,1988-10-06 07:00:00,"Arson","Unknown","Suppression (Wildfire)",33.68336,NA,NA,NA,"0000D044",NA,"1980-1989",210266.04296875,2202.38973424855,-120.437850416548,36.2956387296138,16.8353515625
10629,1988,"CA","CDF CAL FIRE (State)","RRU","STATE","00036400",1988-10-09 07:00:00,NA,"Arson",NA,"Suppression (Wildfire)",380.1403,NA,NA,NA,"00002033",NA,"1980-1989",2224147.9609375,5472.37595837096,-116.931412764843,33.6175519106792,19.23427734375
10668,1988,"CA","CCO Contract County","MRN","RUBICON","00001417",1988-10-09 07:00:00,NA,"Unknown/Unidentified",NA,"Suppression (Wildfire)",207.1606,NA,NA,NA,"00000049",NA,"1980-1989",1353861.84375,5960.86560796751,-122.577924409999,38.0428140115407,14.49892578125
10737,1988,"CA","USF U.S. Forest Service","CNF","BUCKMAN","00000000",1988-10-10 07:00:00,1988-10-11 07:00:00,"Equipment Use","Unknown","Suppression (Wildfire)",38.4564,NA,NA,NA,"00000090",NA,"1980-1989",220197.77734375,2524.33464017607,-116.49202031045,32.66131639828,19.722314453125
10693,1988,"CA","CDF CAL FIRE (State)","RRU","HORSETHIEF II","00036665",1988-10-11 07:00:00,NA,"Equipment Use",NA,"Suppression (Wildfire)",134.6095,NA,NA,NA,"00002056",NA,"1980-1989",789314.0859375,3472.6742336163,-117.430287546123,33.7129742863257,20.211572265625
10748,1988,"CA","USF U.S. Forest Service","PNF"," ","00000000",1988-10-11 07:00:00,1988-10-18 07:00:00,"Lightning","Unknown","Suppression (Wildfire)",31.20928,NA,NA,NA,"00000365",NA,"1980-1989",214590.5546875,2014.21787997456,-121.306268702908,39.8574541655009,14.991845703125
10740,1988,"CA","USF U.S. Forest Service","ANF"," ","00000000",1988-10-15 07:00:00,1988-10-17 07:00:00,"Playing with Fire","Unknown","Suppression (Wildfire)",35.49719,NA,NA,NA,"00000212",NA,"1980-1989",210725.203125,1994.46001266182,-117.65534671557,34.241325395283,13.59365234375
10558,1988,"CA","CCO Contract County","LAC","DIVIDE","00831233",1988-10-16 07:00:00,NA,"Unknown/Unidentified",NA,"Suppression (Wildfire)",3811.561,NA,NA,NA,"00000088",NA,"1980-1989",22686842.9960938,38235.5612586179,-118.39228981243,34.353441624849,17.386865234375
10565,1988,"CA","NPS National Park Service","KNP","BUCKEYE","00000000",1988-10-16 07:00:00,1988-10-23 07:00:00,"Smoking","Unknown","Suppression (Wildfire)",3090.182,NA,NA,NA,"00000140",NA,"1980-1989",19412369.8203125,28710.7833777668,-118.74532809833,36.5428326011792,7.58608398437502
10747,1988,"CA","USF U.S. Forest Service","CNF","COLE","00000000",1988-11-05 08:00:00,NA,"Miscellaneous",NA,"Suppression (Wildfire)",32.00769,NA,NA,NA,"00000017",NA,"1980-1989",185651.4453125,1893.17010069441,-117.025409482309,33.2366609100048,14.44912109375
10597,1988,"CA","USF U.S. Forest Service","CNF","WILD","00000000",1988-11-22 08:00:00,NA,"Miscellaneous",NA,"Suppression (Wildfire)",753.4076,NA,NA,NA,"00000018",NA,"1980-1989",4356371.421875,11172.1745898285,-116.981955031091,33.0991978792672,6.78164062500002
10620,1988,"CA","CDF CAL FIRE (State)","MVU","RODRIGUEZ","00000000",1988-12-01 08:00:00,NA,"Unknown/Unidentified",NA,"Suppression (Wildfire)",461.5535,NA,NA,NA,"0000216.",NA,"1980-1989",2678259.21875,10025.4874323906,-116.943828014361,33.2556134127257,8.22768554687502
10563,1988,"CA","USF U.S. Forest Service","MNF","LETTS","00000000",1988-12-05 08:00:00,1988-12-05 08:00:00,"Miscellaneous","Unknown","Suppression (Wildfire)",3312.164,NA,NA,NA,"00000050",NA,"1980-1989",22401675.40625,38951.6967930944,-122.777231191719,39.2814773144197,7.73745117187502
10674,1988,"CA","USF U.S. Forest Service","MNF","BUTTE","00000000",1988-12-05 08:00:00,NA,"Debris","Unknown","Suppression (Wildfire)",178.0835,NA,NA,NA,"00000055",NA,"1980-1989",1219273.56640625,4651.96259066155,-122.901824532457,39.7097876569278,6.37416992187502
10750,1988,"CA","USF U.S. Forest Service","ENF"," ","00000000",1988-12-06 08:00:00,1988-12-15 08:00:00,"Debris","Unknown","Suppression (Wildfire)",29.22227,NA,NA,NA,"00000160",NA,"1980-1989",196092.38671875,1684.73239487004,-120.475047192181,39.0018880283555,2.34926757812502
10633,1988,"CA","CCO Contract County","LAC","GLEN OAKS CANYON","00GLN003",1988-12-07 08:00:00,NA,"Unknown/Unidentified",NA,"Suppression (Wildfire)",352.7481,NA,NA,NA,"00001824",NA,"1980-1989",2089485.20703125,10634.9478685759,-118.203652574497,34.1484513105062,11.88076171875
10679,1988,"CA","CCO Contract County","LAC","LEROY","00931023",1988-12-08 08:00:00,NA,"Unknown/Unidentified",NA,"Suppression (Wildfire)",171.0744,NA,NA,NA,"00000588",NA,"1980-1989",1012765.35546875,6305.1505169662,-117.753835026054,34.1238056485533,13.799951171875
10566,1988,"CA","CCO Contract County","LAC","SESNON","00367598",1988-12-09 08:00:00,NA,"Unknown/Unidentified",NA,"Suppression (Wildfire)",2658.574,NA,NA,NA,"00000008",NA,"1980-1989",15807737.9804688,30028.5223498097,-118.529868059872,34.3095508867759,14.67666015625
10580,1988,"CA","CDF CAL FIRE (State)","RRU","STATE #2428","00044433",1988-12-09 08:00:00,NA,"Equipment Use",NA,"Suppression (Wildfire)",1445.945,NA,NA,NA,"00002428",NA,"1980-1989",8485284.39453125,13400.2252590983,-117.371666168888,33.746861241439,11.676416015625
10734,1988,"CA","USF U.S. Forest Service","CNF","SUTHERLAND","00000000",1988-12-09 08:00:00,1988-12-09 08:00:00,"Miscellaneous","Unknown","Suppression (Wildfire)",42.76471,NA,NA,NA,"00000105",NA,"1980-1989",247276.015625,2200.90964591083,-116.793200405054,33.0993597080142,13.93251953125
10712,1988,"CA","USF U.S. Forest Service","STF","MIDDLE FORK",NA,1988-12-10 08:00:00,1988-12-17 08:00:00,"Debris","Hand-drawn","Suppression (Wildfire)",97.29483,"20090305",NA,NA,"00000152",NA,"1980-1989",638486.9375,3096.58089004118,-120.221757657674,38.1949934221569,4.34316406250002
10611,1988,"CA","USF U.S. Forest Service","ENF","BEAR","00000000",1988-12-14 08:00:00,1988-12-19 08:00:00,"Debris","Unknown","Suppression (Wildfire)",582.4282,NA,NA,NA,"00000156",NA,"1980-1989",3866634.5703125,31655.1055890021,-120.487620228,38.6168336447805,2.35488281250002
10585,1988,"CA","CDF CAL FIRE (State)","HUU","CHARLES","00003308",1988-12-15 08:00:00,NA,"Miscellaneous",NA,"Suppression (Wildfire)",1188.56,NA,NA,NA,"00000362",NA,"1980-1989",8286795.71484375,16319.1051821734,-123.62485554362,40.334357271823,1.31801757812502
10743,1988,"CA","USF U.S. Forest Service","TNF","RELIEF","00000000",1988-12-15 08:00:00,1988-12-16 08:00:00,"Debris",NA,"Suppression (Wildfire)",33.9634,NA,NA,NA,"00000282",NA,"1980-1989",230172.2265625,2268.16478869835,-120.842192030855,39.3523648495343,-0.0791992187499773
10749,1988,"CA","USF U.S. Forest Service","STF","JAWBONE",NA,1988-12-15 08:00:00,1988-12-15 08:00:00,"Debris","Hand-drawn","Suppression (Wildfire)",30.02654,"20090305",NA,NA,"00000150",NA,"1980-1989",195573.2734375,1849.54992909371,-119.982618639581,37.9181796304074,-0.564306640624977
10760,1988,"CA","USF U.S. Forest Service","TNF","FOX","00000000",1988-12-15 08:00:00,1988-12-17 08:00:00,"Miscellaneous",NA,"Suppression (Wildfire)",19.10196,NA,NA,NA,"00000281",NA,"1980-1989",130258.3203125,1598.89603253029,-120.70610744669,39.5693257948596,-3.93295898437498
10786,1988,"CA","USF U.S. Forest Service","MNF","WESTSIDE","00000000",1988-12-15 08:00:00,1988-12-20 08:00:00,"Lightning","Unknown","Suppression (Wildfire)",6.048818,NA,NA,NA,"00000054",NA,"1980-1989",40959.859375,842.354412381438,-123.007331514162,39.3236592440221,3.55581054687502
10727,1988,"CA","USF U.S. Forest Service","SHF"," ","00000000",1988-12-16 08:00:00,1988-12-18 08:00:00,"Debris","Unknown","Suppression (Wildfire)",56.73396,NA,NA,NA,"00000252",NA,"1980-1989",403616.34375,2520.69022944666,-122.147162660741,41.0119832111392,2.32021484375002
