"OBJECTID","YEAR_","STATE","AGENCY","UNIT_ID","FIRE_NAME","INC_NUM","ALARM_DATE","CONT_DATE","CAUSE","C_METHOD","OBJECTIVE","GIS_ACRES","COMMENTS","COMPLEX_NAME","IRWINID","FIRE_NUM","COMPLEX_ID","DECADES","Shape__Area","Shape__Length","Lon","Lat","TEMPERATURE_2M_ALARM_DATE"
4232,2014,"CA","NPS National Park Service","SMP","PIUMA","22",2014-01-01 08:00:00,2014-01-01 08:00:00,"Unknown/Unidentified","Unknown",NA,0.7918415,"664541",NA,NA,"22",NA,"2010-2019",4682.16796875,242.81576409375,-118.669325,34.073092,9.54995117187502
4090,2014,"CA","USF U.S. Forest Service","LNF","CAMPBELL","000027",2014-01-02 08:00:00,2014-01-10 08:00:00,"Campfire","GPS Ground","Suppression (Wildfire)",864.9468,"<Null>",NA,NA,NA,NA,"2010-2019",5982421.23046875,15942.1257544655,-121.764721862916,40.0606576769784,2.85341796875002
4204,2014,"CA","CDF CAL FIRE (State)","NEU","REEDY","000131",2014-01-02 08:00:00,2014-01-02 08:00:00,"Debris","Other Imagery","Suppression (Wildfire)",10.98303,NA,NA,NA,NA,NA,"2010-2019",74238.30859375,1556.69850454663,-121.409373344083,39.260103576735,2.00478515625002
4105,2014,"CA","CDF CAL FIRE (State)","HUU","RED","000081",2014-01-04 08:00:00,2014-01-08 08:00:00,"Debris","GPS Ground","Suppression (Wildfire)",332.1736,NA,NA,NA,NA,NA,"2010-2019",2348724.56640625,11625.1858422416,-123.801674223494,40.8080320599965,-0.440527343749977
4177,2014,"CA","CDF CAL FIRE (State)","HUU","BRIDGE","000079",2014-01-04 08:00:00,2014-01-04 08:00:00,"Powerline","GPS Ground","Suppression (Wildfire)",17.42052,NA,NA,NA,NA,NA,"2010-2019",121955.6484375,1435.28925678441,-123.80127851926,40.4729601480157,-0.783789062499977
4189,2014,"CA","USF U.S. Forest Service","SNF","BALD ROCK","000059",2014-01-11 08:00:00,2014-02-10 08:00:00,"Miscellaneous","GPS Ground","Suppression (Wildfire)",13.86587,"<Null>",NA,NA,NA,NA,"2010-2019",89255.6640625,1678.44016241923,-119.702603076436,37.4778313257879,1.37514648437502
4161,2014,"CA","CDF CAL FIRE (State)","SLU","TWITCHELL","000389",2014-01-12 08:00:00,2014-01-12 08:00:00,"Powerline","GPS Ground","Suppression (Wildfire)",21.94427,"Downed powerlines due to high winds",NA,NA,NA,NA,"2010-2019",132624.12109375,2479.13715644644,-120.346729826168,34.9914857516059,10.6302734375
4287,2014,"CA","NPS National Park Service","SMP","TAPIA","35",2014-01-12 08:00:00,2014-01-12 08:00:00,"Unknown/Unidentified","Unknown",NA,0.09347441,"664603",NA,NA,"35",NA,"2010-2019",552.8046875,83.4537455528671,-118.704861033689,34.0802780225417,12.15419921875
4084,2014,"CA","USF U.S. Forest Service","SQF","SODA","000120",2014-01-13 08:00:00,2014-03-22 07:00:00,"Miscellaneous","Unknown","Suppression (Wildfire)",1423.232,NA,NA,NA,NA,NA,"2010-2019",8866919.16015625,24864.3552969708,-118.534310871424,36.2179147390718,-2.80014648437498
4221,2014,"CA","NPS National Park Service","SMP","PALISADES","75",2014-01-14 08:00:00,2014-01-14 08:00:00,"Unknown/Unidentified","Unknown",NA,3.024885,"664967",NA,NA,"75",NA,"2010-2019",17868.50390625,579.212081936034,-118.52326777166,34.0308165073992,13.073388671875
4222,2014,"CA","NPS National Park Service","SMP","SKYVIEW","40",2014-01-14 08:00:00,2014-01-14 08:00:00,"Unknown/Unidentified","Unknown",NA,2.978585,"664682",NA,NA,"40",NA,"2010-2019",17624.9375,470.867424303445,-118.627904659986,34.1036017384016,12.669091796875
4081,2014,"CA","USF U.S. Forest Service","ANF","COLBY","000231",2014-01-16 08:00:00,2014-01-21 08:00:00,"Campfire","Mixed Methods","Suppression (Wildfire)",1951.893,"LAC #014099",NA,NA,NA,NA,"2010-2019",11564688.8554688,26912.3418284156,-117.873048566776,34.1585929185025,12.7943359375
4179,2014,"CA","FWS U.S. Fish & Wildlife Service","SWR","AFTON",NA,2014-01-21 08:00:00,2014-01-23 08:00:00,"Unknown/Unidentified","GPS Ground","Suppression (Wildfire)",17.01346,"UNIT ID: SWR  fire num ? H1GG",NA,NA,NA,NA,"2010-2019",115500.58984375,1667.96401921116,-121.993443380355,39.4130948090247,7.68447265625002
4125,2014,"CA","CDF CAL FIRE (State)","NEU","BREWER","001732",2014-01-22 08:00:00,2014-01-22 08:00:00,"Vehicle","GPS Ground","Suppression (Wildfire)",104.1804,"Fed inc# 21381",NA,NA,NA,NA,"2010-2019",694951.63671875,4869.15357961778,-121.436920052564,38.7893360233653,3.40175781250002
4126,2014,"CA","CDF CAL FIRE (State)","FKU","LAKE","001194",2014-01-25 08:00:00,2014-01-26 08:00:00,"Unknown/Unidentified","GPS Ground","Suppression (Wildfire)",102.4423,NA,NA,NA,NA,NA,"2010-2019",648613.8203125,4370.82544106186,-119.344716713936,36.8474911955382,7.70400390625002
4238,2014,"CA","NPS National Park Service","SMP","VIRGENES","82",2014-01-25 08:00:00,2014-01-25 08:00:00,"Unknown/Unidentified","Unknown",NA,0.2957758,"665042",NA,NA,"82",NA,"2010-2019",1752.08203125,171.113309972263,-118.665559947728,34.1498892008355,15.79921875
4196,2014,"CA","CDF CAL FIRE (State)","FKU","SYCAMORE","001407",2014-01-29 08:00:00,2014-01-29 08:00:00,"Unknown/Unidentified","GPS Ground","Suppression (Wildfire)",12.41273,NA,NA,NA,NA,NA,"2010-2019",78819.890625,1434.31017240928,-119.321037912667,36.9592961741925,7.34121093750002
4171,2014,"CA","CCO Contract County","VNC","BRISTOL","026141",2014-02-05 08:00:00,2014-03-05 08:00:00,"Unknown/Unidentified","GPS Air","Suppression (Wildfire)",20.15676,"Helicopter GPS",NA,NA,"",NA,"2010-2019",119703.16015625,2285.53161270425,-119.182043773271,34.2571948446026,9.41347656250002
4173,2014,"CA","BLM Bureau of Land Management","CDD","MINE","003195",2014-02-17 08:00:00,2014-02-17 08:00:00,"Miscellaneous","GPS Ground","Suppression (Wildfire)",19.09398,"Shooting",NA,NA,NA,NA,"2010-2019",112080.0859375,1534.40224718359,-117.303019278942,33.7585715214005,12.224267578125
4108,2014,"CA","USF U.S. Forest Service","CNF","GUN","000599",2014-03-08 08:00:00,2014-03-09 08:00:00,"Miscellaneous","GPS Ground","Suppression (Wildfire)",270.0748,"<Null>",NA,NA,NA,NA,"2010-2019",1551669.24609375,9492.63294146372,-116.493310388192,32.8136725335816,12.012109375
4121,2014,"CA","CCO Contract County","LAC","PINE ","065279",2014-03-15 07:00:00,2014-03-15 07:00:00,"Vehicle","Mixed Methods","Suppression (Wildfire)",117.0455,"dead person at fire, telecom vehicle started fire",NA,NA,NA,NA,"2010-2019",703412.28515625,4964.2452134967,-118.719645095035,34.7578442374675,10.989892578125
4115,2014,"CA","CDF CAL FIRE (State)","BEU","ENCINAL","001099",2014-03-19 07:00:00,2014-03-19 07:00:00,"Escaped Prescribed Burn","Mixed Methods","Suppression (Wildfire)",190.4012,NA,NA,NA,NA,NA,"2010-2019",1199700.0703125,6309.78335982658,-121.446810686669,36.6600639542809,8.94912109375002
4123,2014,"CA","CDF CAL FIRE (State)","BDU","BRIDGES","004595",2014-04-19 07:00:00,2014-04-27 07:00:00,"Unknown/Unidentified","GPS Ground","Suppression (Wildfire)",113.4199,NA,NA,NA,NA,NA,"2010-2019",728808.12890625,4528.18375809853,-118.375498167557,37.411409330643,6.43374023437502
4205,2014,"CA","USF U.S. Forest Service","SHF","SODA","001103",2014-04-19 07:00:00,2014-05-09 07:00:00,"Debris","GPS Ground","Suppression (Wildfire)",10.93429,"<Null>",NA,NA,NA,NA,"2010-2019",78179.38671875,1241.25655550966,-122.276133969027,41.1778200686223,7.48134765625002
4245,2014,"CA","NPS National Park Service","SMP","CALABASAS","362",2014-04-21 07:00:00,2014-04-21 07:00:00,"Unknown/Unidentified","Unknown",NA,0.1977677,"674810",NA,NA,"362",NA,"2010-2019",1171.515625,121.488680283092,-118.679479891829,34.1507813522336,15.349755859375
4169,2014,"CA","CDF CAL FIRE (State)","LNU","BOTTLE","003603",2014-04-29 07:00:00,2014-04-29 07:00:00,"Unknown/Unidentified","GPS Air","Suppression (Wildfire)",20.53575,NA,NA,NA,NA,NA,"2010-2019",137553.7890625,1663.16396105485,-122.82092063623,38.9373551230394,12.271142578125
4079,2014,"CA","USF U.S. Forest Service","BDF","ETIWANDA","00006646",2014-04-30 07:00:00,NA,"Miscellaneous","GPS Ground","Suppression (Wildfire)",2141.841,NA,NA,NA,NA,NA,"2010-2019",12692947.09375,26638.110814536,-117.544369548907,34.1681262202204,16.92080078125
4113,2014,"CA","FWS U.S. Fish & Wildlife Service","BRR","SCHOOL",NA,2014-04-30 07:00:00,2014-05-02 07:00:00,"Miscellaneous","GPS Ground","Suppression (Wildfire)",223.7797,"UNIT ID: BRR fire num?  H3WP",NA,NA,NA,NA,"2010-2019",1350306.2109375,5970.82439186153,-119.405551125241,34.9258123981395,16.067041015625
4142,2014,"CA","CDF CAL FIRE (State)","BEU","SAN LUCAS","001631",2014-04-30 07:00:00,2014-05-02 07:00:00,"Escaped Prescribed Burn","GPS Ground","Suppression (Wildfire)",55.33626,NA,NA,NA,NA,NA,"2010-2019",343755.97265625,3631.26852683588,-121.109464533531,36.1034933025415,19.03896484375
4290,2014,"CA","NPS National Park Service","SMP","TRANCAS","391",2014-04-30 07:00:00,2014-04-30 07:00:00,"Powerline","Unknown",NA,0.09346442,"675685",NA,NA,"391",NA,"2010-2019",552.20703125,83.4090523958561,-118.84672217367,34.039028023957,20.03994140625
4147,2014,"CA","USF U.S. Forest Service","MDF","HOWARDS","000143",2014-05-01 07:00:00,2014-06-04 07:00:00,"Railroad","GPS Ground","Suppression (Wildfire)",44.96093,NA,NA,NA,NA,NA,"2010-2019",324505.03125,2763.44495201148,-120.958500248017,41.4864940906447,7.29067382812502
4183,2014,"CA","USF U.S. Forest Service","KNF","RIVER","01706227",2014-05-02 07:00:00,2014-05-12 07:00:00,"Miscellaneous","GPS Ground","Suppression (Wildfire)",16.00105,"perimeter for 2014, not previously submitted",NA,"",NA,NA,"2010-2019",116539.296875,1594.57006473912,-123.027869696179,41.7809339002058,12.518212890625
4176,2014,"CA","USF U.S. Forest Service","CNF","VIEWPOINT","001190",2014-05-03 07:00:00,2014-05-03 07:00:00,"Miscellaneous","GPS Ground","Suppression (Wildfire)",17.46472,"<Null>",NA,NA,NA,NA,"2010-2019",100397.7734375,1793.15043970501,-116.657962077058,32.8392142196752,17.76943359375
4152,2014,"CA","CDF CAL FIRE (State)","MVU","JACUMBA","009433",2014-05-05 07:00:00,2014-05-06 07:00:00,"Vehicle","GPS Ground","Suppression (Wildfire)",26.66445,"BLM # 006866",NA,NA,NA,NA,"2010-2019",152682.71875,3082.63987716462,-116.226806754449,32.6626816094959,14.696923828125
4211,2014,"CA","CDF CAL FIRE (State)","NEU","PERIMERTER","010120",2014-05-09 07:00:00,2014-05-09 07:00:00,"Debris","GPS Ground","Suppression (Wildfire)",9.584886,NA,NA,NA,NA,NA,"2010-2019",64403.10546875,1475.84320674462,-121.271714157837,39.048906637466,15.684716796875
4288,2014,"CA","NPS National Park Service","SMP","MURPHY","424",2014-05-11 07:00:00,2014-05-11 07:00:00,"Unknown/Unidentified","Unknown",NA,0.09346852,"675686",NA,NA,"424",NA,"2010-2019",552.24609375,83.4108758443065,-118.789638966325,34.0390279774674,15.63759765625
4087,2014,"CA","LRA Local Responsibility Area","MVU","BERNARDO","010055",2014-05-13 07:00:00,2014-05-18 07:00:00,"Equipment Use","GPS Ground","Suppression (Wildfire)",1331.426,"<Null>",NA,NA,NA,NA,"2010-2019",7681597.78515625,28263.2520580479,-117.148874977534,33.000915160951,18.30703125
4093,2014,"CA","CCO Contract County","SBC","MIGUELITO","005573",2014-05-13 07:00:00,2014-05-19 07:00:00,"Powerline","GPS Ground","Suppression (Wildfire)",631.8137,"tree branches blown into power lines",NA,NA,NA,NA,"2010-2019",3784197.01953125,13185.6394405451,-120.45125090419,34.6164203879616,15.07900390625
4080,2014,"CA","LRA Local Responsibility Area","MVU","COCOS","010212",2014-05-14 07:00:00,2014-05-23 07:00:00,"Unknown/Unidentified","GPS Ground","Suppression (Wildfire)",1994.787,"<Null>","SAN DIEGO COMPLEX","{8C83072E-CC5C-43D5-9197-CE74C9AB83EF}",NA,"{F755A5C1-37C5-43C9-B47A-79EF1E547700}","2010-2019",11537865.03125,36214.623961863,-117.150905593945,33.1128811588785,19.1205078125
4099,2014,"CA","CDF CAL FIRE (State)","MVU","HIGHWAY","010173",2014-05-14 07:00:00,2014-05-19 07:00:00,"Unknown/Unidentified","GPS Ground","Suppression (Wildfire)",441.0284,"<Null>","SAN DIEGO COMPLEX","{1CCA0E84-F95E-45FA-8D53-67DD11597376}",NA,"{F755A5C1-37C5-43C9-B47A-79EF1E547700}","2010-2019",2562324.48828125,9908.164904983,-117.163583828119,33.3100919708885,19.462548828125
4102,2014,"CA","LRA Local Responsibility Area","MVU","POINSETTIA","010165",2014-05-14 07:00:00,2014-05-18 07:00:00,"Unknown/Unidentified","GPS Ground","Suppression (Wildfire)",376.9402,"<Null>",NA,NA,NA,NA,"2010-2019",2180173.859375,18741.8980161147,-117.276844268091,33.1118404461876,20.570458984375
4119,2014,"CA","LRA Local Responsibility Area","MVU","RIVER","010187",2014-05-14 07:00:00,2014-05-19 07:00:00,"Unknown/Unidentified","Unknown","Suppression (Wildfire)",167.907,NA,NA,NA,NA,NA,"2010-2019",974208.8515625,6407.95391510926,-117.288086561048,33.2508137474539,20.807275390625
4213,2014,"CA","CCO Contract County","VNC","BRIGGS","0029107",2014-05-14 07:00:00,2014-05-14 07:00:00,"Unknown/Unidentified","Unknown","Suppression (Wildfire)",8.932433,NA,NA,NA,"",NA,"2010-2019",53118.828125,7379.25922337521,-119.109803713367,34.3174487368655,19.59755859375
4190,2014,"CA","CDF CAL FIRE (State)","MEU","PIETA","004414",2014-05-16 07:00:00,2014-05-24 07:00:00,"Miscellaneous","Photo Interpretation","Suppression (Wildfire)",13.59727,NA,NA,NA,NA,NA,"2010-2019",90957.14453125,1261.11167466026,-122.945851701457,38.8898549141417,15.598046875
4063,2014,"CA","DOD Department of Defense","MCP","PULGAS","001352",2014-05-19 07:00:00,NA,"Unknown/Unidentified","Unknown","Suppression (Wildfire)",15186.14,NA,"BASILONE COMPLEX","{9abf6114-a2de-4a5b-873f-22dabd5595a5}",NA,"{7158740F-470E-4D45-B4F7-679A9FF0EB16}","2010-2019",88248215.7851562,68247.4762551102,-117.396049541942,33.3192751040647,16.33486328125
4071,2014,"CA","DOD Department of Defense","MCP","TOMAHAWK","001554",2014-05-19 07:00:00,NA,"Unknown/Unidentified","Unknown","Suppression (Wildfire)",5365.311,NA,"BASILONE COMPLEX","{aa4c08f7-290b-4eed-afa1-047093076a06}",NA,"{7158740F-470E-4D45-B4F7-679A9FF0EB16}","2010-2019",31204574.84375,41742.2643246505,-117.287904655092,33.3562174146368,15.907373046875
4083,2014,"CA","DOD Department of Defense","MCP","COMBAT","001359",2014-05-19 07:00:00,NA,"Unknown/Unidentified","Unknown","Suppression (Wildfire)",1457.185,NA,"BASILONE COMPLEX","{f6900fe9-3808-4931-a7b1-a78dbb48001c}",NA,"{7158740F-470E-4D45-B4F7-679A9FF0EB16}","2010-2019",8486723.625,16196.2506809699,-117.543773755325,33.4170504101595,16.279443359375
4246,2014,"CA","NPS National Park Service","SMP","OCEAN VIEW","463",2014-05-19 07:00:00,2014-05-19 07:00:00,"Equipment Use","Unknown",NA,0.1977541,"675710",NA,NA,"463",NA,"2010-2019",1168.66015625,121.339447500248,-118.773138909697,34.0487500148198,16.267724609375
4285,2014,"CA","NPS National Park Service","SMP","VIEW RIDGE","462",2014-05-19 07:00:00,2014-05-19 07:00:00,"Unknown/Unidentified","Unknown",NA,0.09348149,"675689",NA,NA,"462",NA,"2010-2019",553.5546875,83.51164632542,-118.598694480479,34.1362500335475,16.195947265625
4091,2014,"CA","CDF CAL FIRE (State)","MMU","HUNTER","008974",2014-05-26 07:00:00,2014-06-04 07:00:00,"Unknown/Unidentified","GPS Ground","Suppression (Wildfire)",690.982,NA,NA,"{84F7907B-38B1-421A-8665-4B827D76D054}",NA,NA,"2010-2019",4467746.234375,14483.7690193141,-120.228168827788,37.6450629309236,20.52431640625
4160,2014,"CA","BLM Bureau of Land Management","CDD","BAILEY","007773",2014-05-30 07:00:00,2014-05-31 07:00:00,"Vehicle","GPS Ground","Suppression (Wildfire)",23.44721,NA,NA,"{D001D3B5-BC5E-4C25-A6AC-B18880A3EBFB}",NA,NA,"2010-2019",143383.7734375,2880.97184978528,-115.56921682519,35.4728297155626,22.2728515625
4291,2014,"CA","NPS National Park Service","SMP","ENCINAL","510",2014-06-03 07:00:00,2014-06-03 07:00:00,"Powerline","Unknown",NA,0.09346381,"675695",NA,"{C20639FE-3789-40FC-9D30-59A12E0ABB4D}","510",NA,"2010-2019",552.8359375,83.4558555225753,-118.853472105989,34.0873610359371,15.6771484375
4192,2014,"CA","CDF CAL FIRE (State)","RRU","SANTA","058492",2014-06-04 07:00:00,2014-06-05 07:00:00,"Vehicle","GPS Ground","Suppression (Wildfire)",13.35748,NA,NA,NA,NA,NA,"2010-2019",77941.4453125,1679.50376386696,-117.16968311436,33.4995136564137,18.12294921875
4128,2014,"CA","CDF CAL FIRE (State)","MMU","VALLEY","009794",2014-06-06 07:00:00,2014-06-08 07:00:00,"Equipment Use","GPS Ground","Suppression (Wildfire)",96.8939,NA,NA,"{151AD33A-60B5-4906-A74A-9E1185BD60B2}",NA,NA,"2010-2019",625719.01953125,6427.65845741342,-120.188017902261,37.5985582561682,21.090966796875
4148,2014,"CA","CDF CAL FIRE (State)","RRU","BOGART","059343",2014-06-06 07:00:00,2014-06-08 07:00:00,"Unknown/Unidentified","GPS Air","Suppression (Wildfire)",31.47281,NA,NA,"{95A1FA12-1ACD-429D-8F31-9DE796F7F027}",NA,NA,"2010-2019",185728.27734375,2928.74799559892,-116.949440787494,33.9877589488034,16.922509765625
4212,2014,"CA","BLM Bureau of Land Management","CDD","CONTOUR","005932",2014-06-06 07:00:00,2014-06-06 07:00:00,"Miscellaneous","GPS Ground","Suppression (Wildfire)",9.497061,"Shooting",NA,NA,NA,NA,"2010-2019",55820.83203125,1043.16663613857,-117.082055173765,33.8158305414809,17.881982421875
4227,2014,"CA","CCO Contract County","VNC","SHERWOOD","0039827",2014-06-06 07:00:00,2014-06-06 07:00:00,"Unknown/Unidentified","GPS Ground","Suppression (Wildfire)",1.993543,"Walked, MotionX GPS",NA,NA,"",NA,"2010-2019",11805.74609375,481.286415998394,-118.867503761261,34.1379644917767,16.582421875
4202,2014,"CA","CDF CAL FIRE (State)","LNU","PUTAH","004421",2014-06-08 07:00:00,2014-06-08 07:00:00,"Unknown/Unidentified","Photo Interpretation","Suppression (Wildfire)",11.1012,NA,NA,NA,NA,NA,"2010-2019",73490.57421875,1832.67130902362,-121.975017710597,38.5143568170342,20.39736328125
4144,2014,"CA","CDF CAL FIRE (State)","FKU","MORGAN","007750",2014-06-09 07:00:00,2014-06-11 07:00:00,"Equipment Use","GPS Ground","Suppression (Wildfire)",47.42393,NA,NA,"{64946744-7D04-49BD-ACC3-41C212E6CD83}",NA,NA,"2010-2019",301470.03515625,4122.55648654173,-119.524584436764,37.0015362320233,21.516259765625
4158,2014,"CA","CDF CAL FIRE (State)","FKU","HALL","007737",2014-06-09 07:00:00,2014-06-09 07:00:00,"Arson","GPS Ground","Suppression (Wildfire)",24.57085,NA,NA,"{16E17170-435C-468D-B8CE-4061ADDDD0A7}",NA,NA,"2010-2019",155162.51953125,2237.90948903025,-119.237140487049,36.7460708125495,21.662255859375
4124,2014,"CA","CDF CAL FIRE (State)","MMU","HAIGH","010067",2014-06-10 07:00:00,2014-06-15 07:00:00,"Debris","GPS Ground","Suppression (Wildfire)",111.3319,NA,NA,"{3EDDAFAD-3C76-4526-8F7D-71220B887B33}",NA,NA,"2010-2019",721866.9453125,6213.66691990113,-120.208009434052,37.749703425545,23.686669921875
4137,2014,"CA","CDF CAL FIRE (State)","LNU","NORMAN","004594",2014-06-12 07:00:00,2014-06-12 07:00:00,"Unknown/Unidentified","GPS Air","Suppression (Wildfire)",68.17542,NA,NA,NA,NA,NA,"2010-2019",450570.18359375,3684.74109440267,-121.992457470144,38.4535246380947,15.062890625
4210,2014,"CA","CDF CAL FIRE (State)","NEU","MONUMENT","013004",2014-06-12 07:00:00,2014-06-12 07:00:00,"Unknown/Unidentified","GPS Ground",NA,9.813629,NA,NA,"{9ED27961-007F-4F9C-A2DA-6E5B3D347DB4}",NA,NA,"2010-2019",66273.703125,1303.3111348897,-121.399484876669,39.2280146472743,20.08876953125
4078,2014,"CA","USF U.S. Forest Service","SQF","SHIRLEY","001850",2014-06-13 07:00:00,2014-06-13 07:00:00,"Miscellaneous","Unknown","Suppression (Wildfire)",2546.165,"COUNTY #1418812",NA,"{3FC5FE25-C208-4EE8-BB94-7ACA5B58AA41}",NA,NA,"2010-2019",15658776.5117188,26023.6099968835,-118.516658638277,35.7018518014389,16.512353515625
4151,2014,"CA","CDF CAL FIRE (State)","LNU","ESPARTO","004733",2014-06-14 07:00:00,2014-06-16 07:00:00,"Unknown/Unidentified","Hand-drawn","Suppression (Wildfire)",28.56152,NA,NA,NA,NA,NA,"2010-2019",189778.38671875,1762.97819902648,-122.017077677056,38.6484053720933,22.31240234375
4172,2014,"CA","CDF CAL FIRE (State)","RRU","MORONGO","062274",2014-06-14 07:00:00,2014-06-14 07:00:00,"Unknown/Unidentified","GPS Ground","Suppression (Wildfire)",19.59998,NA,NA,"{943CD7CA-A909-40BE-B5C2-E71686DE826E}",NA,NA,"2010-2019",115657.69921875,1896.15800164716,-116.784463498485,33.9854276442423,14.82705078125
4219,2014,"CA","NPS National Park Service","YNP","FIREPLACE","19",2014-06-14 07:00:00,2014-06-16 07:00:00,"Unknown/Unidentified","GPS Ground",NA,3.555444,"Suppressed Human Caused",NA,"{CD655A58-20E7-46DF-B4E9-9108F9609C01}","19",NA,"2010-2019",23043.55859375,716.518113928688,-119.682615758937,37.7341138977722,6.92250976562502
4209,2014,"CA","CDF CAL FIRE (State)","RRU","GILLETTE","062708",2014-06-15 07:00:00,2014-06-15 07:00:00,"Unknown/Unidentified","GPS Ground","Suppression (Wildfire)",10.03415,NA,NA,NA,NA,NA,"2010-2019",58739.2890625,1067.37531917461,-117.358725833492,33.6404164817334,16.993310546875
4164,2014,"CA","BLM Bureau of Land Management","CDD","SANDY VALLEY","008601",2014-06-18 07:00:00,2014-06-21 07:00:00,"Unknown/Unidentified","GPS Ground","Suppression (Wildfire)",21.24257,NA,NA,"{C0AB7239-B5A4-4A4F-86A7-76D8160D2441}",NA,NA,"2010-2019",130821.421875,2940.91366032235,-115.592442228897,35.7574296481919,21.00234375
4237,2014,"CA","NPS National Park Service","YNP","MOSQUITO","22",2014-06-19 07:00:00,2014-06-19 07:00:00,"Unknown/Unidentified","GPS Ground",NA,0.4028311,"Suppressed Human Caused",NA,"{64069ECF-AB51-4A49-8EFA-354FF986FB20}","22",NA,"2010-2019",2602.78720915318,180.852394791934,-119.678111686436,37.5796401734366,10.54287109375
4163,2014,"CA","CDF CAL FIRE (State)","LNU","SHADY","005080",2014-06-24 07:00:00,2014-06-24 07:00:00,"Unknown/Unidentified","Photo Interpretation","Suppression (Wildfire)",21.58158,NA,NA,NA,NA,NA,"2010-2019",142536.625,1998.21782512581,-121.984595576739,38.4291212864081,21.3529296875
4223,2014,"CA","NPS National Park Service","SMP","SHERWOOD","605",2014-06-26 07:00:00,2014-06-26 07:00:00,"Unknown/Unidentified","Unknown",NA,2.978062,"675700",NA,NA,"605",NA,"2010-2019",17635.921875,471.013767737746,-118.867887590511,34.1376131492904,18.638330078125
4074,2014,"CA","CDF CAL FIRE (State)","LNU","BUTTS","00005333",2014-07-01 07:00:00,2014-07-09 07:00:00,"Equipment Use","Unknown","Suppression (Wildfire)",4297.35,"FIMT  H6UW",NA,"{4257EEAF-CEBA-41FE-A5D9-40AE3060B031}","",NA,"2010-2019",28590629.2226562,30809.2808465896,-122.44568492341,38.6943928223697,22.78701171875
4092,2014,"CA","USF U.S. Forest Service","MDF","DALTON","000347",2014-07-01 07:00:00,2014-08-20 07:00:00,"Lightning","GPS Ground","Suppression (Wildfire)",641.467,"<Null>","MODOC JULY COMPLEX","{FCFFC750-8696-4B0D-90BC-5DCB64F03BB4}",NA,"{826D235C-63C2-4204-94DB-C28D420A0D1A}","2010-2019",4664097.38671875,25146.8422574887,-121.029061861135,41.7265244856196,21.13125
4098,2014,"CA","USF U.S. Forest Service","MDF","DOBIE","000332",2014-07-01 07:00:00,2014-07-02 07:00:00,"Lightning","GPS Ground","Suppression (Wildfire)",456.01,"<Null>","MODOC JULY COMPLEX","{F1AA8381-D635-47AF-ADD3-8C5D0361E3AE}",NA,"{826D235C-63C2-4204-94DB-C28D420A0D1A}","2010-2019",3319999.16015625,13922.1703211685,-121.343244346823,41.7689905775123,22.66201171875
4136,2014,"CA","USF U.S. Forest Service","SQF","RANCH","002142",2014-07-01 07:00:00,2014-07-01 07:00:00,"Miscellaneous","Unknown","Suppression (Wildfire)",69.25115,"County #14021074 county says coll by air",NA,"{DBF5EDDB-3403-48F8-876B-4227DE203936}",NA,NA,"2010-2019",425831.30859375,3257.02075442823,-118.618696254176,35.6962237727666,26.341943359375
4186,2014,"CA","USF U.S. Forest Service","SHF","WEST","001891",2014-07-01 07:00:00,2014-07-09 07:00:00,"Miscellaneous","Unknown","Suppression (Wildfire)",14.30474,"<Null>",NA,"{94B1FA00-5394-48D7-A20F-6E332C13BCE3}",NA,NA,"2010-2019",99953.19921875,2178.73056045634,-123.2465010375,40.4086887989075,20.0775390625
4201,2014,"CA","NPS National Park Service","BNP","CALDWELL","327",2014-07-01 07:00:00,2014-07-13 07:00:00,"Lightning","GPS Ground",NA,11.16308,NA,NA,"{DDE73B73-7652-496D-8AF7-79D417857905}","327",NA,"2010-2019",81152.2890625,1575.61486671349,-121.487677161992,41.7208205731955,21.65810546875
4120,2014,"CA","USF U.S. Forest Service","MDF","NORTHERN ","000335",2014-07-02 07:00:00,2014-07-03 07:00:00,"Lightning","GPS Ground","Suppression (Wildfire)",117.4045,"<Null>","MODOC JULY COMPLEX",NA,NA,"{826D235C-63C2-4204-94DB-C28D420A0D1A}","2010-2019",854409.7265625,7345.49025351305,-121.385477139089,41.7554244216125,23.92080078125
4140,2014,"CA","USF U.S. Forest Service","MDF","LAKE","000342",2014-07-02 07:00:00,2014-07-04 07:00:00,"Lightning","GPS Ground","Suppression (Wildfire)",58.10084,"<Null>","MODOC JULY COMPLEX",NA,NA,"{826D235C-63C2-4204-94DB-C28D420A0D1A}","2010-2019",423180.6484375,5256.16478563081,-121.019215415539,41.7823691369197,24.29873046875
4085,2014,"CA","USF U.S. Forest Service","MDF","GULCH ","000357",2014-07-03 07:00:00,2014-08-01 07:00:00,"Railroad","GPS Ground","Suppression (Wildfire)",1397.349,"Merged with GULCH2 #0358","MODOC JULY COMPLEX","{5FA3D1E9-830E-450D-B6CC-B288134362C5}",NA,"{826D235C-63C2-4204-94DB-C28D420A0D1A}","2010-2019",10082156.7421875,26547.5611920371,-120.921779150697,41.4761514934745,19.62490234375
4117,2014,"CA","CDF CAL FIRE (State)","MVU","BANNER","014049",2014-07-03 07:00:00,2014-07-06 07:00:00,"Unknown/Unidentified","GPS Ground","Suppression (Wildfire)",177.7857,NA,NA,"{0A9F74DC-7E77-424F-95C4-D2819DA65489}",NA,NA,"2010-2019",1027527.32421875,6065.64636705965,-116.576937205487,33.0789345339503,21.963037109375
4141,2014,"CA","USF U.S. Forest Service","MDF","GULCH3","000359",2014-07-03 07:00:00,2014-08-01 07:00:00,"Railroad","GPS Ground","Suppression (Wildfire)",58.0403,"<Null>","MODOC JULY COMPLEX","{5fa3d1e9-830e-450d-b6cc-b288134362c5}",NA,"{826D235C-63C2-4204-94DB-C28D420A0D1A}","2010-2019",419003.9609375,3409.59410616684,-120.961520885931,41.4941771836284,19.146142578125
4185,2014,"CA","USF U.S. Forest Service","MDF","GULCH4","000360",2014-07-03 07:00:00,2014-08-01 07:00:00,"Railroad","GPS Ground","Suppression (Wildfire)",14.74375,"<Null>","MODOC JULY COMPLEX","{5fa3d1e9-830e-450d-b6cc-b288134362c5}",NA,"{826D235C-63C2-4204-94DB-C28D420A0D1A}","2010-2019",106457.48828125,1631.1994247829,-120.964927834293,41.5001737594498,19.0609375
4068,2014,"CA","CDF CAL FIRE (State)","LNU","MONTICELLO","00005465",2014-07-04 07:00:00,2014-07-12 07:00:00,"Miscellaneous","Infrared (IR)","Suppression (Wildfire)",6599.387,NA,NA,"{E75D8CBD-754B-4CF5-8A60-ED51AD34F0D6}",NA,NA,"2010-2019",43715292.9296875,38280.8592279973,-122.07504133236,38.536746932445,20.41103515625
4215,2014,"CA","CDF CAL FIRE (State)","NEU","PFE","014937",2014-07-04 07:00:00,2014-07-04 07:00:00,"Arson","GPS Ground","Suppression (Wildfire)",7.30496,"5 Res Structures Damages 1 Res Structure Destroyed",NA,NA,NA,NA,"2010-2019",48645.703125,1012.58562639471,-121.362669833775,38.727900501516,22.325830078125
4261,2014,"CA","NPS National Park Service","YNP","BUENA VISTA","34",2014-07-04 07:00:00,2014-07-05 07:00:00,"Campfire","GPS Ground",NA,0.1008122,"Suppressed Human Caused",NA,"{3428535A-A0BD-451E-B92C-8011E0010D4F}","34",NA,"2010-2019",651.74912750721,90.4992877550052,-119.515997595196,37.6014049350659,14.15322265625
4139,2014,"CA","CDF CAL FIRE (State)","SHU","CASSEL","006027",2014-07-05 07:00:00,2014-07-08 07:00:00,"Miscellaneous","GPS Ground","Suppression (Wildfire)",60.36771,NA,NA,"{9B1A6B3B-6DB2-4382-ACD4-AFAF5551FCBC}",NA,NA,"2010-2019",428708.41796875,3687.20657560245,-121.558221126103,40.9531879053171,18.7435546875
4252,2014,"CA","NPS National Park Service","YNP","GAYLOR","36",2014-07-05 07:00:00,2014-07-06 07:00:00,"Campfire","GPS Ground",NA,0.100825,"Suppressed Human Caused",NA,NA,"36",NA,"2010-2019",656.800346374512,90.8493069445631,-119.316026634694,37.8832689024125,10.772607421875
4143,2014,"CA","CDF CAL FIRE (State)","NEU","HUTTO","015241",2014-07-07 07:00:00,2014-07-07 07:00:00,"Unknown/Unidentified","GPS Ground","Suppression (Wildfire)",48.72859,"3 Outbuildings Destroyed",NA,"{3D4B7E51-3E6F-48EC-B08B-D82E3906573A}",NA,NA,"2010-2019",328702.11328125,3430.40932005294,-121.265313014906,39.1878230421954,23.263818359375
4224,2014,"CA","CCO Contract County","VNC","STAFFORD","0042893",2014-07-07 07:00:00,2014-07-07 07:00:00,"Unknown/Unidentified","Unknown","Suppression (Wildfire)",2.321082,"VisiNet 8 acres Federal fire # 573",NA,NA,"",NA,"2010-2019",13745.109375,609.829662690384,-118.863818905383,34.1369924904425,20.015283203125
4153,2014,"CA","CDF CAL FIRE (State)","MEU","SHIMMINS","006440",2014-07-09 07:00:00,2014-07-15 07:00:00,"Equipment Use","Photo Interpretation","Suppression (Wildfire)",26.36865,NA,NA,NA,NA,NA,"2010-2019",179565.74609375,1747.39293095125,-123.372077259934,39.521654815178,20.957666015625
4066,2014,"CA","CDF CAL FIRE (State)","SHU","BULLY","006248",2014-07-11 07:00:00,2014-07-23 07:00:00,"Vehicle","Mixed Methods","Suppression (Wildfire)",12658.74,NA,NA,"{521E9771-6DF7-4523-A996-A3FF2715CABA}",NA,NA,"2010-2019",88582432.484375,63464.925271929,-122.790501271678,40.4586416574656,25.63369140625
4082,2014,"CA","USF U.S. Forest Service","SQF","NICOLLS","002381",2014-07-11 07:00:00,2014-07-11 07:00:00,"Miscellaneous","Unknown","Suppression (Wildfire)",1679.217,"<Null>",NA,"{2CCDA2BF-52B2-4616-9714-A9F85198D7E3}",NA,NA,"2010-2019",10308705.65625,18933.1083496279,-118.141137579886,35.6300773257248,21.14638671875
4249,2014,"CA","NPS National Park Service","YNP","LYELL","40",2014-07-12 07:00:00,2014-07-12 07:00:00,"Campfire","GPS Ground",NA,0.1008292,"Suppressed Human Caused",NA,"{619B8453-BB2E-4D22-A6AB-340EC659DAF3}","40",NA,"2010-2019",653.722160339355,90.6361679751654,-119.324496139084,37.7078718352023,9.32631835937502
4217,2014,"CA","NPS National Park Service","YNP","MORRISON","52",2014-07-14 07:00:00,2014-07-25 07:00:00,"Lightning","GPS Ground",NA,5.013685,"Suppressed Lightning Ignited",NA,"{00484AB8-8761-40A6-8F22-FDD20075D668}","52",NA,"2010-2019",32662.5060472488,640.66305979516,-119.619229445961,37.8852884892514,15.844384765625
4274,2014,"CA","NPS National Park Service","YNP","LUKENS","49",2014-07-14 07:00:00,2014-07-28 07:00:00,"Lightning","GPS Ground",NA,0.1007975,"Managed Lightning Ignited",NA,"{23A34FB5-837F-48CC-9EB8-7063DC4812B6}","49",NA,"2010-2019",656.180959582329,90.8064597229068,-119.618012752379,37.8585718435021,16.00283203125
4280,2014,"CA","NPS National Park Service","YNP","ASPEN","50",2014-07-14 07:00:00,2014-07-16 07:00:00,"Lightning","GPS Ground",NA,0.1007821,"Suppressed Lightning Ignited",NA,"{42AF0C40-917B-4D85-9E51-9C9F78DBF1B1}","50",NA,"2010-2019",655.385062158108,90.7513723641603,-119.779312733665,37.8194218160301,18.223779296875
4174,2014,"CA","NPS National Park Service","YNP","CATHEDRAL","54",2014-07-15 07:00:00,2014-10-31 07:00:00,"Lightning","GPS Ground",NA,19.05804,"Managed Lightning Ignited",NA,"{1A547D09-8068-41B2-8F0B-7B9A042444F5}","54",NA,"2010-2019",123949.515625,2108.11870745199,-119.395003817538,37.8636703826018,14.202294921875
4178,2014,"CA","USF U.S. Forest Service","SHF","LAKIN","002184",2014-07-15 07:00:00,2014-07-29 07:00:00,"Lightning","GPS Ground","Suppression (Wildfire)",17.33459,"<Null>",NA,"{5500A958-A65B-4320-AA41-5112C94C9B41}",NA,NA,"2010-2019",124686.56640625,2578.92710539366,-121.547782977519,41.3750392831434,23.29677734375
4207,2014,"CA","NPS National Park Service","YNP","STARR KING","53",2014-07-15 07:00:00,2014-11-03 08:00:00,"Lightning","GPS Ground",NA,10.18724,"Suppressed Lightning Ignited",NA,"{A9F2EEB4-7DF2-42CB-A48B-D551C49976D6}","53",NA,"2010-2019",66001.88671875,1165.72588100307,-119.468667204394,37.7206611793888,14.358056640625
4218,2014,"CA","NPS National Park Service","YNP","LEMBERT","55",2014-07-15 07:00:00,2014-10-31 07:00:00,"Lightning","GPS Ground",NA,4.443912,"Managed Lightning Ignited",NA,"{16EE1157-CA0D-42FA-A04A-A6097D493A6D}","55",NA,"2010-2019",28919.734375,1048.69047236354,-119.318024076413,37.8860936391387,13.87099609375
4228,2014,"CA","NPS National Park Service","YNP","RANCHERIA","62",2014-07-15 07:00:00,2014-07-26 07:00:00,"Lightning","GPS Ground",NA,1.597328,"Suppressed Lightning Ignited",NA,"{961B882B-610F-40D9-B3CA-DB5404115797}","62",NA,"2010-2019",10422.41796875,484.400542782797,-119.594276165302,37.9838481313832,14.480126953125
4088,2014,"CA","NPS National Park Service","YNP","DARK HOLE","57",2014-07-16 07:00:00,2014-09-27 07:00:00,"Lightning","GPS Ground",NA,1076.479,"Managed Lightning Ignited",NA,"{966E1EEB-DD6F-45FD-941F-AFAAA618E67E}","57",NA,"2010-2019",6992221.73828125,14921.8613826829,-119.618179306308,37.8159645514017,14.495263671875
4253,2014,"CA","NPS National Park Service","YNP","MORAINE","58",2014-07-16 07:00:00,2014-07-20 07:00:00,"Lightning","GPS Ground",NA,0.1008221,"Managed Lightning Ignited",NA,"{A431DA8E-91B1-405B-9F92-7A5CBF6D0F47}","58",NA,"2010-2019",651.955675721169,90.5136268464646,-119.417689487856,37.6095626723327,13.591455078125
4276,2014,"CA","NPS National Park Service","YNP","WOLF","59",2014-07-16 07:00:00,2014-07-20 07:00:00,"Lightning","GPS Ground",NA,0.100795,"Managed Lightning Ignited",NA,"{CF7D4797-16BB-43C8-9F79-F004B4A93825}","59",NA,"2010-2019",656.199153840542,90.8077186401125,-119.644112283639,37.8604951590175,14.513818359375
4150,2014,"CA","USF U.S. Forest Service","PNF","CHANCE","001223",2014-07-17 07:00:00,2014-07-18 07:00:00,"Lightning","Other Imagery","Suppression (Wildfire)",28.6142,NA,NA,"{32CE1EB0-1D48-4957-82CD-3E36C9909C15}",NA,NA,"2010-2019",196854.39453125,1780.09749959164,-120.200263789643,39.8762948966755,20.017724609375
4130,2014,"CA","BLM Bureau of Land Management","BBD","BODIE","000961",2014-07-18 07:00:00,2014-07-23 07:00:00,"Lightning","Mixed Methods","Suppression (Wildfire)",93.04613,NA,NA,NA,NA,NA,"2010-2019",609924.76953125,4821.17551039033,-119.046255058109,38.1540179339962,14.010400390625
4264,2014,"CA","NPS National Park Service","YNP","COYOTE","00000065",2014-07-19 07:00:00,2014-07-20 07:00:00,"Lightning","GPS Ground",NA,0.1008057,"Managed Lightning Ignited",NA,"{AC98BF4D-C7C6-422F-B70C-1909417385D0}","65",NA,"2010-2019",655.440200328827,90.7551897841022,-119.537113700463,37.8138650781107,11.89296875
4072,2014,"CA","NPS National Park Service","YNP","MEADOW","101",2014-07-20 07:00:00,2014-11-03 08:00:00,"Lightning","GPS Ground",NA,4774.47,"Suppressed Lightning Ignited",NA,"{978F1C10-9015-4D66-805A-12AD5D39DD77}","101",NA,"2010-2019",30955279.921875,45209.7663669905,-119.48141122994,37.7473109597797,11.96865234375
4159,2014,"CA","CDF CAL FIRE (State)","LNU","LAKEVIEW","005991",2014-07-20 07:00:00,2014-07-20 07:00:00,"Unknown/Unidentified","Hand-drawn","Suppression (Wildfire)",24.13652,NA,NA,NA,NA,NA,"2010-2019",163393.921875,1592.19842009817,-122.540637508172,39.3133787650665,23.86953125
4184,2014,"CA","USF U.S. Forest Service","MDF","MUD ","000481",2014-07-20 07:00:00,2014-08-01 07:00:00,"Lightning","GPS Ground","Suppression (Wildfire)",14.85617,NA,NA,"{D7A81C3E-304E-47DB-B572-3E2AF9E2D4F1}",NA,NA,"2010-2019",107249.23046875,1550.79420689275,-121.169734785584,41.494104852238,21.62978515625
4220,2014,"CA","NPS National Park Service","YNP","WOODLOT","66",2014-07-20 07:00:00,2014-07-21 07:00:00,"Lightning","GPS Ground",NA,3.254877,"Suppressed Lightning Ignited",NA,"{19AAE19E-B84F-4A0F-9EDC-946A81A35238}","66",NA,"2010-2019",21062.63671875,736.307608538985,-119.797907127956,37.6757076860966,18.940576171875
4225,2014,"CA","NPS National Park Service","YNP","CRANE","81",2014-07-20 07:00:00,2014-07-29 07:00:00,"Lightning","GPS Ground",NA,2.27048,"Suppressed Lightning Ignited",NA,"{EDA29E44-0B08-4C04-B6F8-6D58D0F68EE3}","81",NA,"2010-2019",14735.97265625,696.79945706572,-119.805876630996,37.786069900715,17.4515625
4229,2014,"CA","NPS National Park Service","YNP","WAPAMA","74",2014-07-20 07:00:00,2014-07-25 07:00:00,"Lightning","GPS Ground",NA,1.468078,"Managed Lightning Ignited",NA,"{020D0D95-EEAC-498F-839F-5F27DBB19501}","74",NA,"2010-2019",9585.80206799507,347.071666122471,-119.749727829601,37.9689021074006,14.31044921875
4230,2014,"CA","NPS National Park Service","YNP","ELBOW","78",2014-07-20 07:00:00,2014-08-07 07:00:00,"Lightning","GPS Ground",NA,1.007481,"Managed Lightning Ignited",NA,"{9D886ACC-C6D3-4C40-ADB9-830C734673DE}","78",NA,"2010-2019",6576.46789371967,287.475795303071,-119.41031280047,37.9584851866369,11.143212890625
4231,2014,"CA","NPS National Park Service","YNP","DOUBLE ROCK","118",2014-07-20 07:00:00,2014-10-31 07:00:00,"Lightning","GPS Ground",NA,1.007334,"Managed Lightning Ignited",NA,"{93090145-FDF7-4657-B3BB-1BDE336BEBF3}","118",NA,"2010-2019",6567.01737594604,287.269166770842,-119.58406107449,37.9110723372038,12.2337890625
4241,2014,"CA","NPS National Park Service","YNP","MCSWAIN","87",2014-07-20 07:00:00,2014-07-31 07:00:00,"Lightning","GPS Ground",NA,0.2482686,"Suppressed Lightning Ignited",NA,"{BB62E81F-AE63-4D2C-8613-9B056FE4E8D4}","87",NA,"2010-2019",1617.35188013315,142.563119843607,-119.619212889039,37.8847451616943,12.865625
4243,2014,"CA","NPS National Park Service","YNP","DEEP","80",2014-07-20 07:00:00,2014-07-26 07:00:00,"Lightning","GPS Ground",NA,0.2482518,"Suppressed Lightning Ignited",NA,"{D6C15D51-EAE0-4E6A-AC22-A2FF2189C98A}","80",NA,"2010-2019",1620.57693660259,142.705186992954,-119.663506158524,37.9604068236669,12.97890625
4254,2014,"CA","NPS National Park Service","YNP","RED","69",2014-07-20 07:00:00,2014-07-25 07:00:00,"Lightning","GPS Ground",NA,0.1008187,"Managed Lightning Ignited",NA,"{8530C561-8A19-4DA1-B062-8FFFD1A744BA}","69",NA,"2010-2019",652.846335947514,90.5754327172167,-119.44450975156,37.6618392915936,12.65859375
4255,2014,"CA","NPS National Park Service","YNP","BUCK","67",2014-07-20 07:00:00,2014-07-21 07:00:00,"Lightning","GPS Ground",NA,0.1008167,"Suppressed Lightning Ignited",NA,"{F586C781-A715-4D46-B3E0-1C3D3F645444}","67",NA,"2010-2019",650.860579431057,90.4375765912637,-119.499711428903,37.5485724260594,15.285546875
4257,2014,"CA","NPS National Park Service","YNP","OTTOWAY","71",2014-07-20 07:00:00,2014-07-25 07:00:00,"Lightning","GPS Ground",NA,0.1008155,"Managed Lightning Ignited",NA,"{BD2E2D74-737C-4D0F-95C8-11DDEEEDD21D}","71",NA,"2010-2019",652.6146094203,90.5593565033621,-119.478910669919,37.6497540422407,13.3958984375
4258,2014,"CA","NPS National Park Service","YNP","ROYAL","68",2014-07-20 07:00:00,2014-07-25 07:00:00,"Lightning","GPS Ground",NA,0.100814,"Managed Lightning Ignited",NA,"{AD4EA0CE-C285-496F-B866-B3CF4784ED5F}","68",NA,"2010-2019",651.514190137386,90.4829750498365,-119.507546075032,37.5872051240373,14.86416015625
4259,2014,"CA","NPS National Park Service","YNP","HOOVER","70",2014-07-20 07:00:00,2014-07-23 07:00:00,"Lightning","GPS Ground",NA,0.100814,"Suppressed Lightning Ignited",NA,"{0C236111-0F1D-425B-806C-F155671A6A25}","70",NA,"2010-2019",652.650763809681,90.5618649296868,-119.483646878984,37.65239011818,13.44765625
4268,2014,"CA","NPS National Park Service","YNP","MCGURK","72",2014-07-20 07:00:00,2014-07-25 07:00:00,"Lightning","GPS Ground",NA,0.1008011,"Managed Lightning Ignited",NA,"{474ED84D-B941-47F1-A282-8B9EEC5C8085}","72",NA,"2010-2019",653.281050801277,90.6055837104825,-119.61474619411,37.6931551599083,15.19521484375
4278,2014,"CA","NPS National Park Service","YNP","SMOKEY","79",2014-07-20 07:00:00,2014-07-25 07:00:00,"Lightning","GPS Ground",NA,0.1007886,"Suppressed Lightning Ignited",NA,"{A395B1A8-3592-409F-914B-D4BFC4868C12}","79",NA,"2010-2019",655.504305183887,90.7596277988282,-119.712768069475,37.8237450092586,15.116357421875
4281,2014,"CA","NPS National Park Service","YNP","GIBSON","77",2014-07-20 07:00:00,2014-07-25 07:00:00,"Lightning","GPS Ground",NA,0.1007801,"Managed Lightning Ignited",NA,"{C3582CE1-17E0-4B29-BA65-965FBA7ACD42}","77",NA,"2010-2019",658.443068504333,90.9628475087208,-119.740687262499,37.9913158344091,13.882470703125
4282,2014,"CA","NPS National Park Service","YNP","FALLS","76",2014-07-20 07:00:00,2014-07-25 07:00:00,"Lightning","GPS Ground",NA,0.1007795,"Managed Lightning Ignited",NA,"{EE629419-624B-4D2F-864D-56CCB661D278}","76",NA,"2010-2019",658.403347253799,90.9601037535714,-119.750379666272,37.989302390702,14.104150390625
4283,2014,"CA","NPS National Park Service","YNP","LOOKOUT","73",2014-07-20 07:00:00,2014-07-25 07:00:00,"Lightning","GPS Ground",NA,0.1007689,"Managed Lightning Ignited",NA,"{8E61F757-1400-4F6E-BE55-AF54C9AF81DB}","73",NA,"2010-2019",657.001287043095,90.8632030416385,-119.871677440527,37.9150107958157,17.512353515625
4187,2014,"CA","CDF CAL FIRE (State)","NEU","IOWA","016579",2014-07-21 07:00:00,2014-07-21 07:00:00,"Miscellaneous","GPS Ground","Suppression (Wildfire)",14.22953,"Misc/Shooting",NA,"{355B8F03-F58F-4E51-9FA3-3911BE1A6089}",NA,NA,"2010-2019",95751.70703125,1564.07036496191,-120.928048660635,39.1009899820613,18.96767578125
4134,2014,"CA","CDF CAL FIRE (State)","RRU","SABINA","076635",2014-07-23 07:00:00,2014-07-24 07:00:00,"Unknown/Unidentified","GPS Air","Suppression (Wildfire)",77.76864,NA,NA,"{053C890F-F00D-4EB5-B57B-090B630BCB5D}",NA,NA,"2010-2019",454758.296875,2893.80506713826,-116.917919837215,33.5931363444295,20.96279296875
4244,2014,"CA","NPS National Park Service","KNP","CENTER PEAK","210",2014-07-24 07:00:00,2014-10-01 07:00:00,"Lightning","GPS Ground",NA,0.2108697,"210",NA,"{44924076-E338-4234-A46F-09882499771D}","210",NA,"2010-2019",1330.671875,263.551905350773,-118.369920406923,36.7188258527713,15.129541015625
4263,2014,"CA","NPS National Park Service","YNP","NORTH","82",2014-07-24 07:00:00,2014-07-29 07:00:00,"Campfire","GPS Ground",NA,0.1008057,"Suppressed Human Caused",NA,"{96147D36-7349-46A1-97DE-E7C16DC19119}","82",NA,"2010-2019",654.521660745144,90.6915749357559,-119.560102865606,37.7619451775855,10.58291015625
4073,2014,"CA","NPS National Park Service","YNP","EL PORTAL","83",2014-07-26 07:00:00,2014-11-20 08:00:00,"Campfire","GPS Ground",NA,4744.617,"Suppressed Human Caused",NA,"{28E37A03-A3BA-46DC-9181-11240CDF98BF}","83",NA,"2010-2019",30730346.65625,33058.1828577737,-119.781739147589,37.709197678853,15.152001953125
4075,2014,"CA","CDF CAL FIRE (State)","AEU","SAND","018237",2014-07-26 07:00:00,2014-07-30 07:00:00,"Vehicle","GPS Ground","Suppression (Wildfire)",4239.272,NA,NA,"{5EFA8898-D56C-4F36-BD56-320E9E8340B9}",NA,NA,"2010-2019",28110446.1796875,37705.9885205889,-120.786075221597,38.5740224842392,20.445947265625
4064,2014,"CA","USF U.S. Forest Service","SNF","FRENCH","001619",2014-07-27 07:00:00,2014-08-18 07:00:00,"Campfire","Infrared (IR)","Suppression (Wildfire)",13831.64,"<Null>",NA,"{47C63FE9-1726-4840-B183-9335D91A9029}",NA,NA,"2010-2019",88612906.7539062,74291.2012158161,-119.355304406888,37.2980314048807,19.81240234375
4101,2014,"CA","CDF CAL FIRE (State)","BTU","WEB","010700",2014-07-28 07:00:00,2014-08-27 07:00:00,"Equipment Use","GPS Ground","Suppression (Wildfire)",377.856,NA,NA,"{04266B77-7726-40D5-8E09-49114417EA0A}",NA,NA,"2010-2019",2606963.578125,8040.4801296602,-121.662411756066,39.9752152782575,24.402978515625
4167,2014,"CA","USF U.S. Forest Service","SHF","RAYS","002419",2014-07-28 07:00:00,2014-10-15 07:00:00,"Lightning","Unknown","Suppression (Wildfire)",20.834,NA,"JULY COMPLEX","{B1BE0563-D682-4717-9457-70E55F52255A}",NA,"{C60F8D84-5F11-4B47-9756-7B44C56BBA8F}","2010-2019",148381.953125,2363.90489463359,-123.095052766221,41.0488693233155,20.29091796875
4168,2014,"CA","CDF CAL FIRE (State)","MEU","SPRING","007139",2014-07-28 07:00:00,2014-08-16 07:00:00,"Unknown/Unidentified","Photo Interpretation","Suppression (Wildfire)",20.75631,NA,NA,NA,NA,NA,"2010-2019",143248.80859375,1874.24724378414,-123.665041485061,39.9857073245005,20.8841796875
4247,2014,"CA","CCO Contract County","VNC","TELEGRAPH","0047972",2014-07-28 07:00:00,2014-07-28 07:00:00,"Unknown/Unidentified","GPS Ground","Suppression (Wildfire)",0.115544,NA,NA,NA,"",NA,"2010-2019",688.46875,109.249554961056,-118.694906553456,34.3986852144046,22.361474609375
4069,2014,"CA","USF U.S. Forest Service","SHF","COFFEE","00002410",2014-07-29 07:00:00,2014-10-30 07:00:00,"Lightning","Unknown","Suppression (Wildfire)",6256.271,NA,"COFFEE COMPLEX","{7BEED09C-7C42-4580-A78F-2FC2F246C98E}",NA,"{53F218C9-00D0-4945-92CC-8A71B62956DA}","2010-2019",44698497.6914062,37130.5711335408,-122.823040912358,41.1531624139481,22.699365234375
4138,2014,"CA","USF U.S. Forest Service","TNF","HARDING","001215",2014-07-29 07:00:00,2014-11-03 08:00:00,"Lightning","GPS Ground","Suppression (Wildfire)",63.1334,NA,NA,"{9CB49618-0475-417A-A636-7CF93A5F350F}",NA,NA,"2010-2019",431081.80859375,5970.36891693393,-120.316040588441,39.6153959485423,16.189599609375
4156,2014,"CA","CDF CAL FIRE (State)","MVU","WILDCAT_4","015980",2014-07-29 07:00:00,2014-07-30 07:00:00,"Vehicle","GPS Ground","Suppression (Wildfire)",24.78455,NA,NA,NA,NA,NA,"2010-2019",142830.75390625,5546.17681942425,-116.843060539649,32.9502491266509,22.30654296875
4165,2014,"CA","USF U.S. Forest Service","TNF","ELEPHANT","001217",2014-07-29 07:00:00,2014-08-07 07:00:00,"Lightning","GPS Ground","Suppression (Wildfire)",21.23305,NA,NA,"{942A4909-CCC6-4F3A-8C3B-8212445CFBE0}",NA,NA,"2010-2019",145287.125,1701.48356123031,-120.215319180307,39.6887099021707,17.367578125
4180,2014,"CA","USF U.S. Forest Service","KNF","LEEF","005443",2014-07-29 07:00:00,2014-07-29 07:00:00,"Lightning","Unknown","Suppression (Wildfire)",16.63961,NA,"JULY COMPLEX","{25EB25C4-1989-4824-9C9D-26B4F40C25C8}",NA,"{C60F8D84-5F11-4B47-9756-7B44C56BBA8F}","2010-2019",119218.40234375,2535.09582075149,-122.927390694868,41.2459924009267,22.182763671875
4058,2014,"CA","USF U.S. Forest Service","LNF","BALD","003479",2014-07-30 07:00:00,2014-08-15 07:00:00,"Lightning","Mixed Methods","Suppression (Wildfire)",39752.2,"<Null>",NA,"{A4CDC414-C3D1-4175-9CF3-DD0674AEE1EF}",NA,NA,"2010-2019",281617429.917969,115427.87771551,-121.30848028124,40.871946061316,19.414453125
4059,2014,"OR","OTH Other / Unknown Agency",NA,"OREGON GULCH","005589",2014-07-30 07:00:00,2014-08-13 07:00:00,"Lightning","Mixed Methods","Suppression (Wildfire)",35111.25,"Oregon Department of Forestry",NA,NA,NA,NA,"2010-2019",257701300.511719,91648.094408322,-122.259512120852,42.0287288559724,19.4193359375
4060,2014,"CA","USF U.S. Forest Service","KNF","WHITES","005511",2014-07-30 07:00:00,2014-09-25 07:00:00,"Lightning","Unknown","Suppression (Wildfire)",33794.44,NA,"JULY COMPLEX","{4D613068-92CE-4823-97BC-C9027090DF64}",NA,"{C60F8D84-5F11-4B47-9756-7B44C56BBA8F}","2010-2019",242634135.734375,175595.080506412,-123.036749040216,41.3146249362613,21.59658203125
4061,2014,"CA","USF U.S. Forest Service","KNF","BEAVER","005497",2014-07-30 07:00:00,2014-10-08 07:00:00,"Lightning","Mixed Methods","Suppression (Wildfire)",32493.4,"Merged with Cleghorn #5496",NA,"{7E915F8D-4573-452B-915B-35850A954DA1}",NA,NA,"2010-2019",237442299.585938,184785.729757576,-122.865962746678,41.887743603057,20.362451171875
4065,2014,"CA","CDF CAL FIRE (State)","LMU","DAY","003472",2014-07-30 07:00:00,2014-08-13 07:00:00,"Lightning","GPS Ground","Suppression (Wildfire)",13150.67,NA,NA,"{A586C5BA-616A-4F25-9945-BC6A18710677}",NA,NA,"2010-2019",94236517.8398438,69253.8232299127,-121.305331336874,41.2514094206238,19.312158203125
4067,2014,"CA","CDF CAL FIRE (State)","MEU","LODGE","007202",2014-07-30 07:00:00,2014-09-18 07:00:00,"Lightning","GPS Air","Suppression (Wildfire)",12533.18,NA,"LODGE COMPLEX","{3553091D-A69E-4296-9C6E-8A4BAF47F605}",NA,"{3553091D-A69E-4296-9C6E-8A4BAF47F605}","2010-2019",85991479.234375,55614.8864146717,-123.648516930551,39.7830585943552,19.551904296875
4070,2014,"CA","USF U.S. Forest Service","KNF","LITTLE DEER","005575",2014-07-30 07:00:00,2014-08-12 07:00:00,"Lightning","Unknown","Suppression (Wildfire)",5499.707,"<Null>",NA,"{BAB49FDD-1156-49B7-A905-1B7209508217}",NA,NA,"2010-2019",39923459.0429688,33708.921186437,-122.108905254283,41.6738780169844,22.1927734375
4077,2014,"CA","USF U.S. Forest Service","KNF","LOG","005514",2014-07-30 07:00:00,2014-08-28 07:00:00,"Lightning","Unknown","Suppression (Wildfire)",3636.853,NA,"JULY COMPLEX","{C972D08B-D167-437F-921A-07968BC250F3}",NA,"{C60F8D84-5F11-4B47-9756-7B44C56BBA8F}","2010-2019",26292428.0507812,31397.0443540948,-123.044964363665,41.5404627202009,22.093408203125
4170,2014,"CA","CDF CAL FIRE (State)","MEU","BLUE (ALK 4-3)","007216",2014-07-30 07:00:00,2014-08-31 07:00:00,"Lightning","Photo Interpretation","Suppression (Wildfire)",20.26981,NA,NA,NA,NA,NA,"2010-2019",139314.53515625,1390.51287319565,-123.592058281144,39.8430973118603,19.588525390625
4062,2014,"CA","USF U.S. Forest Service","LNF","EILER","003502",2014-07-31 07:00:00,2014-08-24 07:00:00,"Miscellaneous","Unknown","Suppression (Wildfire)",31995.22,"<Null>",NA,"{AC340050-5431-4BA0-AABF-997E321B9D97}",NA,NA,"2010-2019",226121888.636719,131216.749269614,-121.55729538256,40.7918709669419,21.621728515625
4166,2014,"CA","CDF CAL FIRE (State)","HUU","PECWAN","004856",2014-08-01 07:00:00,2014-08-01 07:00:00,"Unknown/Unidentified","GPS Ground","Suppression (Wildfire)",21.19531,NA,NA,NA,NA,NA,"2010-2019",152219.44140625,2670.77408783332,-123.854187512486,41.3239995967759,17.03359375
4208,2014,"CA","CDF CAL FIRE (State)","HUU","MCLELLON","004858",2014-08-01 07:00:00,2014-08-01 07:00:00,"Unknown/Unidentified","GPS Ground","Suppression (Wildfire)",10.14866,NA,NA,NA,NA,NA,"2010-2019",70855.0145177841,945.414861196133,-123.703270002631,40.4695557772493,18.38173828125
4251,2014,"CA","NPS National Park Service","YNP","EVELYN","91",2014-08-01 07:00:00,2014-08-02 07:00:00,"Lightning","GPS Ground",NA,0.1008261,"Managed Lightning Ignited",NA,"{92420714-F826-4B48-A4A9-9BD38418D6A5}","91",NA,"2010-2019",655.504483938217,90.7596401783873,-119.32166800229,37.810008397449,10.889306640625
4214,2014,"CA","NPS National Park Service","KNP","LOWER TENT MDW","227",2014-08-02 07:00:00,2014-10-01 07:00:00,"Campfire","GPS Ground",NA,7.994719,"227",NA,"{ED03AFF3-3649-4277-962B-E3017500934D}","227",NA,"2010-2019",50587.69140625,1782.14005378588,-118.578492123553,36.8239211166265,11.98134765625
4262,2014,"CA","NPS National Park Service","YNP","PORCUPINE","92",2014-08-05 07:00:00,2014-08-06 07:00:00,"Unknown/Unidentified","GPS Ground",NA,0.1008059,"Suppressed Human Caused",NA,"{59288178-ABF1-462D-ABBF-CE88631E5F94}","92",NA,"2010-2019",654.872004449368,90.7158437780506,-119.560026343892,37.781688317585,8.70742187500002
4269,2014,"CA","NPS National Park Service","YNP","CREEK","93",2014-08-07 07:00:00,2014-08-08 07:00:00,"Lightning","GPS Ground",NA,0.100801,"Suppressed Lightning Ignited",NA,"{C74F6828-3668-4D6E-8DC8-C69E48C72D5F}","93",NA,"2010-2019",655.486484706402,90.758394099798,-119.599738045678,37.8181898446968,10.17080078125
4270,2014,"CA","NPS National Park Service","YNP","CAMPGROUND","94",2014-08-07 07:00:00,2014-08-08 07:00:00,"Lightning","GPS Ground",NA,0.1008004,"Suppressed Lightning Ignited",NA,"{BD694BC6-0013-4D7D-B7ED-9972F1117388}","94",NA,"2010-2019",655.806857526302,90.780570736737,-119.601846276454,37.8364726765647,10.068017578125
4277,2014,"CA","NPS National Park Service","YNP","SNOW","102",2014-08-07 07:00:00,2014-10-31 07:00:00,"Lightning","GPS Ground",NA,0.1007903,"Managed Lightning Ignited",NA,"{084E73E7-ADA7-49FA-BF71-15FF7D496905}","102",NA,"2010-2019",660.784716844559,91.1244514284452,-119.583012863534,38.1170051310032,8.71303710937502
4226,2014,"CA","NPS National Park Service","YNP","HAZEL","96",2014-08-08 07:00:00,2014-08-10 07:00:00,"Lightning","GPS Ground",NA,2.074681,"Suppressed Lightning Ignited",NA,"{53CEBD4A-FA3C-4C84-B837-462D26A497BB}","96",NA,"2010-2019",13462.46484375,666.172847024273,-119.85595992021,37.7785668786038,15.398828125
4273,2014,"CA","NPS National Park Service","YNP","GRANITE","95",2014-08-08 07:00:00,2014-08-09 07:00:00,"Lightning","GPS Ground",NA,0.1007993,"Suppressed Lightning Ignited",NA,"{795573A6-F372-44F1-B7EE-249412A5E6BF}","95",NA,"2010-2019",655.462788581848,90.7567536077688,-119.595657064547,37.8174868657204,10.311669921875
4103,2014,"CA","CDF CAL FIRE (State)","LNU","31","006737",2014-08-09 07:00:00,2014-08-09 07:00:00,"Unknown/Unidentified","GPS Air","Suppression (Wildfire)",367.9901,NA,NA,NA,NA,NA,"2010-2019",2439709.765625,7550.03677430075,-122.010106611552,38.5678142053438,22.100732421875
4175,2014,"CA","CDF CAL FIRE (State)","BDU","KEOUGH","010406",2014-08-09 07:00:00,2014-08-20 07:00:00,"Unknown/Unidentified","GPS Ground","Suppression (Wildfire)",18.15949,NA,NA,"{CFD72ED9-0885-4FFC-B8BA-3B5A89DA642C}",NA,NA,"2010-2019",116191.6015625,1969.12734045555,-118.357781004905,37.250031831398,16.279443359375
4056,2014,"CA","USF U.S. Forest Service","KNF","FRYING PAN","006008",2014-08-11 07:00:00,2014-09-30 07:00:00,"Lightning","Infrared (IR)","Suppression (Wildfire)",133177.4,"Merged Delta/Faulkstein/Man","HAPPY CAMP COMPLEX","{DAE5294F-47EB-47B5-BF15-98C09F55B897}",NA,"{6787D235-42F9-4973-A979-83D823328D5F}","2010-2019",967551675.246094,402078.275736902,-123.200543247523,41.7003371583718,19.196923828125
4118,2014,"CA","USF U.S. Forest Service","KNF","KEMPER","006010",2014-08-11 07:00:00,2014-08-29 07:00:00,"Lightning","Unknown","Suppression (Wildfire)",173.4605,NA,"HAPPY CAMP COMPLEX","{69640229-8AC0-470D-8E01-0EBE3DBA6016}",NA,"{6787D235-42F9-4973-A979-83D823328D5F}","2010-2019",1269134.1328125,6335.1102968018,-123.435393057364,41.9280365526483,20.30556640625
4149,2014,"CA","USF U.S. Forest Service","KNF","JACKSON","006001",2014-08-11 07:00:00,2014-08-14 07:00:00,"Lightning","Unknown","Suppression (Wildfire)",28.74288,NA,"HAPPY CAMP COMPLEX","{B4F9BDC8-12C4-4617-9E08-D27828FDB25A}",NA,"{6787D235-42F9-4973-A979-83D823328D5F}","2010-2019",209849.7890625,2858.12774955132,-123.339276176646,41.8592389629813,19.562646484375
4154,2014,"CA","USF U.S. Forest Service","KNF","SUTCLIFFE","006004",2014-08-11 07:00:00,2014-08-14 07:00:00,"Lightning","Unknown","Suppression (Wildfire)",26.32586,NA,"HAPPY CAMP COMPLEX","{FC4199BC-A8A9-49A5-AD6D-D53C418E84F5}",NA,"{6787D235-42F9-4973-A979-83D823328D5F}","2010-2019",192683.0078125,2002.92363676049,-123.506603453493,41.9394205350411,20.65859375
4181,2014,"CA","USF U.S. Forest Service","KNF","THOMPSON","006011",2014-08-11 07:00:00,2014-08-14 07:00:00,"Lightning","Unknown","Suppression (Wildfire)",16.55262,NA,"HAPPY CAMP COMPLEX","{41E340CF-FA2D-4ECB-8EF7-84F94ABAD54C}",NA,"{6787D235-42F9-4973-A979-83D823328D5F}","2010-2019",120951.5703125,1651.74715277934,-123.370545205717,41.8864703194241,19.6986328125
4188,2014,"CA","NPS National Park Service","KNP","KERN","235",2014-08-11 07:00:00,2014-11-03 08:00:00,"Lightning","GPS Ground",NA,14.00865,"235",NA,"{06D8883B-38F7-42F8-9063-CDD4736AAB66}","235",NA,"2010-2019",87771.328125,1466.58789158997,-118.413670023548,36.4404510374033,13.394677734375
4193,2014,"CA","USF U.S. Forest Service","KNF","TIMS","006009",2014-08-11 07:00:00,2014-08-12 07:00:00,"Lightning","Unknown","Suppression (Wildfire)",13.16799,NA,"HAPPY CAMP COMPLEX","{9363B271-E8C4-4050-8B3D-3779B3D37A77}",NA,"{6787D235-42F9-4973-A979-83D823328D5F}","2010-2019",96249.8984375,1414.68546874713,-123.311484749529,41.8964773265682,19.6478515625
4127,2014,"CA","USF U.S. Forest Service","MDF","LITTLE ","000795",2014-08-12 07:00:00,2014-09-18 07:00:00,"Lightning","GPS Ground","Suppression (Wildfire)",100.7245,"<Null>",NA,"{23A394B2-0DC0-4567-BB71-7349F6C45E89}",NA,NA,"2010-2019",727587.9765625,4140.44543663368,-121.268975122237,41.5138500282627,15.746728515625
4200,2014,"CA","USF U.S. Forest Service","KNF","ETHEL","00005977",2014-08-12 07:00:00,2014-09-15 07:00:00,"Lightning","Hand-drawn","Suppression (Wildfire)",11.61994,"perimeter for 2014, not previously submitted",NA,"{464DFBBB-431B-4DE3-8E5C-C0B10DFAFC7A}",NA,NA,"2010-2019",83759.46484375,1159.42075826214,-123.21282000763,41.4446635912329,19.117333984375
4116,2014,"CA","USF U.S. Forest Service","ANF","SHOEMAKER","003975",2014-08-14 07:00:00,2014-09-14 07:00:00,"Lightning","Mixed Methods","Suppression (Wildfire)",190.0584,"<Null>",NA,"{8868581C-AB38-42BE-98E2-D5320B22E308}",NA,NA,"2010-2019",1128905.57421875,4299.90762192861,-117.763517454734,34.2655655669451,18.86708984375
4239,2014,"CA","NPS National Park Service","SMP","WINERY","719",2014-08-14 07:00:00,2014-08-14 07:00:00,"Unknown/Unidentified","Unknown",NA,0.250273,"675702",NA,NA,"719",NA,"2010-2019",1480.5859375,136.576496750736,-118.8245,34.093972,19.029443359375
4199,2014,"CA","CDF CAL FIRE (State)","MVU","BORDER_8","017305",2014-08-16 07:00:00,2014-08-17 07:00:00,"Miscellaneous","GPS Ground","Suppression (Wildfire)",12.00289,NA,NA,"{8D742312-A612-45CB-9E58-67EBD0299F6B}",NA,NA,"2010-2019",68618.12890625,1164.32066665314,-116.898670358661,32.589408091936,22.532373046875
4110,2014,"CA","USF U.S. Forest Service","ANF","TECOLOTE","004034",2014-08-17 07:00:00,2014-09-14 07:00:00,"Miscellaneous","Other Imagery","Suppression (Wildfire)",268.8589,"<Null>",NA,"{8D8D0227-351E-415A-8E35-521E1332B7A1}",NA,NA,"2010-2019",1596924.00390625,5892.85573244404,-117.863828351222,34.264542478425,21.922021484375
4122,2014,"CA","FWS U.S. Fish & Wildlife Service","KRR","CORCORAN","003127",2014-08-17 07:00:00,2014-08-17 07:00:00,"Unknown/Unidentified","GPS Ground","Suppression (Wildfire)",116.9587,"UNIT ID: KRR   JCS5",NA,NA,NA,NA,"2010-2019",719558.7265625,4606.50265116517,-119.633034152529,35.7168814725722,26.921044921875
4076,2014,"CA","CCO Contract County","KRN","WAY","027597",2014-08-18 07:00:00,2014-08-22 07:00:00,"Unknown/Unidentified","GPS Air","Suppression (Wildfire)",3882.421,"COUNTY #1427597 fed # 003148",NA,NA,NA,NA,"2010-2019",23897623.4023438,27234.8481370056,-118.463061039932,35.7370869177083,19.777978515625
4094,2014,"CA","CDF CAL FIRE (State)","MMU","JUNCTION","014633",2014-08-18 07:00:00,2014-08-25 07:00:00,"Unknown/Unidentified","GPS Ground","Suppression (Wildfire)",612.1556,NA,NA,"{48763A2F-5660-4618-9F35-0F5C669257BA}",NA,NA,"2010-2019",3927181.1328125,15675.0945283256,-119.638476592589,37.3500312469131,19.865380859375
4132,2014,"CA","USF U.S. Forest Service","TNF","HIRSCHDALE","001411",2014-08-18 07:00:00,2014-11-02 07:00:00,"Miscellaneous","GPS Ground","Suppression (Wildfire)",81.86262,NA,NA,"{CEBC7F65-6049-4F01-AD35-EA7D9182F289}",NA,NA,"2010-2019",555362.61328125,3854.97293665125,-120.086859943551,39.3887737152512,12.0111328125
4096,2014,"CA","CDF CAL FIRE (State)","SHU","OREGON","007763",2014-08-24 07:00:00,2014-08-30 07:00:00,"Vehicle","Mixed Methods","Suppression (Wildfire)",460.5652,NA,NA,"{C471F548-65EE-4CCA-BC80-F97F481B4865}",NA,NA,"2010-2019",3250516.03125,12006.7420632181,-122.952650146792,40.7459211262957,17.85830078125
4234,2014,"CA","NPS National Park Service","RWP","ENDERTS","1460",2014-08-24 07:00:00,2014-08-24 07:00:00,"Campfire","GPS Ground",NA,0.4986373,"Fire Num: 1460 Fire Code: JC7D",NA,NA,"1460",NA,"2010-2019",3650.412504673,214.17851533243,-124.15274146293,41.7269183878971,18.012109375
4250,2014,"CA","NPS National Park Service","YNP","TRIPEL","109",2014-08-27 07:00:00,2014-08-28 07:00:00,"Unknown/Unidentified","GPS Ground",NA,0.1008282,"Suppressed Human Caused",NA,"{107D0998-F1CC-4D44-9616-166988DE38EE}","109",NA,"2010-2019",653.314231872559,90.6078846717031,-119.338336229109,37.6850278042194,7.22182617187502
4198,2014,"CA","CCO Contract County","KRN","COPUS","028982",2014-08-30 07:00:00,2014-08-30 07:00:00,"Unknown/Unidentified","GPS Air","Suppression (Wildfire)",12.18606,"COUNTY #1428982",NA,NA,NA,NA,"2010-2019",73827.3515625,1850.17160242742,-119.052565427304,35.0913847635532,21.566796875
4272,2014,"CA","NPS National Park Service","YNP","EL CAP","111",2014-08-31 07:00:00,2014-08-31 07:00:00,"Unknown/Unidentified","GPS Ground",NA,0.1007993,"Suppressed Human Caused",NA,"{5105AA7E-A533-407D-864C-B50C435EF3C8}","111",NA,"2010-2019",653.819063365459,90.6428853512059,-119.6331710899,37.7244234600709,12.837060546875
4265,2014,"CA","NPS National Park Service","YNP","CARABINER","112",2014-09-01 07:00:00,2014-09-02 07:00:00,"Smoking","GPS Ground",NA,0.1008057,"Suppressed Human Caused",NA,"{88467426-A275-4DD5-B771-CE7F7EBB9ABE}","112",NA,"2010-2019",654.27989089489,90.6748233759977,-119.572096164071,37.7482551364448,10.7728515625
4256,2014,"CA","NPS National Park Service","YNP","ILLILOUETTE","113",2014-09-02 07:00:00,2014-09-03 07:00:00,"Campfire","GPS Ground",NA,0.100816,"Suppressed Human Caused",NA,"{8CF5153D-37BC-4356-BD21-FD7C64B12838}","113",NA,"2010-2019",652.774407029152,90.570442897157,-119.478828482624,37.6587066750663,12.176904296875
4131,2014,"CA","CDF CAL FIRE (State)","LNU","SARATOGA","007692",2014-09-03 07:00:00,2014-09-03 07:00:00,"Unknown/Unidentified","GPS Air","Suppression (Wildfire)",87.80218,NA,NA,"{DF60889C-5609-42F8-99E6-D9016600FBFF}",NA,NA,"2010-2019",591810.72265625,3890.96894682888,-122.987699005494,39.1599844070149,18.795556640625
4109,2014,"CA","CDF CAL FIRE (State)","MMU","BRIDGE","015818",2014-09-05 07:00:00,2014-09-14 07:00:00,"Vehicle","GPS Ground","Suppression (Wildfire)",270.0612,NA,NA,"{631C7AAD-6156-44BA-813C-BD8D0907BAB9}",NA,NA,"2010-2019",1737210.95703125,8794.35841695819,-119.736247885971,37.4519465227449,16.436669921875
4157,2014,"CA","CDF CAL FIRE (State)","HUU","HOUSE","005783",2014-09-05 07:00:00,2014-09-06 07:00:00,"Arson","GPS Ground","Suppression (Wildfire)",24.68149,NA,NA,"{6EDE5593-552F-4A3A-BACA-D0E0A6721674}",NA,NA,"2010-2019",173041.31640625,2063.32571142081,-123.899509093089,40.5225997373483,15.435693359375
4133,2014,"CA","USF U.S. Forest Service","STF","MONTGOMERY","003543",2014-09-06 07:00:00,2014-09-11 07:00:00,"Smoking","GPS Ground","Suppression (Wildfire)",78.53194,NA,NA,"{F378B108-0CCC-4E2E-BFCE-F3E7A2E4F467}","00003543",NA,"2010-2019",507940.37109375,4534.91581441148,-119.986415775174,37.6575411900452,17.523828125
4195,2014,"CA","FWS U.S. Fish & Wildlife Service","LKR","LOWER",NA,2014-09-06 07:00:00,2014-09-12 07:00:00,"Equipment Use","GPS Ground","Suppression (Wildfire)",12.56239,"fire num? JD3X UNIT ID: LKR",NA,NA,NA,NA,"2010-2019",92036.13671875,1386.49786859283,-121.725838734031,41.970858797668,14.46865234375
4275,2014,"CA","NPS National Park Service","YNP","LUKENS NORTH","114",2014-09-08 07:00:00,2014-09-09 07:00:00,"Campfire","GPS Ground",NA,0.1007969,"Suppressed Human Caused",NA,"{86EA5223-7621-4D36-8BAC-96E22CAFC8D2}","114",NA,"2010-2019",656.345168828964,90.8178211723448,-119.61679569949,37.8680048473548,11.109033203125
4284,2014,"CA","NPS National Park Service","YNP","ELEANOR","115",2014-09-09 07:00:00,2014-09-10 07:00:00,"Lightning","GPS Ground",NA,0.1007651,"Suppressed Lightning Ignited",NA,"{0CE94F6E-16A9-48D9-950C-345C9E5B75FA}","115",NA,"2010-2019",658.118879079819,90.9404516342368,-119.883596350567,37.9787551999936,9.90297851562502
4086,2014,"CA","CDF CAL FIRE (State)","SHU","GULCH","008322",2014-09-10 07:00:00,2014-09-12 07:00:00,"Vehicle","GPS Ground","Suppression (Wildfire)",1374.703,NA,NA,"{5EA0C455-3F72-4677-8AF4-87D3D1D3CE64}",NA,NA,"2010-2019",9692627.53515625,17745.1744204474,-122.164991522846,40.7128240009987,19.83583984375
4197,2014,"CA","USF U.S. Forest Service","TNF","WALKER","001611",2014-09-10 07:00:00,2014-10-12 07:00:00,"Miscellaneous","GPS Ground","Suppression (Wildfire)",12.36422,NA,NA,"{8A43FE62-0FF2-40F0-9BD9-1CB7B18EE7B4}",NA,NA,"2010-2019",83946.00390625,1763.90545305669,-121.066874588436,39.4164914263717,14.366357421875
4089,2014,"CA","USF U.S. Forest Service","CNF","SILVERADO","002873",2014-09-12 07:00:00,2014-09-21 07:00:00,"Miscellaneous","Infrared (IR)","Suppression (Wildfire)",959.0129,"<Null>",NA,"{AD122498-E931-45A2-968C-6334D87DCA03}",NA,NA,"2010-2019",5628922.5703125,12922.6680092338,-117.587840602333,33.755498284748,23.61220703125
4114,2014,"CA","BIA Bureau of Indian Affairs","HIA","BALD HILL 3","000211",2014-09-12 07:00:00,2014-10-10 07:00:00,"Vehicle","Infrared (IR)","Suppression (Wildfire)",210.1771,"IR heat perimeter",NA,NA,NA,NA,"2010-2019",1500796.4140625,7561.24529759219,-123.741997581165,41.1348297756688,16.644189453125
4182,2014,"CA","CDF CAL FIRE (State)","NEU","BREWER","021381",2014-09-12 07:00:00,2014-09-12 07:00:00,"Unknown/Unidentified","GPS Ground","Suppression (Wildfire)",16.12219,NA,NA,NA,NA,NA,"2010-2019",107864.3671875,1962.16324659484,-121.416333847237,38.8954977122584,21.6185546875
4057,2014,"CA","USF U.S. Forest Service","ENF","KING","023461",2014-09-13 07:00:00,2014-10-10 07:00:00,"Arson","Infrared (IR)","Suppression (Wildfire)",97684.55,"<Null>",NA,"{F678E364-6462-4AB5-8830-EEAEE80F6653}",NA,NA,"2010-2019",653652229.378906,364390.076349599,-120.531293777278,38.9008913272543,14.7376953125
4100,2014,"CA","CDF CAL FIRE (State)","MEU","BLACK","008882",2014-09-13 07:00:00,2014-10-02 07:00:00,"Equipment Use","GPS Air","Suppression (Wildfire)",403.2066,NA,NA,"{9C23F2BB-E55B-4D1E-B6A1-1438CE74C47C}",NA,NA,"2010-2019",2725382.77734375,10135.3753632612,-123.140648737394,39.2596168009559,19.890283203125
4112,2014,"CA","CDF CAL FIRE (State)","NEU","DOGBAR","021381",2014-09-13 07:00:00,2014-09-13 07:00:00,"Unknown/Unidentified","GPS Ground","Suppression (Wildfire)",248.0788,"2 Res Destroyed 3 Outbuildings Destroyed",NA,NA,NA,NA,"2010-2019",1670491.90234375,10590.3346472673,-121.003249404361,39.125402701292,18.89931640625
4107,2014,"CA","CDF CAL FIRE (State)","MMU","COURTNEY","016429",2014-09-14 07:00:00,2014-09-22 07:00:00,"Debris","GPS Ground","Suppression (Wildfire)",290.9412,NA,NA,"{546E5E3D-3FEF-4528-BB3F-7EEF2AD93077}",NA,NA,"2010-2019",1864775.125,8566.47596883431,-119.585884828561,37.3153313626532,22.61318359375
4129,2014,"CA","USF U.S. Forest Service","ENF","IRENE","023424",2014-09-14 07:00:00,2014-09-23 07:00:00,"Lightning","GPS Ground","Suppression (Wildfire)",94.21658,NA,NA,"{08655C16-BE01-448F-8764-A018A8FBD654}",NA,NA,"2010-2019",625076.125,6402.1262912381,-120.021761209607,38.5931222047807,11.06533203125
4206,2014,"CA","CDF CAL FIRE (State)","SLU","INDIANA","008226",2014-09-14 07:00:00,2014-09-14 07:00:00,"Campfire","GPS Ground","Suppression (Wildfire)",10.2269,NA,NA,"{FC96477C-990E-496E-AB58-8968F95926E6}",NA,NA,"2010-2019",61842.296875,1501.53572899217,-120.525853655357,35.0143226171865,17.0169921875
4095,2014,"CA","LRA Local Responsibility Area","WED","BOLES","007064",2014-09-15 07:00:00,2014-09-20 07:00:00,"Arson","GPS Ground","Suppression (Wildfire)",516.2928,"City of Weed",NA,NA,NA,NA,"2010-2019",3720461.7578125,22907.0000273712,-122.381902229532,41.4349296708212,14.273828125
4248,2014,"CA","NPS National Park Service","YNP","POTTER","119",2014-09-15 07:00:00,2014-09-18 07:00:00,"Campfire","GPS Ground",NA,0.1008303,"Suppressed Human Caused",NA,"{8C0E5361-F800-4208-94F6-12DC04E74F91}","119",NA,"2010-2019",655.720208108425,90.7745732834637,-119.276362765141,37.8206218430905,9.35659179687502
4145,2014,"CA","BLM Bureau of Land Management","BBD","CONWAY","001333",2014-09-16 07:00:00,2014-09-22 07:00:00,"Vehicle","GPS Ground","Suppression (Wildfire)",46.14301,NA,NA,NA,NA,NA,"2010-2019",301755.9921875,2736.93678707625,-119.173362140993,38.0668454664671,11.5541015625
4146,2014,"CA","USF U.S. Forest Service","INF","JUNE","001351",2014-09-16 07:00:00,2014-09-26 07:00:00,"Equipment Use","Infrared (IR)","Suppression (Wildfire)",45.36808,"<Null>",NA,"{039A923A-F147-4141-8648-45C8D67A59AE}",NA,NA,"2010-2019",294315.50390625,3461.31157174427,-119.080214599111,37.7690692197503,10.343408203125
4111,2014,"CA","FWS U.S. Fish & Wildlife Service","SWR","TRACT 17",NA,2014-09-17 07:00:00,2014-09-20 07:00:00,"Escaped Prescribed Burn","Mixed Methods","Suppression (Wildfire)",251.6172,"UNIT ID: SWR  fire num? JEU5",NA,NA,NA,NA,"2010-2019",1708662.2421875,17434.3960454736,-122.187790844998,39.4231260028676,24.827294921875
4104,2014,"CA","LRA Local Responsibility Area","BTU","NELSON","013428",2014-09-18 07:00:00,2014-09-18 07:00:00,"Powerline","Hand-drawn","Suppression (Wildfire)",336.0759,NA,NA,NA,NA,NA,"2010-2019",2290947.00390625,6629.28449752874,-121.91495566051,39.5572715505824,23.904931640625
4135,2014,"CA","CDF CAL FIRE (State)","MEU","NELSON","009162",2014-09-21 07:00:00,2014-09-29 07:00:00,"Unknown/Unidentified","Photo Interpretation","Suppression (Wildfire)",71.98068,NA,NA,NA,NA,NA,"2010-2019",483612.44140625,3050.74285976658,-123.172383736399,39.0457599299667,16.067529296875
4155,2014,"CA","USF U.S. Forest Service","INF","BALL MOUNTAIN","001387",2014-09-21 07:00:00,2014-11-10 08:00:00,"Lightning","Hand-drawn","Suppression (Wildfire)",24.90845,"<Null>",NA,"{471085F3-0937-4E78-A2F5-BB1306CBC8AA}",NA,NA,"2010-2019",154633.18359375,1543.88855686485,-118.074361688866,36.0775396290823,14.737451171875
4216,2014,"CA","NPS National Park Service","KNP","REDWOOD","276",2014-09-21 07:00:00,2014-11-03 08:00:00,"Lightning","GPS Ground",NA,5.530351,"276",NA,"{91BBF12C-AFB3-4B95-B111-4F43DCD7660C}","276",NA,"2010-2019",34850.91796875,1172.34308582616,-118.901838224239,36.6653043385561,13.304833984375
4279,2014,"CA","NPS National Park Service","YNP","TAMARACK","120",2014-09-21 07:00:00,2014-09-22 07:00:00,"Campfire","GPS Ground",NA,0.1007861,"Suppressed Human Caused",NA,"{DA8DF75C-74DF-44FE-AED0-9702C2C79811}","120",NA,"2010-2019",654.182071775198,90.668044886159,-119.739129856914,37.7499046535097,12.457421875
4191,2014,"CA","USF U.S. Forest Service","SHF","DEER","002946",2014-09-23 07:00:00,2014-10-21 07:00:00,"Lightning","Unknown","Suppression (Wildfire)",13.46691,"<Null>",NA,"{259709CA-1BE9-4FF4-8904-E42C68CB23D5}",NA,NA,"2010-2019",95535.1328125,2785.52982081959,-122.946453465052,40.9177726211747,15.49111328125
4162,2014,"CA","USF U.S. Forest Service","TMU","CASCADE","001897",2014-09-28 07:00:00,2014-10-02 07:00:00,"Campfire","GPS Ground","Suppression (Wildfire)",21.70495,"<Null>",NA,NA,NA,NA,"2010-2019",145310.67578125,3411.99073917231,-120.111745299317,38.9189816539762,3.97622070312502
4194,2014,"CA","CCO Contract County","VNC","FOOTHILL","064025",2014-09-29 07:00:00,2014-10-01 07:00:00,"Unknown/Unidentified",NA,"Suppression (Wildfire)",12.6179,NA,NA,"{1D4B69FC-29DA-436A-9395-F93A13DD2E0D}","",NA,"2010-2019",75011.5,1428.46826393864,-119.194092943644,34.3017120399104,15.488916015625
4106,2014,"CA","NPS National Park Service","YNP","DOG ROCK","124",2014-10-07 07:00:00,2014-11-02 07:00:00,"Unknown/Unidentified","GPS Ground",NA,312.2894,"Suppressed Human Caused",NA,"{587F8DCA-84E2-4323-846C-3330B573404D}","124",NA,"2010-2019",2021180.2578125,7023.24112892971,-119.741500932097,37.6817820158482,10.347802734375
4097,2014,"CA","CDF CAL FIRE (State)","NEU","APPLEGATE","023454",2014-10-08 07:00:00,2014-10-08 07:00:00,"Unknown/Unidentified","GPS Ground","Suppression (Wildfire)",458.9755,"6 Res Destroyed 4 Outbuilding Destroyed",NA,"{A6C684AC-EC30-4000-AE47-DFD6F03D777A}",NA,NA,"2010-2019",3081041.33203125,16562.0631597844,-120.965251960357,39.0151215906096,13.82412109375
4203,2014,"CA","USF U.S. Forest Service","BDF","EAGLE CANYON","013502",2014-10-12 07:00:00,2014-10-12 07:00:00,"Campfire","Other Imagery","Suppression (Wildfire)",10.99211,NA,NA,"{5338FD79-618F-4930-B952-6E82FF6660DB}",NA,NA,"2010-2019",64554.78515625,2187.93641948064,-116.571320468011,33.7800634185508,18.9876953125
4242,2014,"CA","NPS National Park Service","YNP","JACK","126",2014-10-16 07:00:00,2014-10-17 07:00:00,"Unknown/Unidentified","GPS Ground",NA,0.248253,"Suppressed Human Caused",NA,"{94521D18-511F-4769-B435-CD29BC34C743}","126",NA,"2010-2019",1614.77292579412,142.449412225873,-119.701963705613,37.8282238503392,5.18520507812502
4271,2014,"CA","NPS National Park Service","YNP","CHILNUALNA","127",2014-10-16 07:00:00,2014-10-17 07:00:00,"Unknown/Unidentified","GPS Ground",NA,0.1007996,"Suppressed Human Caused",NA,"{00A73AF8-8B76-4F71-96E3-06AFB8A81A6C}","127",NA,"2010-2019",650.692589998245,90.4259047080527,-119.646079464537,37.5452551439423,7.65761718750002
4266,2014,"CA","NPS National Park Service","YNP","POINT","128",2014-10-18 07:00:00,2014-10-19 07:00:00,"Smoking","GPS Ground",NA,0.1008025,"Suppressed Human Caused",NA,"{B18ABEB0-A46A-407F-8B5D-D80C52D063C3}","128",NA,"2010-2019",654.417833209038,90.6843813936604,-119.592514925281,37.75724268327,5.39565429687502
4233,2014,"CA","NPS National Park Service","KNP","BUBBS CREEK","289",2014-10-22 07:00:00,2014-11-04 08:00:00,"Campfire","GPS Ground",NA,0.5039232,"289",NA,"{BD4C2A62-A3DC-4120-8691-42F9CFF22F9D}","289",NA,"2010-2019",3183.23828125,340.530188107458,-118.419222306547,36.7585042534667,5.15810546875002
4240,2014,"CA","NPS National Park Service","YNP","WAWONA","131",2014-10-25 07:00:00,2014-10-26 07:00:00,"Unknown/Unidentified","GPS Ground",NA,0.2482768,"Suppressed Human Caused",NA,"{93B51BBE-DC41-4155-B901-28B8571C70D8}","131",NA,"2010-2019",1602.54105615616,141.908861022123,-119.650129035156,37.5414220892298,13.060693359375
4260,2014,"CA","NPS National Park Service","YNP","MINNOW","132",2014-10-25 07:00:00,2014-10-26 07:00:00,"Unknown/Unidentified","GPS Ground",NA,0.1008132,"Suppressed Human Caused",NA,"{C5B5DD5F-9AB6-4265-BDA7-2BACF8E93BE3}","132",NA,"2010-2019",651.349367618561,90.4715289607984,-119.515413928965,37.5780218779146,9.62221679687502
4286,2014,"CA","NPS National Park Service","SMP","LEONARDO","985",2014-11-05 08:00:00,2014-11-05 08:00:00,"Unknown/Unidentified","Unknown",NA,0.09348052,"675704",NA,"{C4EB267D-9C8B-44A9-B899-432392287B11}","985",NA,"2010-2019",553.5078125,83.5065398957338,-118.612,34.131556,14.72451171875
4267,2014,"CA","NPS National Park Service","YNP","CASTLE","133",2014-11-10 08:00:00,2014-11-11 08:00:00,"Unknown/Unidentified","GPS Ground",NA,0.1008023,"Suppressed Human Caused",NA,"{47DBB52A-D32B-4BDC-935C-3880265D757C}","133",NA,"2010-2019",654.482876420021,90.6888878853392,-119.589981698221,37.7609970839896,3.87246093750002
4289,2014,"CA","NPS National Park Service","SMP","HIGHLAND","1054",2014-11-21 08:00:00,2014-11-21 08:00:00,"Vehicle","Unknown",NA,0.09346706,"675705",NA,"{6D7ED5ED-9B55-4692-AA39-508C63FABF3C}","1054",NA,"2010-2019",553.0546875,83.472049710162,-118.812265767065,34.102420980256,15.121728515625
4236,2014,"CA","NPS National Park Service","SMP","TYLER","1111",2014-11-22 08:00:00,2014-11-22 08:00:00,"Campfire","Unknown",NA,0.4828208,"675706",NA,"{CF6E5C3C-FC6D-4DC2-A3A4-8737EB7C9A2D}","1111",NA,"2010-2019",2852.28125,189.563522897479,-118.709,34.033472,14.833154296875
4235,2014,"CA","NPS National Park Service","SMP","RAMBLA","1079",2014-11-26 08:00:00,2014-11-26 08:00:00,"Playing with Fire","Unknown",NA,0.4828423,"675707",NA,"{CC5B441B-3D59-4956-89EE-62D017F755A4}","1079",NA,"2010-2019",2853.42578125,189.602087519678,-118.645877755779,34.0489780255347,13.792626953125
