"OBJECTID","YEAR_","STATE","AGENCY","UNIT_ID","FIRE_NAME","INC_NUM","ALARM_DATE","CONT_DATE","CAUSE","C_METHOD","OBJECTIVE","GIS_ACRES","COMMENTS","COMPLEX_NAME","IRWINID","FIRE_NUM","COMPLEX_ID","DECADES","Shape__Area","Shape__Length","Lon","Lat","TEMPERATURE_2M_ALARM_DATE"
1364,2021,"CA","FWS U.S. Fish & Wildlife Service","TNR","MIGUEL 3","00000530",2021-01-07 08:00:00,2021-01-07 08:00:00,"Unknown/Unidentified","Other Imagery","Suppression (Wildfire)",21.31999,"NS1P",NA,"",NA,NA,"2020-January 2025",122097.42578125,1645.44525529025,-116.964646375818,32.6691238825338,9.90395507812502
1493,2021,"CA","CCO Contract County","LAC","NEWTON","00009554",2021-01-08 08:00:00,2021-01-08 08:00:00,"Unknown/Unidentified","GPS Ground","Suppression (Wildfire)",2.265879,NA,NA,"",NA,NA,"2020-January 2025",13399.23828125,443.870646367217,-118.814384993776,34.0765843958189,10.11611328125
1502,2021,"CA","USF U.S. Forest Service","SMP","NEWTON","00000001",2021-01-08 08:00:00,2021-01-08 08:00:00,"Unknown/Unidentified","GPS Ground","Suppression (Wildfire)",1.865689,NA,NA,"{D22D5497-4072-4D5B-82E1-A04302266D13}",NA,NA,"2020-January 2025",11034.1484375,782.094252013949,-118.800971084915,34.082209345694,10.009423828125
1503,2021,"CA","CDF CAL FIRE (State)","MVU","BORDER","00000734",2021-01-10 08:00:00,2021-01-21 08:00:00,"Miscellaneous","Mixed Methods","Suppression (Wildfire)",1.850452,NA,NA,"{560903DC-8AFF-4091-9C85-A3B806EDE7BA}",NA,NA,"2020-January 2025",10579.1171875,504.822650768738,-116.7682685394,32.5912771722426,9.94765625000002
1374,2021,"CA","CDF CAL FIRE (State)","MVU","BORDER 2","00000960",2021-01-13 08:00:00,2021-01-21 08:00:00,"Debris","Mixed Methods","Suppression (Wildfire)",18.64428,NA,NA,"{B36106D6-22FD-4AB4-9603-C045EC5FAD62}",NA,NA,"2020-January 2025",106607.16796875,1924.43632122754,-116.530175265927,32.5985562803071,8.33779296875002
1490,2021,"CA","CDF CAL FIRE (State)","SLU","TIFFANY","00006070",2021-01-13 08:00:00,2021-01-13 08:00:00,"Debris","GPS Ground","Suppression (Wildfire)",2.45159,"Escape burn pile",NA,"",NA,NA,"2020-January 2025",14885.60546875,637.879420842883,-120.569258466329,35.1826706558122,9.82949218750002
1330,2021,"CA","LRA Local Responsibility Area","VNC","ERBES","00004124",2021-01-14 08:00:00,2021-01-15 08:00:00,"Unknown/Unidentified","Unknown","Suppression (Wildfire)",27.63296,NA,NA,"{3596CF8C-A5A4-44FB-90F2-75F7639717C1}",NA,NA,"2020-January 2025",164004.98046875,2622.9066555368,-118.837932982436,34.2322410325194,12.705712890625
1189,2021,"CA","CDF CAL FIRE (State)","RRU","BONITA","00007737",2021-01-15 08:00:00,2021-03-10 08:00:00,"Unknown/Unidentified","Hand-drawn","Suppression (Wildfire)",681.1813,NA,NA,"{FF90CD09-752E-4F94-8BE4-2CCFFEA97795}",NA,NA,"2020-January 2025",3993626.05859375,21209.4125348169,-116.697853735692,33.7060194122552,13.13173828125
1482,2021,"CA","CCO Contract County","LAC","PACIFICO",NA,2021-01-17 08:00:00,2021-01-17 08:00:00,"Structure Fire","Mixed Methods","Suppression (Wildfire)",2.883715,NA,NA,"",NA,NA,"2020-January 2025",17045.55859375,769.721101577619,-118.65173767709,34.0584113304124,16.9720703125
1472,2021,"CA","CDF CAL FIRE (State)","LNU","OLD","00001062",2021-01-18 08:00:00,2021-01-18 08:00:00,"Powerline","GPS Ground","Suppression (Wildfire)",3.873497,NA,NA,"{A9439223-583B-495F-9706-629AD1AA062F}",NA,NA,"2020-January 2025",25848.5390625,756.577794001759,-122.817144138868,38.802912356508,12.176904296875
1515,2021,"CA","CDF CAL FIRE (State)","SLU","ADOBE","00000865",2021-01-18 08:00:00,2021-01-18 08:00:00,"Equipment Use","GPS Ground","Suppression (Wildfire)",1.444209,"Mowing",NA,"{6BE6C35F-19FD-490B-9076-BA34C7811A0C}",NA,NA,"2020-January 2025",8835.58984375,410.66196928125,-120.608355692957,35.4912655575128,9.40004882812502
1190,2021,"CA","CCO Contract County","KRN","WOLF","00003139",2021-01-19 08:00:00,2021-01-20 08:00:00,"Unknown/Unidentified","Other Imagery","Suppression (Wildfire)",674.1259,NA,NA,"{7BEC06E6-A083-4ADF-9D19-468CB9E334DB}",NA,NA,"2020-January 2025",4074735.62890625,15512.5877966326,-119.148914414912,34.9969166292635,9.54775390625002
1206,2021,"CA","USF U.S. Forest Service","STF","ABERNATHY","00000134",2021-01-19 08:00:00,2021-01-26 08:00:00,"Powerline","Mixed Methods","Suppression (Wildfire)",373.5444,NA,NA,"{B5F0C94D-F2A7-4425-AD85-F9E42E5BDA47}",NA,NA,"2020-January 2025",2429981.7421875,9041.85524577712,-119.913768026741,37.8717231821809,5.88735351562502
1226,2021,"CA","CCO Contract County","LAC","TOWSLEY","00023140",2021-01-19 08:00:00,2021-01-22 08:00:00,"Unknown/Unidentified","GPS Ground","Suppression (Wildfire)",183.8866,NA,NA,"{E3EF16DA-5374-4ED5-A736-EDFF1E7631A4}",NA,NA,"2020-January 2025",1094378.0703125,7867.4514331809,-118.580704802436,34.3482005722347,11.984033203125
1229,2021,"CA","CDF CAL FIRE (State)","CZU","BUTANO","00000512",2021-01-19 08:00:00,2021-01-21 08:00:00,"Lightning","Mixed Methods","Suppression (Wildfire)",169.8688,NA,NA,"{A189E89B-39E9-4961-BF49-C81311520461}",NA,NA,"2020-January 2025",1086456.98046875,5329.48883138192,-122.229811366543,37.2347035772104,16.74453125
1317,2021,"CA","USF U.S. Forest Service","ENF","COLD","00001910",2021-01-19 08:00:00,2021-01-20 08:00:00,"Debris","GPS Ground","Suppression (Wildfire)",34.51343,NA,NA,"{DC4B63D0-3B36-4DFA-8BAF-C0580B2DFB14}",NA,NA,"2020-January 2025",229683.80859375,2968.48708519717,-120.413418051147,38.7043424217182,4.28237304687502
1318,2021,"CA","CDF CAL FIRE (State)","CZU","FREEDOM","00000489",2021-01-19 08:00:00,2021-01-22 08:00:00,"Powerline","GPS Ground","Suppression (Wildfire)",33.25922,NA,NA,"{6ACCD197-CBA4-4935-A071-CD15C99C7182}",NA,NA,"2020-January 2025",211295.828125,4130.55440998935,-121.835399494062,36.9778870456315,16.332666015625
1354,2021,"CA","CDF CAL FIRE (State)","MMU","MANZANITA","00001330",2021-01-19 08:00:00,2021-01-19 08:00:00,"Debris","GPS Ground","Suppression (Wildfire)",22.3779,NA,NA,"{4EECA7C1-4938-4B46-936F-7C9698090D20}",NA,NA,"2020-January 2025",143206.61328125,2317.68009870289,-119.51543029828,37.2561342112447,7.01845703125002
1358,2021,"CA","CDF CAL FIRE (State)","CZU","CHINA","00000508",2021-01-19 08:00:00,2021-01-21 08:00:00,"Miscellaneous","GPS Ground","Suppression (Wildfire)",21.93688,NA,NA,"{1224C13D-3690-41BD-8E1C-F701368C9B50}",NA,NA,"2020-January 2025",140121.828125,2424.06993897226,-122.176620153447,37.1849342802074,16.178125
1366,2021,"CA","USF U.S. Forest Service","ENF","UNION","00001885",2021-01-19 08:00:00,2021-01-20 08:00:00,"Unknown/Unidentified","Hand-drawn",NA,20.37977,"investigated but undetermined",NA,"{C671B163-57E8-43D9-B49C-855CE695A559}",NA,NA,"2020-January 2025",136346.03125,1581.75289226179,-120.398143468589,38.8946177571752,2.79628906250002
1367,2021,"CA","CDF CAL FIRE (State)","CZU","BONNY COMPLEX","00000468",2021-01-19 08:00:00,2021-01-22 08:00:00,"Miscellaneous","Mixed Methods","Suppression (Wildfire)",20.30736,NA,"BONNY COMPLEX","{EF6511F4-804F-4BE7-82D3-A4AFC274E09C}",NA,"{EF6511F4-804F-4BE7-82D3-A4AFC274E09C}","2020-January 2025",129374.5859375,2331.54648284773,-122.116287804942,37.085217270951,15.39150390625
1370,2021,"CA","CDF CAL FIRE (State)","CZU","PANTHER RIDGE","00000490",2021-01-19 08:00:00,2021-01-22 08:00:00,"Powerline","GPS Ground","Suppression (Wildfire)",19.72582,NA,NA,"{F67D8F11-53BD-4712-B956-486D3336B52B}",NA,NA,"2020-January 2025",126036.86328125,2212.69514597106,-122.132001233714,37.1964673962422,16.093896484375
1408,2021,"CA","LRA Local Responsibility Area","LAC","KELLOGG","00023118",2021-01-19 08:00:00,2021-01-19 08:00:00,"Unknown/Unidentified","GPS Ground","Suppression (Wildfire)",12.2616,NA,NA,"{64644DBD-388F-4CF3-8F5C-98B6C8CDBBC8}",NA,NA,"2020-January 2025",72488.9609375,1239.72451905119,-117.821397169932,34.0648848548045,11.784326171875
1437,2021,"CA","CDF CAL FIRE (State)","CZU","BLOOM","00000517",2021-01-19 08:00:00,2021-01-21 08:00:00,"Miscellaneous","GPS Ground","Suppression (Wildfire)",8.611075,NA,NA,"{6ECE4D48-1968-4BCA-AAEB-76067BFA3DB0}",NA,NA,"2020-January 2025",54969.96484375,1321.45404079025,-122.177917584135,37.1618724420325,16.011376953125
1487,2021,"CA","CCO Contract County","LAC","SPRINGS","00023522",2021-01-19 08:00:00,2021-01-19 08:00:00,"Unknown/Unidentified","GPS Ground","Suppression (Wildfire)",2.711827,NA,NA,"{16EE176C-2F92-414A-ACDA-3BBE52258EBD}",NA,NA,"2020-January 2025",16191.2109375,602.769807076875,-118.280492908545,34.4841831733297,11.5990234375
1531,2021,"CA","CDF CAL FIRE (State)","LNU","SPRING","00001124",2021-01-19 08:00:00,2021-01-19 08:00:00,"Debris","GPS Ground","Suppression (Wildfire)",1.017629,NA,NA,"{8111318C-A200-4323-AA46-78C5344605D3}",NA,NA,"2020-January 2025",6736.79296875,334.090964204878,-122.519952335116,38.5145955893005,15.453759765625
1430,2021,"CA","FWS U.S. Fish & Wildlife Service","TNR","CAMPO","00000211",2021-01-20 08:00:00,2021-01-20 08:00:00,"Unknown/Unidentified","GPS Ground","Suppression (Wildfire)",8.976994,"NTF3",NA,"{A531BCC5-0C52-4D31-A3FC-D9D99D4B6127}",NA,NA,"2020-January 2025",51492.5625,1402.73120964831,-116.957046563366,32.7411155620833,15.0794921875
1462,2021,"CA","CDF CAL FIRE (State)","SLU","COYOTE","00001007",2021-01-21 08:00:00,2021-01-21 08:00:00,"Debris","GPS Ground","Suppression (Wildfire)",4.889593,"Escape burn pile",NA,"{C767337A-1048-4A4C-B69E-6E73DDDD677F}",NA,NA,"2020-January 2025",29889.125,924.468280623843,-120.499554264563,35.4570229900159,7.21791992187502
1524,2021,"CA","LRA Local Responsibility Area","LAC","RYE","00039029",2021-02-02 08:00:00,2021-02-02 08:00:00,"Equipment Use","GPS Ground","Suppression (Wildfire)",1.171693,NA,NA,"{B8CFA69E-0831-493C-B040-C746A6858919}",NA,NA,"2020-January 2025",6991.0078125,381.443667019439,-118.576145065343,34.455967850324,11.10341796875
1247,2021,"CA","BLM Bureau of Land Management","CDD","YUHA","00003667",2021-02-20 08:00:00,2021-03-04 08:00:00,"Unknown/Unidentified","Mixed Methods","Suppression (Wildfire)",106.2004,"{F3301F52-B2C2-4B64-A104-95AC31735410}",NA,"{F3301F52-B2C2-4B64-A104-95AC31735410}",NA,NA,"2020-January 2025",608553.37890625,3721.15127254019,-115.693573341285,32.6954030158896,13.797265625
1401,2021,"CA","CDF CAL FIRE (State)","BEU","FERRIS","00001075",2021-02-21 08:00:00,2021-02-21 08:00:00,"Debris","Mixed Methods","Suppression (Wildfire)",13.79761,NA,NA,"{EDE3322B-AB58-4BE8-A3D5-D86B41F18129}",NA,NA,"2020-January 2025",85414.65625,1590.7837224257,-120.619962745829,35.9651783451238,5.72353515625002
1357,2021,"CA","USF U.S. Forest Service","MDF","FLAT","00000104",2021-02-24 08:00:00,2021-02-25 08:00:00,"Unknown/Unidentified","Mixed Methods","Suppression (Wildfire)",21.96283,NA,NA,"{3205C41F-9DD1-440A-9053-43DDE60E5CED}",NA,NA,"2020-January 2025",158878.26953125,3837.4313814689,-120.540008682931,41.5607944156279,-3.41391601562498
1461,2021,"CA","LRA Local Responsibility Area","LAC","KNOLLS","00065761",2021-02-28 08:00:00,2021-02-28 08:00:00,"Unknown/Unidentified","GPS Ground","Suppression (Wildfire)",5.079092,NA,NA,"{01D623B3-9EBE-4F5B-B623-DE548AD08038}",NA,NA,"2020-January 2025",30009.5234375,1699.60172736577,-118.695818785513,34.0401243330123,13.948876953125
1213,2021,"CA","CDF CAL FIRE (State)","BDU","CALVERT","00000573",2021-03-01 08:00:00,2021-03-01 08:00:00,"Escaped Prescribed Burn","GPS Ground","Suppression (Wildfire)",257.8323,"197ac w/in project,73 out of proj, INC_NUM needs 8",NA,"{8855F875-D5E9-4FD8-B3D8-C56E4F1400CE}",NA,NA,"2020-January 2025",1638694.50390625,10145.6694378656,-118.226326564832,36.9939491173947,-2.12900390624998
1491,2021,"CA","CCO Contract County","KRN","GRANITE INC","02109669",2021-03-01 08:00:00,2021-03-01 08:00:00,"Powerline","GPS Ground","Suppression (Wildfire)",2.381455,NA,NA,"",NA,NA,"2020-January 2025",14589.4609375,711.661713465692,-118.96330848803,35.5463445178633,9.61489257812502
1393,2021,"CA","USF U.S. Forest Service","SQF","BOYDEN 1","00000401",2021-03-03 08:00:00,2021-03-18 07:00:00,"Debris","Hand-drawn","Suppression (Wildfire)",14.57344,NA,NA,"{D7E40363-FBF7-48F9-89B1-949414CBE236}",NA,NA,"2020-January 2025",92198.8125,1159.94633551739,-118.816014942164,36.8169660074436,-3.47788085937498
1468,2021,"CA","LRA Local Responsibility Area","VNC","VIRGINIA","00020184",2021-03-05 08:00:00,2021-03-06 08:00:00,"Unknown/Unidentified","Hand-drawn","Suppression (Wildfire)",4.259815,"Approx size and location",NA,"{266DC828-3E23-44FB-A2D3-6F6ECF29A57C}",NA,NA,"2020-January 2025",25313.703125,615.986733993259,-118.859525416878,34.2845626666453,9.86464843750002
1251,2021,"CA","BLM Bureau of Land Management","CDD","GRAPEVINE","00004735",2021-03-14 08:00:00,2021-03-20 07:00:00,"Debris","Hand-drawn","Suppression (Wildfire)",86.20689,"{76E76EF2-A010-4AC9-8BD8-6A96987876F5}",NA,"{76E76EF2-A010-4AC9-8BD8-6A96987876F5}",NA,NA,"2020-January 2025",530694.5234375,8134.01193761542,-117.943108581453,35.7417646935735,4.36708984375002
1459,2021,"CA","NPS National Park Service","MNP","CASTLE","00004963",2021-03-19 07:00:00,2021-03-21 07:00:00,"Campfire","Mixed Methods","Suppression (Wildfire)",5.136026,NA,NA,"{867F5D9C-C40A-42BF-831A-D5BFCB288DA7}",NA,NA,"2020-January 2025",31292.46875,1465.36935441859,-115.098905006411,35.3232367762878,12.5765625
1422,2021,"CA","USF U.S. Forest Service","KNF","HORSE","00002220",2021-03-26 07:00:00,2021-04-01 07:00:00,"Miscellaneous","Hand-drawn","Suppression (Wildfire)",10.61282,NA,NA,"{F2B12621-8816-4738-8EBB-B6E070323D8B}",NA,NA,"2020-January 2025",77501.0703125,1051.31612174014,-123.045433231846,41.8665082976222,0.914208984375023
1184,2021,"CA","LRA Local Responsibility Area","SKU","REFUGE","00002246",2021-03-27 07:00:00,2021-03-29 07:00:00,"Escaped Prescribed Burn","GPS Ground","Suppression (Wildfire)",873.3917,NA,NA,"{EFE986E6-1FB5-4072-ACA1-707C80363D98}",NA,NA,"2020-January 2025",6392786.796875,12370.0851729225,-121.619119105568,41.9409213930575,2.08242187500002
1363,2021,"CA","CDF CAL FIRE (State)","TCU","LINE","00004017",2021-03-28 07:00:00,2021-03-28 07:00:00,"Debris","GPS Ground","Suppression (Wildfire)",21.61033,NA,NA,"{9C4A07DF-9969-4CDB-99C4-E3B56E77D619}",NA,NA,"2020-January 2025",140340.48046875,1938.25384861516,-120.125647537469,37.808421107338,7.88955078125002
1345,2021,"CA","CDF CAL FIRE (State)","SHU","WOODMAN","00003083",2021-04-01 07:00:00,2021-04-01 07:00:00,"Debris","GPS Ground","Suppression (Wildfire)",24.85209,"Escaped debris burn",NA,"{21C7C9A8-B81A-4FAE-8982-D188A051E21E}",NA,NA,"2020-January 2025",175050.3046875,2716.04835943698,-122.050825607384,40.6794054668035,8.66054687500002
1396,2021,"CA","LRA Local Responsibility Area","VNC","MADERA 2","00027506",2021-04-01 07:00:00,2021-04-01 07:00:00,"Equipment Use","Other Imagery","Suppression (Wildfire)",14.21907,NA,NA,"{EC3AD856-8A0A-4558-99D0-103003B761BD}",NA,NA,"2020-January 2025",84508.24609375,1480.03350013294,-118.803430446995,34.2907028199546,17.684716796875
1297,2021,"CA","USF U.S. Forest Service","KNF","ELK","00002454",2021-04-04 07:00:00,2021-04-13 07:00:00,"Unknown/Unidentified","GPS Ground","Suppression (Wildfire)",45.00793,NA,NA,"{C1B94CE3-BB5F-46D5-801F-B4A3BB20AE87}",NA,NA,"2020-January 2025",327217.46875,4123.70262824409,-123.289999052782,41.7230973955196,8.83974609375002
1353,2021,"CA","CCO Contract County","VNC","WESTWOOD","00028477",2021-04-04 07:00:00,2021-04-04 07:00:00,"Unknown/Unidentified","GPS Ground","Suppression (Wildfire)",22.98317,NA,NA,"{E040F82A-E4F1-46FE-BF73-2DC2255F4FDC}",NA,NA,"2020-January 2025",136646.30078125,1773.00797559522,-118.70409147029,34.3063302323956,13.3626953125
1270,2021,"CA","USF U.S. Forest Service","ANF","SPRINGS","00001067",2021-04-05 07:00:00,2021-04-12 07:00:00,"Unknown/Unidentified","Mixed Methods","Suppression (Wildfire)",62.07942,"1E90D394-7D43-403E-95A5-F6C80F0AAF2D",NA,"{1E90D394-7D43-403E-95A5-F6C80F0AAF2D}",NA,NA,"2020-January 2025",369774.421875,5370.61891385437,-117.780272891955,34.384381554443,15.121484375
1359,2021,"CA","LRA Local Responsibility Area","SKU","MEISS","00002480",2021-04-05 07:00:00,2021-04-05 07:00:00,"Debris","GPS Ground","Suppression (Wildfire)",21.86377,NA,NA,"{0D7D17A9-A86E-4196-8BC3-B6AB08734A3F}",NA,NA,"2020-January 2025",159533.55859375,2282.70245243055,-122.0844574822,41.8405204551347,6.21523437500002
1383,2021,"CA","USF U.S. Forest Service","LPF","CORRAL","00000734",2021-04-05 07:00:00,2021-04-06 07:00:00,"Unknown/Unidentified","GPS Ground","Suppression (Wildfire)",17.29091,NA,NA,"{FBF407CC-2191-48A4-A542-748AEC6DA68C}",NA,NA,"2020-January 2025",103841.9921875,1313.5958869641,-119.401789086473,34.7290461535717,14.066796875
1252,2021,"CA","USF U.S. Forest Service","INF","ONION","00000521",2021-04-08 07:00:00,2021-04-12 07:00:00,"Unknown/Unidentified","GPS Ground","Suppression (Wildfire)",85.5384,"poss campfire",NA,"{534BBABC-BC30-4C90-885E-2CB17ACF57CD}",NA,NA,"2020-January 2025",540524.3515625,4859.84627352745,-118.264233515302,36.7716881562907,3.70961914062502
1433,2021,"CA","CDF CAL FIRE (State)","SLU","TRAIL","00004961",2021-04-10 07:00:00,2021-04-10 07:00:00,"Unknown/Unidentified","GPS Ground","Suppression (Wildfire)",8.890034,NA,NA,"{4192BA5F-95A0-47E5-B649-97697361DE40}",NA,NA,"2020-January 2025",54083.41796875,1846.23265017331,-120.536267401372,35.2620149067156,12.2015625
1331,2021,"CA","CDF CAL FIRE (State)","MVU","PASO","00006752",2021-04-12 07:00:00,2021-04-13 07:00:00,"Escaped Prescribed Burn","GPS Ground","Suppression (Wildfire)",26.79597,"VMP needing aircraft upgraded to incident",NA,"{A5727853-FA3F-404B-8DD5-4186E2BB5142}",NA,NA,"2020-January 2025",154438.8671875,1833.83437015865,-116.582999140485,32.9549791569556,12.4447265625
1425,2021,"CA","USF U.S. Forest Service","PNF","GREENHORN","00000421",2021-04-13 07:00:00,2021-04-13 07:00:00,"Unknown/Unidentified","Hand-drawn","Suppression (Wildfire)",9.6,NA,NA,"{99572C84-4133-4C63-A840-6719AB8ACE40}",NA,NA,"2020-January 2025",66120.296875,1152.33330691357,-120.757798951904,39.9210854351449,1.70913085937502
1470,2021,"CA","CDF CAL FIRE (State)","SKU","BROWNELL","00002683",2021-04-13 07:00:00,2021-04-13 07:00:00,"Debris","GPS Ground","Suppression (Wildfire)",4.151186,NA,NA,"{84261B99-7A97-4E27-9080-9C32B5781F47}",NA,NA,"2020-January 2025",30385.9765625,1084.37911362191,-121.867553559663,41.9423663846669,4.41958007812502
1504,2021,"CA","LRA Local Responsibility Area","VNC","RANCH","00031592",2021-04-15 07:00:00,2021-04-15 07:00:00,"Unknown/Unidentified","Hand-drawn","Suppression (Wildfire)",1.800984,NA,NA,"{2FB2D695-3101-4304-B8DF-37E46E0C40A9}",NA,NA,"2020-January 2025",10723.0234375,373.758427167464,-119.310008866795,34.3667283507436,9.72744140625002
1321,2021,"CA","BLM Bureau of Land Management","CDD","WILLOW","00006676",2021-04-17 07:00:00,2021-04-29 07:00:00,"Unknown/Unidentified","Mixed Methods","Suppression (Wildfire)",31.76766,"{4E974CB6-C9E7-49F6-84B4-0887060B2E4E}",NA,"{4E974CB6-C9E7-49F6-84B4-0887060B2E4E}",NA,NA,"2020-January 2025",195872.3515625,4721.14744379041,-116.185055900873,35.8050498168263,20.72841796875
1467,2021,"CA","CCO Contract County","VNC","SULPHUR","00032346",2021-04-17 07:00:00,2021-04-17 07:00:00,"Unknown/Unidentified","Hand-drawn","Suppression (Wildfire)",4.328094,"approximate location - 5 ac brush fire",NA,"",NA,NA,"2020-January 2025",25764.0234375,586.888652872314,-119.095333484781,34.3579029173506,12.706689453125
1473,2021,"CA","CCO Contract County","KRN","FREEWAY","02117017",2021-04-17 07:00:00,2021-04-17 07:00:00,"Vehicle","GPS Ground","Suppression (Wildfire)",3.822008,"Name added",NA,"",NA,NA,"2020-January 2025",23087.5,906.824142624756,-118.938849082288,34.970928134934,12.655908203125
1522,2021,"CA","CDF CAL FIRE (State)","LNU","SODA","00006134",2021-04-17 07:00:00,2021-04-17 07:00:00,"Debris","GPS Ground","Suppression (Wildfire)",1.20866,NA,NA,"{DAB6EA80-C393-4EDF-9458-F23884750C4D}",NA,NA,"2020-January 2025",8055.453125,389.780737510151,-123.362052884457,38.7576437909152,9.13686523437502
1223,2021,"CA","CDF CAL FIRE (State)","MEU","TURNOUT","00004952",2021-04-18 07:00:00,2021-04-25 07:00:00,"Escaped Prescribed Burn","GPS Ground","Suppression (Wildfire)",191.6513,NA,NA,"{ED32361B-2A0F-48A6-9950-0748F3B09A3A}",NA,NA,"2020-January 2025",1287947.625,11247.1127669004,-123.280483351289,39.054358851289,10.29140625
1303,2021,"CA","BLM Bureau of Land Management","CDD","HIGHLINE","00006804",2021-04-18 07:00:00,2021-04-24 07:00:00,"Miscellaneous","Mixed Methods","Suppression (Wildfire)",40.42638,"{502F92DB-0CE5-44B3-A9A1-74ABCA615337}",NA,"{502F92DB-0CE5-44B3-A9A1-74ABCA615337}",NA,NA,"2020-January 2025",232397.25390625,9509.94293445907,-115.289110865069,32.8396914159257,23.69423828125
1332,2021,"CA","BLM Bureau of Land Management","CDD","BACKUS","00006791",2021-04-18 07:00:00,2021-04-19 07:00:00,"Unknown/Unidentified","Mixed Methods","Suppression (Wildfire)",26.61396,"{C884DB77-9D51-4B2A-9A4F-847347B41355}",NA,"{C884DB77-9D51-4B2A-9A4F-847347B41355}",NA,NA,"2020-January 2025",160721.03515625,3074.9055033264,-118.199655339855,34.9593478128025,16.021875
1514,2021,"CA","CCO Contract County","LAC","TURNBULL","00117398",2021-04-18 07:00:00,2021-04-18 07:00:00,"Unknown/Unidentified","GPS Ground","Suppression (Wildfire)",1.467101,NA,NA,"{FDAB51CB-E6C0-44F7-8F3E-D737F9E8DE4C}",NA,NA,"2020-January 2025",8657.671875,419.574015017645,-118.002868328835,33.9875940688196,15.428857421875
1527,2021,"CA","CDF CAL FIRE (State)","LNU","CERRITO","00006212",2021-04-18 07:00:00,2021-04-18 07:00:00,"Miscellaneous","GPS Ground","Suppression (Wildfire)",1.056455,NA,NA,"",NA,NA,"2020-January 2025",7094.75,391.354087458596,-122.678515943363,39.0296845522415,14.463037109375
1458,2021,"CA","CCO Contract County","KRN","GRAPEVINE","02117625",2021-04-20 07:00:00,2021-04-20 07:00:00,"Vehicle","GPS Ground","Suppression (Wildfire)",5.185684,"Crew 10 as 356",NA,"",NA,NA,"2020-January 2025",31299.734375,1241.40264961118,-118.928967071981,34.9375604327592,13.896875
1496,2021,"CA","CDF CAL FIRE (State)","LNU","MUNIZ","00006305",2021-04-20 07:00:00,2021-04-20 07:00:00,"Debris","GPS Ground","Suppression (Wildfire)",2.227886,NA,NA,"{FC1FC2A9-8B16-4A99-A393-BBB0813D45AE}",NA,NA,"2020-January 2025",14745.203125,521.159267366658,-123.141797691499,38.5057171711792,10.89150390625
1335,2021,"CA","CCO Contract County","KRN","WOLVES","02117991",2021-04-22 07:00:00,2021-04-22 07:00:00,"Escaped Prescribed Burn","GPS Air","Suppression (Wildfire)",26.06954,NA,NA,"",NA,NA,"2020-January 2025",157404.17578125,1527.87009633814,-119.139696193719,34.9517143575032,14.311669921875
1471,2021,"CA","CDF CAL FIRE (State)","SKU","MARY","00002959",2021-04-22 07:00:00,2021-04-22 07:00:00,"Escaped Prescribed Burn","GPS Ground","Suppression (Wildfire)",4.059574,NA,NA,"{CD16C8B1-DB39-4D90-A2BA-A7EC53625FF7}",NA,NA,"2020-January 2025",29278.5078125,994.964289023491,-122.906890813506,41.4625953630126,9.54287109375002
1479,2021,"CA","LRA Local Responsibility Area","VNC","LAURIE","00034581",2021-04-25 07:00:00,2021-04-25 07:00:00,"Unknown/Unidentified","Hand-drawn","Suppression (Wildfire)",3.041959,NA,NA,"{56562473-7F34-4226-9D90-AADF112F3B55}",NA,NA,"2020-January 2025",18099.140625,860.799009611013,-119.072451920674,34.3371810063552,10.954736328125
1481,2021,"CA","CCO Contract County","KRN","Backus 2","02118345",2021-04-25 07:00:00,2021-04-25 07:00:00,"Unknown/Unidentified","GPS Ground","Suppression (Wildfire)",2.897352,NA,NA,"",NA,NA,"2020-January 2025",17495.64453125,777.921871904913,-118.192571690573,34.9560313319388,13.93544921875
1460,2021,"CA","CDF CAL FIRE (State)","SLU","VISTA","00005759",2021-04-27 07:00:00,2021-04-27 07:00:00,"Debris","GPS Ground","Suppression (Wildfire)",5.135205,"Escape Burn Pile",NA,"{A318562E-4268-457A-ADED-415DD99AD0B6}",NA,NA,"2020-January 2025",31311.63671875,711.194635865395,-120.481716339887,35.3547934280352,8.86245117187502
1195,2021,"CA","CCO Contract County","LAC","NORTH","00128550",2021-04-28 07:00:00,2021-04-30 07:00:00,"Unknown/Unidentified","GPS Ground","Suppression (Wildfire)",552.1964,NA,NA,"{7868868C-D03D-489A-AD12-514C48E537E0}",NA,NA,"2020-January 2025",3295783.60546875,12210.6425154492,-118.579506600198,34.4694739237372,11.08046875
1269,2021,"CA","CDF CAL FIRE (State)","LNU","TULLEY","00006772",2021-04-28 07:00:00,2021-04-30 07:00:00,"Debris","GPS Ground","Suppression (Wildfire)",62.66148,NA,NA,"{3ADCE17E-82BD-43EB-A1E1-0F75A30B3104}",NA,NA,"2020-January 2025",416141.93359375,2981.4759968897,-122.202555735992,38.6293701055475,14.664208984375
1435,2021,"CA","CDF CAL FIRE (State)","LNU","SCOTTS","00006769",2021-04-28 07:00:00,2021-04-28 07:00:00,"Miscellaneous","GPS Ground","Suppression (Wildfire)",8.720953,NA,NA,"{407F6C18-524E-4929-BC73-87F43C546F30}",NA,NA,"2020-January 2025",58736.3984375,1454.22631790989,-123.010189080189,39.1326778408792,11.1380859375
1232,2021,"CA","CDF CAL FIRE (State)","TCU","CAMPO","00005400",2021-04-29 07:00:00,2021-05-04 07:00:00,"Debris","GPS Ground","Suppression (Wildfire)",159.9778,"Escaped debris pile",NA,"{2624C283-CFA6-40A9-B60B-9763DF180F73}",NA,NA,"2020-January 2025",1050184.47265625,7467.23554404778,-120.845789786529,38.2071241117529,15.713037109375
1277,2021,"CA","CDF CAL FIRE (State)","LNU","SKY","00006823",2021-04-29 07:00:00,2021-04-29 07:00:00,"Debris","GPS Ground","Suppression (Wildfire)",58.34655,NA,NA,"{1F8293F9-D7D6-44A4-9F82-E7C38340A819}",NA,NA,"2020-January 2025",390167.83203125,2873.10910290913,-122.5011041171,38.8775631643456,16.141259765625
1333,2021,"CA","LRA Local Responsibility Area","VNC","COUNTRY","00035741",2021-04-29 07:00:00,2021-04-30 07:00:00,"Playing with Fire","Unknown","Suppression (Wildfire)",26.53975,NA,NA,"{DCA86EEE-D1AB-4578-B01C-30ED22C6817B}",NA,NA,"2020-January 2025",157269.921875,1911.35589601021,-118.810692854693,34.1655446332363,15.370263671875
1450,2021,"CA","LRA Local Responsibility Area","LAC","VIRGENES","00129683",2021-04-29 07:00:00,2021-04-29 07:00:00,"Unknown/Unidentified","GPS Ground","Suppression (Wildfire)",6.461127,NA,NA,"{5F9B995A-B09B-47C4-B230-96F07BB6B017}",NA,NA,"2020-January 2025",38272.453125,841.440750299626,-118.695653321938,34.148807686459,15.7611328125
1511,2021,"CA","CDF CAL FIRE (State)","LNU","WILSON","00006827",2021-04-29 07:00:00,2021-04-29 07:00:00,"Debris","GPS Ground","Suppression (Wildfire)",1.552339,NA,NA,"{DD5A63AC-679A-48BD-9603-C249EC50BD86}",NA,NA,"2020-January 2025",10328.9921875,462.634048430491,-122.847671165542,38.6983620547904,14.8666015625
1391,2021,"CA","LRA Local Responsibility Area","VNC","COYOTE","00036183",2021-04-30 07:00:00,2021-05-01 07:00:00,"Unknown/Unidentified","Infrared (IR)","Suppression (Wildfire)",15.35531,"FIRIS aircraft",NA,"{B7A837F7-FBC3-45BB-B3D5-3EEE1190B489}",NA,NA,"2020-January 2025",91153.19140625,1334.56958845274,-118.792618827342,34.240417255224,18.78408203125
1175,2021,"CA","BLM Bureau of Land Management","CDD","OWENS","00007393",2021-05-01 07:00:00,2021-05-01 07:00:00,"Miscellaneous","Other Imagery","Suppression (Wildfire)",1390.015,"{5772D343-40DD-45A9-8F88-7ABDD560A165}",NA,"{5772D343-40DD-45A9-8F88-7ABDD560A165}",NA,NA,"2020-January 2025",8548232.640625,30887.3185703978,-117.909313525775,35.7005132512003,21.9974609375
1322,2021,"CA","CDF CAL FIRE (State)","AEU","SALMON","00011707",2021-05-01 07:00:00,2021-05-01 07:00:00,"Unknown/Unidentified","GPS Ground","Suppression (Wildfire)",31.73762,NA,NA,"{7EF731E7-E602-4138-967D-2E0DC3F448D6}",NA,NA,"2020-January 2025",211634.4921875,2540.16888748237,-121.038226110467,38.7763905672941,15.92763671875
1165,2021,"CA","CDF CAL FIRE (State)","MVU","SOUTHERN","00007992",2021-05-02 07:00:00,2022-05-06 07:00:00,"Equipment Use","Mixed Methods","Suppression (Wildfire)",5365.902,"Power tools",NA,"{4F0C331F-A20F-4949-8CBE-4F2717DD02DA}",NA,NA,"2020-January 2025",30944913.9375,55683.4880261368,-116.466197403412,32.9816212567628,12.7171875
1320,2021,"CA","CDF CAL FIRE (State)","RRU","CREEK","00059177",2021-05-04 07:00:00,2021-05-04 07:00:00,"Unknown/Unidentified","GPS Ground","Suppression (Wildfire)",31.87381,NA,NA,"{2B1901F7-A429-4DC8-9DE7-21C741308CB8}",NA,NA,"2020-January 2025",186166.9609375,2265.05014434317,-116.756873328245,33.5422071325797,13.871240234375
1400,2021,"CA","CDF CAL FIRE (State)","BDU","DEVORE","00005483",2021-05-04 07:00:00,2021-05-04 07:00:00,"Miscellaneous","GPS Ground","Suppression (Wildfire)",13.80691,NA,NA,"{F603E10D-4063-4285-B765-FC58B4A2838D}",NA,NA,"2020-January 2025",82032.84375,2189.94448096519,-117.432084552431,34.2450224819431,17.159814453125
1420,2021,"CA","CDF CAL FIRE (State)","SLU","ANTELOPE","00006125",2021-05-04 07:00:00,2021-05-04 07:00:00,"Vehicle","GPS Ground","Suppression (Wildfire)",10.67426,NA,NA,"{51967BD1-77BF-421C-B1E5-39897B4677DA}",NA,NA,"2020-January 2025",65701.80859375,2707.34082739216,-120.206318249232,35.735948425637,19.322412109375
1412,2021,"CA","CDF CAL FIRE (State)","FKU","WATTS","00006584",2021-05-05 07:00:00,2021-05-05 07:00:00,"Miscellaneous","GPS Ground","Suppression (Wildfire)",11.88744,NA,NA,"{1D8134E8-2640-49D7-87D5-42700119A4AE}",NA,NA,"2020-January 2025",75282.08984375,1546.41663986206,-119.464956327617,36.8560525396529,17.456201171875
1465,2021,"CA","CDF CAL FIRE (State)","SKU","HOVEY","00003282",2021-05-05 07:00:00,2021-05-05 07:00:00,"Debris","GPS Ground","Suppression (Wildfire)",4.767107,NA,NA,"",NA,NA,"2020-January 2025",34677.00390625,909.090361278243,-122.385228950171,41.7409255499444,10.4359375
1509,2021,"CA","CDF CAL FIRE (State)","SKU","RANCH","00003333",2021-05-05 07:00:00,2021-05-05 07:00:00,"Debris","GPS Ground","Suppression (Wildfire)",1.678553,NA,NA,"{E277EB57-761A-4D0D-AE31-3A721BA3136E}",NA,NA,"2020-January 2025",12076.01171875,594.355545335507,-122.421624641185,41.3812572442512,10.08388671875
1397,2021,"CA","CDF CAL FIRE (State)","RRU","CARY","00060063",2021-05-06 07:00:00,2021-05-10 07:00:00,"Unknown/Unidentified","Hand-drawn","Suppression (Wildfire)",14.00693,NA,NA,"{F7EF4106-2314-4CC3-9451-A818E12121F4}",NA,NA,"2020-January 2025",81929.6796875,1246.00854806436,-116.737666622669,33.6053875256817,16.4828125
1521,2021,"CA","CDF CAL FIRE (State)","SLU","IRON","00006228",2021-05-06 07:00:00,2021-05-06 07:00:00,"Miscellaneous","GPS Ground","Suppression (Wildfire)",1.248572,NA,NA,"{BEB55BD9-315D-4759-B918-099FDA83A078}",NA,NA,"2020-January 2025",7645.88671875,327.234329463033,-120.535144383501,35.5292757541916,15.52626953125
1196,2021,"CA","CDF CAL FIRE (State)","BTU","GUNNISON","00005834",2021-05-08 07:00:00,2021-05-12 07:00:00,"Equipment Use","GPS Ground","Suppression (Wildfire)",548.9937,NA,NA,"{C8D93D6C-63DC-4301-9AEE-964061E7D04D}",NA,NA,"2020-January 2025",3775210.875,10415.3817753177,-121.88894318456,39.8612009441783,18.126611328125
1273,2021,"CA","LRA Local Responsibility Area","LFD","BROADWAY","00011521",2021-05-08 07:00:00,2021-05-08 07:00:00,"Unknown/Unidentified","Other Imagery","Suppression (Wildfire)",60.39558,"Linda Fire Department, LFPD 2021-1280132",NA,"",NA,NA,"2020-January 2025",405824.34765625,3771.29337732693,-121.572494093153,39.0499551938941,19.884423828125
1281,2021,"CA","CDF CAL FIRE (State)","LNU","LOPEZ","00007390",2021-05-08 07:00:00,2021-05-11 07:00:00,"Equipment Use","GPS Ground","Suppression (Wildfire)",55.25064,NA,NA,"{E3334A93-232D-4E6A-85A9-934698F15BEA}",NA,NA,"2020-January 2025",361697.53515625,3198.162964173,-122.109248610134,38.1057397797306,15.52578125
1436,2021,"CA","CDF CAL FIRE (State)","LNU","GREEN","00007410",2021-05-08 07:00:00,2021-05-08 07:00:00,"Debris","GPS Ground","Suppression (Wildfire)",8.655844,NA,NA,"{C0BF9AFD-D32A-42CC-B75C-4678ECBAE019}",NA,NA,"2020-January 2025",58145.94140625,1538.64494774089,-122.725306141041,39.0398807907459,13.910546875
1483,2021,"CA","CDF CAL FIRE (State)","LNU","COUNTY","00007374",2021-05-08 07:00:00,2021-05-08 07:00:00,"Powerline","GPS Ground","Suppression (Wildfire)",2.854398,NA,NA,"",NA,NA,"2020-January 2025",19001.359375,638.558290400238,-122.123640144799,38.7148857929005,20.498681640625
1324,2021,"CA","USF U.S. Forest Service","SQF","DRY","00000964",2021-05-09 07:00:00,2021-05-14 07:00:00,"Unknown/Unidentified","Hand-drawn","Suppression (Wildfire)",31.50628,NA,NA,"{B9798227-DED0-472F-919B-8D75F2E29C4A}",NA,NA,"2020-January 2025",193104.921875,3923.87659188951,-118.328799102402,35.564900641066,14.065576171875
1432,2021,"CA","CDF CAL FIRE (State)","SLU","TWITCHELL","00006410",2021-05-10 07:00:00,2021-05-10 07:00:00,"Vehicle","Hand-drawn","Suppression (Wildfire)",8.925045,NA,NA,"{8D0B94A1-37D6-4DF7-B291-0D9DFADE6C99}",NA,NA,"2020-January 2025",53981.66796875,2025.30530440822,-120.224093428599,35.0232883199884,14.5111328125
1261,2021,"CA","CDF CAL FIRE (State)","TUU","BUZZARD","00000166",2021-05-11 07:00:00,2021-05-11 07:00:00,"Equipment Use","GPS Ground","Suppression (Wildfire)",70.24671,NA,NA,"{2EEE49D9-5290-49AB-B88B-97AD31466377}",NA,NA,"2020-January 2025",441414.75390625,3900.18339698117,-119.061483307193,36.554176183611,15.867578125
1423,2021,"CA","USF U.S. Forest Service","BDF","BLUE","00007800",2021-05-11 07:00:00,2021-05-19 07:00:00,"Miscellaneous","GPS Ground","Suppression (Wildfire)",10.4138,NA,NA,"{EB208DD5-D7CF-4F29-B7ED-F1A71AAB8628}",NA,NA,"2020-January 2025",61909.6640625,1285.11258017282,-117.458557535861,34.3025244624021,15.378076171875
1201,2021,"CA","CCO Contract County","LAC","PINE","00144343",2021-05-12 07:00:00,2021-05-14 07:00:00,"Unknown/Unidentified","GPS Ground","Suppression (Wildfire)",441.2523,NA,NA,"",NA,NA,"2020-January 2025",2631239.4921875,21430.1348462545,-117.667034270406,34.431460132912,16.874169921875
1339,2021,"CA","CDF CAL FIRE (State)","NEU","QUAIL","00011859",2021-05-12 07:00:00,2021-05-12 07:00:00,"Miscellaneous","GPS Ground","Suppression (Wildfire)",25.35059,NA,NA,"{C623065A-0619-410C-9A38-888202C2781A}",NA,NA,"2020-January 2025",171304.91796875,2361.26221961719,-121.36107952653,39.24999460913,18.79482421875
1407,2021,"CA","BLM Bureau of Land Management","NOD","R-1 ROCK","00002448",2021-05-14 07:00:00,2021-05-18 07:00:00,"Lightning","GPS Ground","Suppression (Wildfire)",12.32582,"{FB0C277B-83B8-40CF-AC78-1BA28C2B2C29}",NA,"{FB0C277B-83B8-40CF-AC78-1BA28C2B2C29}",NA,NA,"2020-January 2025",87600.671875,1675.7040502342,-120.091809271208,40.9787808039183,13.76943359375
1177,2021,"CA","LRA Local Responsibility Area","LAC","PALISADES","00001448",2021-05-15 07:00:00,2021-05-21 07:00:00,"Unknown/Unidentified","GPS Ground","Suppression (Wildfire)",1202.648,NA,NA,"",NA,NA,"2020-January 2025",7115175.3671875,19990.114323399,-118.569341823068,34.0966009249403,14.714501953125
1368,2021,"CA","CDF CAL FIRE (State)","LNU","MOODY","00007966",2021-05-16 07:00:00,2021-05-17 07:00:00,"Miscellaneous","GPS Ground","Suppression (Wildfire)",20.24225,NA,NA,"{46BA5E28-BF8E-4772-9A10-F88BA70F9DD6}",NA,NA,"2020-January 2025",134086.890625,1689.14647117225,-121.988433779673,38.5365627772258,16.02529296875
1372,2021,"CA","BLM Bureau of Land Management","CND","HANDLINE","00001047",2021-05-18 07:00:00,2021-05-19 07:00:00,"Unknown/Unidentified","Hand-drawn","Suppression (Wildfire)",19.10735,"{ADC69621-8ED5-47D6-AC37-61BBF4AE1198}",NA,"{ADC69621-8ED5-47D6-AC37-61BBF4AE1198}",NA,NA,"2020-January 2025",115522.24609375,3350.8918335464,-119.509265046913,35.0070639762394,17.811181640625
1296,2021,"CA","CDF CAL FIRE (State)","AEU","SETTLERS","00013605",2021-05-19 07:00:00,2021-05-19 07:00:00,"Equipment Use","GPS Ground","Suppression (Wildfire)",45.35123,NA,NA,"{CC1590DC-3051-4F83-9F56-0751C656C08E}",NA,NA,"2020-January 2025",300596.44140625,3378.57539756287,-121.001208330384,38.5588782689158,16.496484375
1379,2021,"CA","LRA Local Responsibility Area","NEU","WISE","00124781",2021-05-19 07:00:00,2021-05-20 07:00:00,"Powerline","GPS Ground","Suppression (Wildfire)",18.2641,NA,NA,"",NA,NA,"2020-January 2025",122304.390625,1544.1133844338,-121.379102925774,38.9276013280912,18.702783203125
1375,2021,"CA","CDF CAL FIRE (State)","AEU","BELL","00013708",2021-05-20 07:00:00,2021-05-20 07:00:00,"Equipment Use","GPS Ground","Suppression (Wildfire)",18.61205,NA,NA,"{EA26125A-638B-4414-B644-28DE2B6E5B57}",NA,NA,"2020-January 2025",123299.015625,1628.98584384899,-120.82211277152,38.5397680732317,10.978173828125
1381,2021,"CA","CDF CAL FIRE (State)","MEU","TOMKI","00006427",2021-05-21 07:00:00,2021-05-24 07:00:00,"Unknown/Unidentified","GPS Ground","Suppression (Wildfire)",18.17299,NA,NA,"{E9C87F07-3F60-4E87-8AB1-8B3444C90827}",NA,NA,"2020-January 2025",123207.02734375,2539.83368808179,-123.24209267661,39.3659387291625,6.46987304687502
1338,2021,"CA","USF U.S. Forest Service","LPF","GIBRALTAR","00001128",2021-05-22 07:00:00,2021-05-27 07:00:00,"Unknown/Unidentified","GPS Ground","Suppression (Wildfire)",25.36633,NA,NA,"{2DFD362C-EE13-48DB-8411-7A59BB6C7579}",NA,NA,"2020-January 2025",151575.2578125,2824.4245645098,-119.703010547868,34.5184511251324,9.97133789062502
1282,2021,"CA","LRA Local Responsibility Area","NEU","FIDDYMENT","00012790",2021-05-23 07:00:00,2021-05-23 07:00:00,"Unknown/Unidentified","Photo Interpretation","Suppression (Wildfire)",55.11501,NA,NA,"{178DFDBC-D9AA-4072-9D6D-1CF095C879C0}",NA,NA,"2020-January 2025",368047.94921875,4411.86091615545,-121.320159090996,38.8278787163763,17.9974609375
1480,2021,"CA","LRA Local Responsibility Area","KRN","LAVAL","02123189",2021-05-23 07:00:00,2021-05-23 07:00:00,"Unknown/Unidentified","GPS Ground","Suppression (Wildfire)",2.929613,NA,NA,"",NA,NA,"2020-January 2025",17706.69921875,710.995737396987,-118.896673392389,34.9938676491256,13.342919921875
1500,2021,"CA","CDF CAL FIRE (State)","SLU","INDEPENDENCE","00007155",2021-05-24 07:00:00,2021-05-24 07:00:00,"Equipment Use","Photo Interpretation","Suppression (Wildfire)",1.923519,NA,NA,"{A384D79E-E548-4DD5-AFAF-A81DF3863596}",NA,NA,"2020-January 2025",11833.21875,434.85278618603,-120.581948396548,35.7143637620186,14.85
1389,2021,"CA","LRA Local Responsibility Area","KRN","MOUNTAIN","02123732",2021-05-26 07:00:00,2021-05-26 07:00:00,"Unknown/Unidentified","GPS Ground","Suppression (Wildfire)",15.71013,NA,NA,"",NA,NA,"2020-January 2025",95985.24609375,2354.51712339627,-118.89316874173,35.436925466491,21.8431640625
1434,2021,"CA","CDF CAL FIRE (State)","LNU","GROVE","00008530",2021-05-26 07:00:00,2021-05-26 07:00:00,"Unknown/Unidentified","GPS Ground","Suppression (Wildfire)",8.765407,NA,NA,"{38DBEA97-7B89-4075-A0B2-40834C20F689}",NA,NA,"2020-January 2025",57675.9453125,1159.54858140673,-122.51188820375,38.2929490810519,14.392236328125
1489,2021,"CA","CDF CAL FIRE (State)","LNU","WEST","00008516",2021-05-26 07:00:00,2021-05-26 07:00:00,"Vehicle","GPS Ground","Suppression (Wildfire)",2.58838,NA,NA,"{C631C178-E7BF-43BD-A444-AA342B82E232}",NA,NA,"2020-January 2025",17132.08203125,540.475070484937,-122.721368408617,38.5076913532548,13.85146484375
1510,2021,"CA","CCO Contract County","ORC","WINDY RIDGE","21061702",2021-05-26 07:00:00,2021-05-26 07:00:00,"Unknown/Unidentified","GPS Ground","Suppression (Wildfire)",1.663294,NA,NA,"{4514BF62-BBC2-4B3F-B61D-76105AE3193D}",NA,NA,"2020-January 2025",9771.52734375,593.679164675585,-117.729762872984,33.794463904573,18.1185546875
1198,2021,"CA","CDF CAL FIRE (State)","TCU","MILE","00006637",2021-05-27 07:00:00,2021-05-28 07:00:00,"Arson","GPS Ground","Suppression (Wildfire)",507.8524,NA,NA,"{ED523856-70C2-4D84-9ECD-F80E710AEE30}",NA,NA,"2020-January 2025",3304328.93359375,10016.0029514291,-120.827872749669,37.8790038421624,16.972314453125
1344,2021,"CA","CDF CAL FIRE (State)","FKU","BAKER","00007927",2021-05-27 07:00:00,2021-05-30 07:00:00,"Arson","GPS Ground","Suppression (Wildfire)",24.94695,NA,NA,"{0CF115C4-959E-42FE-9D75-50D92F9DF09C}",NA,NA,"2020-January 2025",157418.390625,1811.26753170681,-119.115894062717,36.7167802472221,14.39248046875
1395,2021,"CA","CDF CAL FIRE (State)","TGU","GRAHAM","00006156",2021-05-27 07:00:00,2021-05-27 07:00:00,"Equipment Use","GPS Ground","Suppression (Wildfire)",14.35726,NA,NA,"{37714881-02FE-45E3-94C4-46918ABE792A}",NA,NA,"2020-January 2025",100359.43359375,1803.09116915186,-121.838548336365,40.4219452569488,15.840234375
1390,2021,"CA","CDF CAL FIRE (State)","MVU","BORDER 9","00009705",2021-05-28 07:00:00,2021-05-31 07:00:00,"Miscellaneous","Hand-drawn","Suppression (Wildfire)",15.36915,NA,NA,"{90D5ADAC-E422-4DE2-93B9-EAFE97C7B0E0}",NA,NA,"2020-January 2025",87824.921875,1571.35698505607,-116.822787147104,32.5700861125718,14.632958984375
1454,2021,"CA","CDF CAL FIRE (State)","LNU","ACACIA","00008736",2021-05-29 07:00:00,2021-05-29 07:00:00,"Equipment Use","GPS Ground","Suppression (Wildfire)",6.082049,NA,NA,"{C6E88140-8C55-41D7-94C4-9EA75B90F47F}",NA,NA,"2020-January 2025",40184.5859375,1055.99491629512,-121.977931310719,38.4430506094544,17.453759765625
1179,2021,"CA","CDF CAL FIRE (State)","BEU","SARGENT","00003247",2021-05-30 07:00:00,2021-05-31 07:00:00,"Debris","Mixed Methods","Suppression (Wildfire)",1117.899,NA,NA,"{9654075F-593F-465C-90DC-78F372FBA135}",NA,NA,"2020-January 2025",6927974.18359375,12596.6879755458,-120.770727857857,36.0087115492444,15.336572265625
1492,2021,"CA","CDF CAL FIRE (State)","SKU","MEAMBER","00004142",2021-05-30 07:00:00,2021-05-30 07:00:00,"Debris","GPS Ground","Suppression (Wildfire)",2.300643,NA,NA,"{8E074241-5105-40E1-82AD-F1E974A80DED}",NA,NA,"2020-January 2025",16686,586.98360723836,-122.982156350992,41.6451680873157,14.032861328125
1349,2021,"CA","CDF CAL FIRE (State)","FKU","SLOPE","00008175",2021-05-31 07:00:00,2021-06-03 07:00:00,"Powerline","GPS Ground","Suppression (Wildfire)",23.99675,NA,NA,"{2B88B907-39E9-4E34-BBF2-C46D80784BC5}",NA,NA,"2020-January 2025",151983.8203125,2092.67261669996,-119.336881234552,36.8597495393693,20.9291015625
1360,2021,"CA","CDF CAL FIRE (State)","NEU","SPENCEVILLE","00013577",2021-05-31 07:00:00,2021-06-04 07:00:00,"Unknown/Unidentified","Photo Interpretation","Suppression (Wildfire)",21.81921,NA,NA,"{C7C16CD8-5400-4FA2-A8BF-FCA57C0D0EB9}",NA,NA,"2020-January 2025",146961.2265625,1658.17746268687,-121.305975390398,39.1343431323463,24.1537109375
1413,2021,"CA","CDF CAL FIRE (State)","NEU","HUTTO","00013592",2021-05-31 07:00:00,2021-05-31 07:00:00,"Equipment Use","GPS Ground","Suppression (Wildfire)",11.46257,NA,NA,"{F268A90E-9D7E-42E5-9F46-9E4ABF4A3CEA}",NA,NA,"2020-January 2025",77278.06640625,1489.5628142431,-121.27623574136,39.1678834915768,23.590966796875
1506,2021,"CA","CCO Contract County","KRN","SABODAN","02124650",2021-06-01 07:00:00,2021-06-01 07:00:00,"Equipment Use","GPS Ground","Suppression (Wildfire)",1.751998,NA,NA,"",NA,NA,"2020-January 2025",10596.625,626.684784352534,-118.967710006824,35.0230837286497,23.06630859375
1299,2021,"CA","CDF CAL FIRE (State)","RRU","COYOTE","00073166",2021-06-02 07:00:00,2021-06-06 07:00:00,"Miscellaneous","GPS Ground","Suppression (Wildfire)",42.75489,NA,NA,"{A888B344-AA47-4E50-B5BA-22EF62063F00}",NA,NA,"2020-January 2025",251915.83203125,3495.82756903938,-116.891498502168,33.8868892378847,19.3197265625
1478,2021,"CA","LRA Local Responsibility Area","KRN","LAND","02125006",2021-06-03 07:00:00,2021-06-03 07:00:00,"Unknown/Unidentified","GPS Ground","Suppression (Wildfire)",3.060403,NA,NA,"",NA,NA,"2020-January 2025",18649.18359375,861.603529960097,-118.76548871467,35.3297665074836,26.83486328125
1361,2021,"CA","CDF CAL FIRE (State)","SCU","STUHR","00004064",2021-06-05 07:00:00,2021-06-05 07:00:00,"Miscellaneous","GPS Ground","Suppression (Wildfire)",21.63566,NA,NA,"{629BA88A-6954-43D3-B3DC-350E55B01736}",NA,NA,"2020-January 2025",138728.31640625,1600.12990133228,-121.176869521396,37.3304855933795,19.681787109375
1387,2021,"CA","CDF CAL FIRE (State)","SLU","TOWER","00007714",2021-06-05 07:00:00,2021-06-05 07:00:00,"Unknown/Unidentified","Photo Interpretation","Suppression (Wildfire)",16.29048,NA,NA,"{F6AC830C-C520-4F9C-9848-F55FBA70AC3F}",NA,NA,"2020-January 2025",99274.609375,1468.53670514052,-120.620531255982,35.3319404436133,14.430322265625
1488,2021,"CA","CDF CAL FIRE (State)","BEU","REGIONAL","00003380",2021-06-05 07:00:00,2021-06-05 07:00:00,"Miscellaneous","Mixed Methods","Suppression (Wildfire)",2.635708,NA,NA,"{69E1858F-25B0-4A70-B36A-23EAF8CA8473}",NA,NA,"2020-January 2025",16564.72265625,676.553604537879,-121.564020541661,36.5600789771319,11.56435546875
1382,2021,"CA","CDF CAL FIRE (State)","FKU","OWENS","00008517",2021-06-06 07:00:00,2021-06-08 07:00:00,"Miscellaneous","GPS Ground","Suppression (Wildfire)",17.97407,NA,NA,"{843F71DF-B100-487C-94DE-E53C7B48301B}",NA,NA,"2020-January 2025",114103,1763.18193789704,-119.65464378803,36.9488645652963,25.41103515625
1404,2021,"CA","CDF CAL FIRE (State)","FKU","RUTH 2","00008521",2021-06-06 07:00:00,2021-06-08 07:00:00,"Equipment Use","GPS Ground","Suppression (Wildfire)",13.3051,NA,NA,"{9D7E2554-FFB8-43D6-AA59-F9EDE8C3CA8A}",NA,NA,"2020-January 2025",83972.9140625,1702.75225018554,-119.17287385301,36.7241934605692,22.31337890625
1505,2021,"CA","LRA Local Responsibility Area","LNU","KIWI","00009470",2021-06-07 07:00:00,2021-06-07 07:00:00,"Equipment Use","GPS Ground","Suppression (Wildfire)",1.75886,NA,NA,"{B1497ADB-8B12-4EBD-855E-9F087F923CF2}",NA,NA,"2020-January 2025",11575.7265625,489.909988820809,-122.255688757595,38.3008958319348,18.57705078125
1181,2021,"CA","CDF CAL FIRE (State)","NEU","INTANKO","00014434",2021-06-08 07:00:00,2021-06-16 07:00:00,"Unknown/Unidentified","GPS Ground","Suppression (Wildfire)",938.9399,NA,NA,"{7C9AC1EE-C688-472D-9705-FE4178D3DE5C}",NA,NA,"2020-January 2025",6318144.01953125,16870.9325031946,-121.323540594294,39.1006530126075,17.464501953125
1312,2021,"CA","CCO Contract County","SBC","BALLARD","00006763",2021-06-08 07:00:00,2021-06-09 07:00:00,"Debris","GPS Ground","Suppression (Wildfire)",37.1573,NA,NA,"{06D33638-676F-46DE-90D8-6900C99A13B0}",NA,NA,"2020-January 2025",222814.39453125,4835.32681787755,-120.136646489208,34.6659842707784,11.1029296875
1508,2021,"CA","CDF CAL FIRE (State)","LMU","ROUND","00003037",2021-06-08 07:00:00,2021-06-08 07:00:00,"Unknown/Unidentified","GPS Ground","Suppression (Wildfire)",1.699813,NA,NA,"{9B10376C-4CB1-4E9F-806A-9A1498B56287}",NA,NA,"2020-January 2025",11905.72265625,611.304570087919,-120.562231431975,40.4896270250435,12.176416015625
1180,2021,"CA","DOD Department of Defense","MCP","SIERRA","00001478",2021-06-09 07:00:00,2021-06-11 07:00:00,"Unknown/Unidentified","Mixed Methods","Suppression (Wildfire)",968.2691,"Fire is located on Camp Pendleton Military Base.",NA,"{3C190854-1E3D-4D2A-9CA7-85CBD03DF944}",NA,NA,"2020-January 2025",5627170.53125,17180.7201765225,-117.35371963139,33.3228935969798,16.280419921875
1215,2021,"CA","LRA Local Responsibility Area","BDU","FARMINGTON","00007748",2021-06-09 07:00:00,2021-06-11 07:00:00,"Unknown/Unidentified","GPS Air","Suppression (Wildfire)",248.6175,NA,NA,"{3C14A019-B265-4B54-B46C-A3A481D914DC}",NA,NA,"2020-January 2025",1481024.2421875,9309.88025273752,-117.419801558783,34.3883890914594,15.0794921875
1219,2021,"CA","BLM Bureau of Land Management","CDD","DESERT","00009281",2021-06-09 07:00:00,2021-06-17 07:00:00,"Miscellaneous","Mixed Methods","Suppression (Wildfire)",216.6215,"{E2C3AED4-9CF8-4A5A-96CC-CB30635740FB}",NA,"{E2C3AED4-9CF8-4A5A-96CC-CB30635740FB}",NA,NA,"2020-January 2025",1241887.80859375,10830.3598847979,-115.229375757068,32.7169934088464,29.52919921875
1274,2021,"CA","CDF CAL FIRE (State)","FKU","GOLD","00008672",2021-06-09 07:00:00,2021-06-10 07:00:00,"Unknown/Unidentified","GPS Ground","Suppression (Wildfire)",60.24131,NA,NA,"{70CA2D26-2808-4AE3-8D85-1A517AFC586B}",NA,NA,"2020-January 2025",383285.328125,3759.14964227514,-119.643894815777,37.0351633832692,16.234521484375
1377,2021,"CA","CDF CAL FIRE (State)","LNU","CREEK WEST","00009514",2021-06-09 07:00:00,2021-06-10 07:00:00,"Arson","GPS Ground","Suppression (Wildfire)",18.52191,NA,NA,"{C73A5CCD-98BA-40EF-A5A0-268132FF3AA1}",NA,NA,"2020-January 2025",123894.0703125,1364.23527499639,-122.234228938894,38.8881671769086,13.193017578125
1227,2021,"CA","FWS U.S. Fish & Wildlife Service","PLR","TURKEY","00000556",2021-06-10 07:00:00,2021-06-11 07:00:00,"Unknown/Unidentified","GPS Ground","Suppression (Wildfire)",171.3908,"N2U1",NA,"",NA,NA,"2020-January 2025",1059602.484375,9241.68367652657,-119.415472869941,35.9125756374271,18.371240234375
1427,2021,"CA","LRA Local Responsibility Area",NA,"SMITH","00006832",2021-06-11 07:00:00,2021-06-11 07:00:00,"Equipment Use","GPS Ground","Suppression (Wildfire)",9.446896,"Tehama County Fire Department",NA,"",NA,NA,"2020-January 2025",65249.25,1322.69947946153,-122.183149216511,40.0130802146327,18.043115234375
1469,2021,"CA","CDF CAL FIRE (State)","SHU","MALLARD","00005832",2021-06-11 07:00:00,2021-06-11 07:00:00,"Equipment Use","Hand-drawn","Suppression (Wildfire)",4.217206,"vegetation into structure with structure destroyed",NA,"{6D95FD63-E39A-43B2-A575-6B3E0FB1C748}",NA,NA,"2020-January 2025",29556.3125,788.774159410896,-122.210730707811,40.5107188171495,16.351708984375
1380,2021,"CA","CDF CAL FIRE (State)","NEU","SPRING","00014801",2021-06-12 07:00:00,2021-06-16 07:00:00,"Equipment Use","GPS Ground","Suppression (Wildfire)",18.20975,NA,NA,"{4E4B18A2-82BC-4E2B-BF85-AEED88C7C985}",NA,NA,"2020-January 2025",123101.984375,1789.66076896327,-121.411802084718,39.2645966540661,20.4056640625
1498,2021,"CA","CCO Contract County","KRN","PARK","02126710",2021-06-12 07:00:00,2021-06-12 07:00:00,"Vehicle","GPS Ground","Suppression (Wildfire)",2.092052,NA,NA,"",NA,NA,"2020-January 2025",12587.01953125,671.972312255431,-118.878832313096,34.8052232645781,16.242578125
1209,2021,"CA","USF U.S. Forest Service","BDF","FLATS","00009477",2021-06-13 07:00:00,2021-06-29 07:00:00,"Miscellaneous","Hand-drawn","Suppression (Wildfire)",342.571,NA,NA,"{CE1E4E85-89B0-439D-BA6A-045F3BE5FA1E}",NA,NA,"2020-January 2025",2002828.49609375,10930.8187546367,-116.440696827795,33.5848196432814,23.81630859375
1222,2021,"CA","CDF CAL FIRE (State)","NEU","BEALE","00014952",2021-06-13 07:00:00,2021-06-19 07:00:00,"Powerline","GPS Ground","Suppression (Wildfire)",201.303,NA,NA,"{CAC428F0-D720-4A90-BD3D-345B1A8F2EB9}",NA,NA,"2020-January 2025",1356606.36328125,7798.92422115634,-121.339758108677,39.1539489231118,24.4896484375
1265,2021,"CA","CDF CAL FIRE (State)","AEU","GOOSE","00016510",2021-06-13 07:00:00,2021-06-13 07:00:00,"Equipment Use","GPS Ground","Suppression (Wildfire)",65.68092,NA,NA,NA,NA,NA,"2020-January 2025",432205.46484375,3444.84879245863,-120.886509650065,38.2953218162636,20.272119140625
1385,2021,"CA","USF U.S. Forest Service","BDF","CLOUD","00009443",2021-06-13 07:00:00,2021-06-13 07:00:00,"Miscellaneous","Hand-drawn","Suppression (Wildfire)",16.93808,NA,NA,"{07F59657-A08F-4C9D-A795-CBEEBA2B9C7F}",NA,NA,"2020-January 2025",100420.74609375,2241.21322640451,-117.27976773791,34.186199247942,20.732080078125
1440,2021,"CA","CDF CAL FIRE (State)","LNU","MUSTANG","00009778",2021-06-13 07:00:00,2021-06-13 07:00:00,"Arson","GPS Ground","Suppression (Wildfire)",7.733727,NA,NA,"{3C61A498-7C46-49CB-A848-CA0F84C8BAD5}",NA,NA,"2020-January 2025",51569.26953125,880.133007591212,-122.620054547217,38.7755756859636,18.7484375
1224,2021,"CA","CCO Contract County","VNC","CASITAS","00049572",2021-06-14 07:00:00,2021-06-15 07:00:00,"Unknown/Unidentified","Infrared (IR)","Suppression (Wildfire)",188.1755,"FIRIS AEVEX 6/15 @ 00:20:01 UTC, Agency = BOR",NA,"{64EFC087-4F9E-4395-BEC8-0FCE4F71497C}",NA,NA,"2020-January 2025",1122120.18359375,5112.76636687088,-119.345119455754,34.4317368572126,19.32998046875
1278,2021,"CA","FWS U.S. Fish & Wildlife Service","SJR","RIVER","00000560",2021-06-14 07:00:00,2021-06-14 07:00:00,"Campfire","Mixed Methods","Suppression (Wildfire)",57.37954,"N2W7",NA,"",NA,NA,"2020-January 2025",371750.5546875,5596.12715629092,-121.149527224002,37.720237174156,20.386376953125
1306,2021,"CA","LRA Local Responsibility Area","SCU","PIERCY","00004308",2021-06-14 07:00:00,2021-06-14 07:00:00,"Unknown/Unidentified","GPS Ground","Suppression (Wildfire)",39.47499,NA,NA,"{98CD0A5B-F31B-4CC4-AA0F-56135A2BC4C8}",NA,NA,"2020-January 2025",252569.80078125,2560.51203476803,-121.759071612225,37.2487494525918,16.25283203125
1484,2021,"CA","CDF CAL FIRE (State)","LNU","OAK","00009827",2021-06-14 07:00:00,2021-06-14 07:00:00,"Equipment Use","GPS Ground","Suppression (Wildfire)",2.842491,NA,NA,"{E819A26F-F197-4EEA-851F-690182C7E889}",NA,NA,"2020-January 2025",18991.3828125,555.329177277388,-122.56736322453,38.8462586976597,17.502587890625
1231,2021,"CA","FWS U.S. Fish & Wildlife Service","SRR","DAIRY","00000569",2021-06-15 07:00:00,2021-06-23 07:00:00,"Escaped Prescribed Burn","Other Imagery","Suppression (Wildfire)",161.2339,"N2ZB.  ",NA,"",NA,NA,"2020-January 2025",1116694.05078125,6686.92304123656,-122.143221976065,40.1072853352977,20.856103515625
1246,2021,"CA","CDF CAL FIRE (State)","SHU","ROCK","00005984",2021-06-15 07:00:00,2021-06-19 07:00:00,"Equipment Use","GPS Ground","Suppression (Wildfire)",107.1646,NA,NA,"",NA,NA,"2020-January 2025",753830.9921875,4574.98440353208,-122.4983098335,40.6347224172597,18.1283203125
1315,2021,"CA","BLM Bureau of Land Management","CND","YANKEE","02127326",2021-06-15 07:00:00,2021-06-16 07:00:00,"Vehicle","GPS Ground","Suppression (Wildfire)",35.21027,NA,NA,"",NA,NA,"2020-January 2025",216288.03125,5889.27963648211,-118.440735840493,35.6547442001625,20.46572265625
1378,2021,"CA","CDF CAL FIRE (State)","RRU","KATHRYN","00079394",2021-06-15 07:00:00,2021-06-15 07:00:00,"Unknown/Unidentified","GPS Ground","Suppression (Wildfire)",18.46991,NA,NA,"{45DDE3A2-B572-4DFF-93DD-5EF94B562A78}",NA,NA,"2020-January 2025",108179.484375,1782.15857432468,-116.969628519725,33.663615138193,24.09267578125
1421,2021,"CA","CCO Contract County","ORC","LAGUNA","21070902",2021-06-16 07:00:00,2021-06-16 07:00:00,"Unknown/Unidentified","GPS Ground","Suppression (Wildfire)",10.62967,NA,NA,"{A06391BF-692E-4997-8EC6-4F916EF85355}",NA,NA,"2020-January 2025",62165.1015625,2761.00506315349,-117.772960942432,33.5982327922594,20.20498046875
1167,2021,"CA","USF U.S. Forest Service","LPF","WILLOW","00001493",2021-06-17 07:00:00,2021-07-12 07:00:00,"Miscellaneous","Mixed Methods","Suppression (Wildfire)",2877.869,NA,NA,"{4663977B-C875-4CC9-B8A6-9724F584B598}",NA,NA,"2020-January 2025",17924778.8867188,24069.3278735985,-121.545977326573,36.2075260154773,19.906640625
1169,2021,"CA","NPS National Park Service","MNP","MOJAVE","00009642",2021-06-17 07:00:00,2021-06-25 07:00:00,"Lightning","GPS Ground","Suppression (Wildfire)",2490.498,NA,NA,"{7403EA1B-4848-40F6-9EAD-958679EC2A7A}",NA,NA,"2020-January 2025",15188693.28125,34761.8517719458,-115.758161759678,35.3628923096928,33.994287109375
1292,2021,"CA","BLM Bureau of Land Management","CDD","OLD WOMAN","00009628",2021-06-17 07:00:00,2021-06-27 07:00:00,"Lightning","Unknown","Suppression (Wildfire)",47.4764,"{B318E58B-3D62-4D81-91FC-483384A85A12}",NA,"{B318E58B-3D62-4D81-91FC-483384A85A12}",NA,NA,"2020-January 2025",283983.640625,3866.99234323039,-115.189714656799,34.561478722078,37.508447265625
1485,2021,"CA","FWS U.S. Fish & Wildlife Service","SJR","CASJR STRINGER","00000583",2021-06-17 07:00:00,2021-06-17 07:00:00,"Powerline","GPS Ground","Suppression (Wildfire)",2.734319,"N26L",NA,"",NA,NA,"2020-January 2025",17696.94921875,1193.70841285801,-121.206238829408,37.68177998874,24.282373046875
1176,2021,"CA","BIA Bureau of Indian Affairs","TIA","NETTLE ","00001624",2021-06-18 07:00:00,2021-07-16 07:00:00,"Unknown/Unidentified","Infrared (IR)","Suppression (Wildfire)",1265.746,NA,NA,"{CBB8FC48-32C9-4523-9EE0-347E4D02EB29}",NA,NA,"2020-January 2025",7843390.47265625,13774.5305182465,-118.762938176653,36.0044536793739,25.295068359375
1193,2021,"CA","CDF CAL FIRE (State)","BDU","ALABAMA","00008199",2021-06-18 07:00:00,2021-06-21 07:00:00,"Lightning","GPS Ground","Suppression (Wildfire)",566.5927,"3 fires that burned into 1.",NA,"{65EB9E58-415E-418B-A300-F784BFED0000}",NA,NA,"2020-January 2025",3566649.2109375,12433.6833166811,-118.196570931421,36.6230598309442,20.41396484375
1203,2021,"CA","CDF CAL FIRE (State)","TUU","SUCCESS 2","00000349",2021-06-18 07:00:00,2021-06-21 07:00:00,"Lightning","GPS Ground","Suppression (Wildfire)",423.5609,NA,NA,"{76562AE1-9E5E-4CE8-9E5F-D68B567AEAC6}",NA,NA,"2020-January 2025",2626246.7109375,8313.9494959142,-118.825428000811,36.0284917349682,26.433251953125
1241,2021,"CA","USF U.S. Forest Service","SQF","MOUNTAIN","00001625",2021-06-18 07:00:00,2021-06-19 07:00:00,"Lightning","Mixed Methods","Suppression (Wildfire)",124.1572,NA,NA,"{E8BD571C-CDB2-48DD-919D-DB83CA0D770C}",NA,NA,"2020-January 2025",771117.00390625,7246.95755421848,-118.770917304415,36.0950779440251,24.725732421875
1293,2021,"CA","CCO Contract County","KRN","CRANE","02127866",2021-06-18 07:00:00,2021-06-20 07:00:00,"Unknown/Unidentified","GPS Ground","Suppression (Wildfire)",46.83553,"Crew 10",NA,"",NA,NA,"2020-January 2025",281977.2734375,3756.31872324104,-118.855754591983,34.8329131977752,26.520654296875
1418,2021,"CA","CDF CAL FIRE (State)","SLU","CRESTON","00008466",2021-06-18 07:00:00,2021-06-18 07:00:00,"Unknown/Unidentified","Photo Interpretation","Suppression (Wildfire)",11.01676,NA,NA,"{7A454308-286C-4185-A209-7E73649D9748}",NA,NA,"2020-January 2025",67544.01953125,1942.01927265658,-120.560593289959,35.5776057832783,21.5775390625
1525,2021,"CA","CCO Contract County","VNC","UNNAMED","00051094",2021-06-18 07:00:00,2021-06-18 07:00:00,"Equipment Use","Hand-drawn","Suppression (Wildfire)",1.121165,NA,NA,"",NA,NA,"2020-January 2025",6691.34375,485.140909508714,-119.285236737347,34.4673961954466,23.084130859375
1192,2021,"CA","USF U.S. Forest Service","INF","INYO CREEK","00001299",2021-06-19 07:00:00,2021-07-06 07:00:00,"Lightning","Infrared (IR)","Suppression (Wildfire)",601.6085,NA,NA,"{29A84861-D1CA-4C82-B8FD-62D45AE512D6}",NA,NA,"2020-January 2025",3783794.53125,17419.1285726889,-118.206798415617,36.5893982295565,19.82998046875
1194,2021,"CA","CDF CAL FIRE (State)","MVU","OVERLAND","00011189",2021-06-19 07:00:00,2021-06-24 07:00:00,"Campfire","Mixed Methods","Suppression (Wildfire)",559.1455,"GIS Acres 556",NA,"{CF0E9AEC-A309-402F-BD49-0398140FC2F4}",NA,NA,"2020-January 2025",3216346.6015625,9142.84899144016,-116.375233873832,32.8676296880031,24.2572265625
1431,2021,"CA","CCO Contract County","KRN","BEALE","02128049",2021-06-19 07:00:00,2021-06-19 07:00:00,"Vehicle","GPS Ground","Suppression (Wildfire)",8.94504,NA,NA,"",NA,NA,"2020-January 2025",54448.69921875,1454.87276738514,-118.732907107322,35.2850273660497,30.39638671875
1188,2021,"CA","CDF CAL FIRE (State)","SHU","COW","00006200",2021-06-20 07:00:00,2021-06-26 07:00:00,"Equipment Use","Infrared (IR)","Suppression (Wildfire)",761.1113,NA,NA,"{AF603979-4526-4EA0-9A72-EE8D9057EDE8}",NA,NA,"2020-January 2025",5340043.98828125,12304.1919128263,-122.113153136847,40.5473274539466,28.223779296875
1286,2021,"CA","CDF CAL FIRE (State)","MVU","CLEVENGER","00011299",2021-06-20 07:00:00,2021-06-21 07:00:00,"Unknown/Unidentified","Mixed Methods","Suppression (Wildfire)",53.04443,NA,NA,"{5E6DD98C-46A7-4ACA-823A-45B8063AA1AB}",NA,NA,"2020-January 2025",306656.10546875,2440.77498804468,-116.918798841822,33.0907099854457,18.882470703125
1337,2021,"CA","BLM Bureau of Land Management","CDD","OLD WOMAN 2","00009764",2021-06-20 07:00:00,2021-06-20 07:00:00,"Lightning","Unknown","Suppression (Wildfire)",25.38194,"{57375A21-700E-4948-B428-E403558FEE22}",NA,"{57375A21-700E-4948-B428-E403558FEE22}",NA,NA,"2020-January 2025",151781.4609375,1402.70634168335,-115.194785482994,34.5497118638647,39.33974609375
1305,2021,"CA","LRA Local Responsibility Area","NEU","WATT","00015817",2021-06-21 07:00:00,2021-06-23 07:00:00,"Unknown/Unidentified","GPS Ground","Suppression (Wildfire)",39.57343,NA,NA,"{EB58F929-87A8-4803-9608-02F1C0C23988}",NA,NA,"2020-January 2025",263568.0546875,2825.32154609099,-121.386025603529,38.7330614957286,22.19619140625
1313,2021,"CA","CCO Contract County","SBC","ONE","00007344",2021-06-21 07:00:00,2021-06-22 07:00:00,"Debris","GPS Ground","Suppression (Wildfire)",37.05353,NA,NA,"{5398FBCD-0204-456A-8B0F-A1A45E0977C8}",NA,NA,"2020-January 2025",221572.7890625,3102.80310347931,-120.353872799552,34.5490347076297,14.284814453125
1316,2021,"CA","CDF CAL FIRE (State)","AEU","BLACKSTONE","00017502",2021-06-21 07:00:00,2021-06-21 07:00:00,"Miscellaneous","GPS Ground","Suppression (Wildfire)",34.85899,NA,NA,"{0BD8B7B4-2C1B-49DE-8C3A-86268703F1D4}",NA,NA,"2020-January 2025",231589.9921875,2143.97914215705,-121.050129427991,38.6430457745888,21.774072265625
1352,2021,"CA","CDF CAL FIRE (State)","MEU","KIRK","00007806",2021-06-21 07:00:00,2021-06-22 07:00:00,"Miscellaneous","GPS Ground","Suppression (Wildfire)",23.05541,NA,NA,"{CBA27D31-AB0D-45A8-BABA-E3BAD3AAFAC4}",NA,NA,"2020-January 2025",155760.015625,2163.52317024439,-123.148850234302,39.241967223513,16.62587890625
1453,2021,"CA","CCO Contract County","KRN","HILL NORTH DIVISION","02128292",2021-06-21 07:00:00,2021-06-21 07:00:00,"Unknown/Unidentified","GPS Ground","Suppression (Wildfire)",6.112738,"Crew 10",NA,"",NA,NA,"2020-January 2025",37065.98828125,1097.09926055265,-119.470345258166,35.1279203718224,27.826318359375
1245,2021,"CA","USF U.S. Forest Service","MDF","ANTELOPE","00000580",2021-06-22 07:00:00,2021-06-29 07:00:00,"Lightning","GPS Ground","Suppression (Wildfire)",111.5138,NA,NA,"{22BBE193-7DE7-4DB3-9D00-A9E4F221F06A}",NA,NA,"2020-January 2025",807067.38671875,5589.72529659881,-120.766880047924,41.5761695433405,24.3734375
1212,2021,"CA","CDF CAL FIRE (State)","MVU","MESA 3","00011497",2021-06-23 07:00:00,2021-06-27 07:00:00,"Unknown/Unidentified","Mixed Methods","Suppression (Wildfire)",277.8741,NA,NA,"{F444AE2F-2DFD-4CD2-A7E7-1BCDFED63B4B}",NA,NA,"2020-January 2025",1615720.0859375,7219.43007507077,-117.104959638619,33.3455754026061,19.313623046875
1233,2021,"CA","CDF CAL FIRE (State)","BEU","PANOCHE","00003711",2021-06-23 07:00:00,2021-06-23 07:00:00,"Vehicle","Mixed Methods","Suppression (Wildfire)",146.4311,NA,NA,"{4B25C3B3-BB55-4F6B-85F5-5A4D9961466E}",NA,NA,"2020-January 2025",921913.8046875,5324.38788675486,-120.999279005878,36.6291228564816,17.50185546875
1288,2021,"CA","CDF CAL FIRE (State)","SHU","PINE","00006331",2021-06-23 07:00:00,2021-06-23 07:00:00,"Equipment Use","GPS Ground","Suppression (Wildfire)",50.93539,NA,NA,"",NA,NA,"2020-January 2025",356470.75390625,3139.79178940638,-122.480844050566,40.4623330982858,24.50576171875
1371,2021,"CA","USF U.S. Forest Service","MDF","FAIRCHILD","00000597",2021-06-23 07:00:00,2021-06-26 07:00:00,"Lightning","Mixed Methods","Suppression (Wildfire)",19.52532,NA,NA,"{88744FDA-25E3-4F7C-BBD7-68415212CB5E}",NA,NA,"2020-January 2025",141454.9921875,2130.66355835532,-120.763751885384,41.6090322428872,20.211328125
1399,2021,"CA","CDF CAL FIRE (State)","LMU","1-4 BIZZ","00003403",2021-06-23 07:00:00,2021-06-25 07:00:00,"Lightning","GPS Ground","Suppression (Wildfire)",13.89517,NA,NA,"{81FB32B1-E8E0-45F0-B38B-495DA015A540}",NA,NA,"2020-January 2025",97056.5390625,1569.62766427365,-120.770142037838,40.39651752623,16.452294921875
1464,2021,"CA","CDF CAL FIRE (State)","LNU","DREAM","00011470",2021-06-23 07:00:00,2021-06-23 07:00:00,"Arson","GPS Ground","Suppression (Wildfire)",4.769748,NA,NA,"{BCD26B2E-A498-4096-942E-B047DC2F51DD}",NA,NA,"2020-January 2025",31392.328125,769.152461693201,-122.461113506146,38.3018476524346,15.637353515625
1237,2021,"CA","CDF CAL FIRE (State)","LMU","4-3 PUMA","00003442",2021-06-24 07:00:00,2021-06-25 07:00:00,"Lightning","GPS Ground","Suppression (Wildfire)",132.4866,NA,NA,"{8C9216F4-E039-485C-ABCA-A4E41FCCA96F}",NA,NA,"2020-January 2025",958271.46484375,6023.27570533782,-120.502327531737,41.556349300134,20.068017578125
1494,2021,"CA","LRA Local Responsibility Area","VNC","PECK","00052911",2021-06-24 07:00:00,2021-06-24 07:00:00,"Unknown/Unidentified","Hand-drawn","Suppression (Wildfire)",2.240738,"approximate location - 2 ac brush fire",NA,"{888C5409-E374-40C4-ADE2-59C5A9CFAAB0}",NA,NA,"2020-January 2025",13332.38671875,468.820139144738,-119.071588676339,34.3384423449457,17.01748046875
1158,2021,"CA","USF U.S. Forest Service","SHF","LAVA","00000949",2021-06-25 07:00:00,2021-10-26 07:00:00,"Lightning","Mixed Methods","Suppression (Wildfire)",26328.9,NA,NA,"{A7F01FAF-7092-49EF-9D1E-154FBCA30808}",NA,NA,"2020-January 2025",189991722.742188,159380.002039552,-122.281220663678,41.4801444765246,19.4212890625
1256,2021,"CA","BLM Bureau of Land Management","CDD","SCENIC","00009987",2021-06-25 07:00:00,2021-06-28 07:00:00,"Unknown/Unidentified","Mixed Methods","Suppression (Wildfire)",80.03923,"{36A61385-71FC-4A2F-94E9-D660826C5F1A}",NA,"{36A61385-71FC-4A2F-94E9-D660826C5F1A}",NA,NA,"2020-January 2025",467968.44921875,2540.77758117696,-116.382273813039,33.5868758331157,22.740869140625
1309,2021,"CA","CDF CAL FIRE (State)","SCU","PASEO","00004612",2021-06-25 07:00:00,2021-06-25 07:00:00,"Equipment Use","GPS Ground","Suppression (Wildfire)",37.56758,NA,NA,"{A9FBCDD3-AD9B-4E1F-BEA8-5A746C40F338}",NA,NA,"2020-January 2025",239502.04296875,3190.0512244466,-121.578974547572,37.1116199055544,14.4466796875
1314,2021,"CA","USF U.S. Forest Service","STF","HENRY","00001280",2021-06-25 07:00:00,2021-08-18 07:00:00,"Lightning","Photo Interpretation","Suppression (Wildfire)",36.14811,NA,NA,"{31F08AE4-4DD2-4A8E-BFDD-779C552DF2A2}",NA,NA,"2020-January 2025",238976.3671875,3555.46217071304,-119.86495574282,38.464804621401,7.52822265625002
1220,2021,"CA","CCO Contract County","KRN","CANYON","02129347",2021-06-26 07:00:00,2021-06-27 07:00:00,"Unknown/Unidentified","GPS Ground","Suppression (Wildfire)",216.5297,NA,NA,"",NA,NA,"2020-January 2025",1323217.20703125,5812.18902551895,-118.783420932935,35.4452397206149,24.418603515625
1402,2021,"CA","CDF CAL FIRE (State)","AEU","STEINS","00018047",2021-06-26 07:00:00,2021-06-26 07:00:00,"Miscellaneous","GPS Ground","Suppression (Wildfire)",13.73235,NA,NA,"{5DDB0E07-9D4D-4652-8267-383BAA438F11}",NA,NA,"2020-January 2025",91277.0078125,3142.99743847687,-120.87354518094,38.6606223456669,20.275537109375
1477,2021,"CA","CDF CAL FIRE (State)","BEU","AROMAS","00003817",2021-06-26 07:00:00,2021-06-26 07:00:00,"Vehicle","Mixed Methods","Suppression (Wildfire)",3.190873,NA,NA,"{96B1B051-C713-43DE-83F2-065384586CA7}",NA,NA,"2020-January 2025",20208.734375,591.461799506236,-121.629524787998,36.8583532116876,13.684716796875
1173,2021,"CA","CCO Contract County","KRN","SHELL","02129463",2021-06-27 07:00:00,2021-07-02 07:00:00,"Unknown/Unidentified","GPS Ground","Suppression (Wildfire)",1828.035,NA,NA,"",NA,NA,"2020-January 2025",11024040.7148438,18696.0667112483,-118.90878328751,34.9014628078987,22.950830078125
1257,2021,"CA","USF U.S. Forest Service","LNF","SKY","00003531",2021-06-27 07:00:00,2021-07-29 07:00:00,"Unknown/Unidentified","Mixed Methods","Suppression (Wildfire)",79.92484,NA,NA,"{FCA6F1F5-25CC-4ED8-A09D-5331498FAE5F}",NA,NA,"2020-January 2025",552330.25390625,5497.57699745589,-121.433086648534,40.0313567118699,26.559716796875
1279,2021,"CA","DOD Department of Defense","TNT","PORT","00004691",2021-06-27 07:00:00,NA,"Unknown/Unidentified","Other Imagery","Suppression (Wildfire)",57.02632,NA,NA,"",NA,NA,"2020-January 2025",372692.0546875,2852.65231659161,-122.025071128893,38.0434069515603,15.894189453125
1476,2021,"CA","CCO Contract County","KRN","SCALES","02129454",2021-06-27 07:00:00,2021-06-27 07:00:00,"Vehicle","GPS Ground","Suppression (Wildfire)",3.222384,NA,NA,"",NA,NA,"2020-January 2025",19528.5,683.49717634336,-118.264261833694,35.1046791568724,26.172021484375
1161,2021,"CA","USF U.S. Forest Service","KNF","TENNANT","00005169",2021-06-28 07:00:00,2022-01-03 08:00:00,"Unknown/Unidentified","Infrared (IR)","Suppression (Wildfire)",10591.03,NA,NA,"{5C2D3644-5266-4028-A593-F66AA0791D54}",NA,NA,"2020-January 2025",76985666.8789062,95932.7481546149,-122.042852028058,41.7174469285847,25.724267578125
1243,2021,"CA","CDF CAL FIRE (State)","SKU","BESWICK","00005176",2021-06-28 07:00:00,2021-07-03 07:00:00,"Unknown/Unidentified","GPS Ground","Suppression (Wildfire)",118.0034,NA,NA,"{FA39AEF6-9C0A-4CAB-A437-B36C9E9B058E}",NA,NA,"2020-January 2025",862439.53515625,7735.89314747984,-122.419126027801,41.8930310145341,26.75234375
1334,2021,"CA","USF U.S. Forest Service","BDF","PEAK","00010128",2021-06-28 07:00:00,2021-06-29 07:00:00,"Miscellaneous","Mixed Methods","Suppression (Wildfire)",26.09075,"BF84C9EC-B0F3-4BAC-82A0-179C44DCE7A8",NA,"{BF84C9EC-B0F3-4BAC-82A0-179C44DCE7A8}",NA,NA,"2020-January 2025",154748.68359375,2729.9250392719,-117.282566551904,34.2039049312196,24.3607421875
1530,2021,"CA","CCO Contract County","KRN","DOYLE","02129655",2021-06-28 07:00:00,2021-06-28 07:00:00,"Unknown/Unidentified","GPS Ground","Suppression (Wildfire)",1.020253,NA,NA,"",NA,NA,"2020-January 2025",6273.125,352.991199316979,-118.230740490646,35.6930660852225,23.78896484375
1211,2021,"CA","USF U.S. Forest Service","SNF","BLUE","00000717",2021-06-29 07:00:00,2021-07-03 07:00:00,"Unknown/Unidentified","Photo Interpretation","Suppression (Wildfire)",291.1255,NA,NA,"{39A39A6B-3A78-45F5-88C0-E4CCE76DC9D9}",NA,NA,"2020-January 2025",1851909.6328125,7681.80083851024,-119.256054931981,37.0273903640873,23.3099609375
1285,2021,"CA","USF U.S. Forest Service","PNF","HARTMAN","00000997",2021-06-29 07:00:00,2021-07-14 07:00:00,"Unknown/Unidentified","Hand-drawn","Suppression (Wildfire)",53.54,NA,NA,"{042758FE-012F-41EE-9887-B7D1F3A53EBB}",NA,NA,"2020-January 2025",367371.80078125,2276.20732265744,-121.162697480062,39.7887951218611,22.704248046875
1416,2021,"CA","NPS National Park Service","YNP","KING","00000042",2021-06-29 07:00:00,2021-07-06 07:00:00,"Lightning","GPS Air","Suppression (Wildfire)",11.13475,NA,NA,"{F3AF4ED3-9B32-4714-B433-F303E5A61844}",NA,NA,"2020-January 2025",72126.58203125,1011.51551294722,-119.53429230926,37.7133801915311,17.052392578125
1160,2021,"CA","USF U.S. Forest Service","SHF","SALT","00000982",2021-06-30 07:00:00,2021-10-26 07:00:00,"Equipment Use","Other Imagery","Suppression (Wildfire)",12599.14,NA,NA,"{403B847B-B915-478A-87F0-1D8013C54B18}",NA,NA,"2020-January 2025",89360822.1210938,80335.8713987532,-122.35894161949,40.9109350148414,29.204248046875
1197,2021,"CA","USF U.S. Forest Service","PNF","DOTTA","00001010",2021-06-30 07:00:00,2021-07-22 07:00:00,"Unknown/Unidentified","Unknown","Suppression (Wildfire)",531.91,NA,"BECKWOURTH COMPLEX","{057F3945-7D3E-4AF0-B9FE-6D55CC8ED16B}",NA,"{FE46567A-A03E-4D5C-91E5-2788D89AA5A9}","2020-January 2025",3664169.33203125,16139.4570402651,-120.368632231177,39.9221872343115,21.95400390625
1326,2021,"CA","CCO Contract County","KRN","OAK","02130001",2021-06-30 07:00:00,2021-07-03 07:00:00,"Unknown/Unidentified","GPS Ground","Suppression (Wildfire)",29.9392,NA,NA,"",NA,NA,"2020-January 2025",181033.96484375,1597.19611361107,-118.402036600077,35.0122421709971,25.609521484375
1428,2021,"CA","CCO Contract County","KRN","EDMONSON","02130068",2021-06-30 07:00:00,2021-06-30 07:00:00,"Vehicle","GPS Ground","Suppression (Wildfire)",9.158972,"Crew 10",NA,"",NA,NA,"2020-January 2025",55302.03515625,997.179405838253,-118.933153496712,34.9527865652312,22.432275390625
1178,2021,"CA","USF U.S. Forest Service","HTF","EAST FORK","00030385",2021-07-01 07:00:00,2021-07-11 07:00:00,"Lightning","Infrared (IR)","Suppression (Wildfire)",1135.744," Overlap with Tamarack intentional",NA,"",NA,NA,"2020-January 2025",7571123.55859375,24604.1449139197,-119.735369510496,38.7654381641423,15.1771484375
1182,2021,"CA","NPS National Park Service","YNP","LUKENS","00000052",2021-07-01 07:00:00,2021-08-19 07:00:00,"Lightning","Mixed Methods","Resource Benefit (Wildland Fire Use)",918.1719,NA,NA,"{2449539E-6332-41D9-BAB7-DDFD690DC810}",NA,NA,"2020-January 2025",5970996.61328125,25798.6922711374,-119.632699819131,37.8599237591572,13.7171875
1216,2021,"CA","NPS National Park Service","YNP","COUNTY LINE","00000047",2021-07-01 07:00:00,2021-08-15 07:00:00,"Lightning","Mixed Methods","Resource Benefit (Wildland Fire Use)",224.9265,NA,NA,"{5F0F930F-C7DA-4EB5-B20A-E56224D34C80}",NA,NA,"2020-January 2025",1462300.12109375,6674.04139330863,-119.631391855873,37.8490530117029,13.801171875
1268,2021,"CA","BLM Bureau of Land Management","NOD","R-1 RYE","00003631",2021-07-01 07:00:00,2021-07-01 07:00:00,"Lightning","GPS Ground","Suppression (Wildfire)",64.69015,"{F9647BA9-3791-49F9-8AB3-BE47549C35FA}",NA,"{F9647BA9-3791-49F9-8AB3-BE47549C35FA}",NA,NA,"2020-January 2025",455782.8515625,3945.92865192042,-120.295561109824,40.6886649937621,23.76748046875
1438,2021,"CA","NPS National Park Service","YNP","FORK","00000049",2021-07-01 07:00:00,2021-07-12 07:00:00,"Lightning","GPS Ground","Suppression (Wildfire)",8.557461,NA,NA,"{C30EBDD5-47D7-4C9E-9228-C133A1B324DA}",NA,NA,"2020-January 2025",55406.86328125,1718.09850268221,-119.498807798988,37.6964825846447,13.46474609375
1513,2021,"CA","CCO Contract County","LAC","BOAT","02130196",2021-07-01 07:00:00,2021-07-01 07:00:00,"Vehicle","GPS Ground","Suppression (Wildfire)",1.496656,"South Fire Crew 10",NA,"",NA,NA,"2020-January 2025",9008.015625,807.78356103229,-118.878680346298,34.8202225061503,20.476708984375
1152,2021,"CA","USF U.S. Forest Service","PNF","SUGAR","00001046",2021-07-02 07:00:00,2021-10-28 07:00:00,"Unknown/Unidentified","Mixed Methods","Suppression (Wildfire)",105003.9,NA,"BECKWOURTH COMPLEX","{33088F36-F802-4500-86A4-82DA6A62425F}",NA,"{FE46567A-A03E-4D5C-91E5-2788D89AA5A9}","2020-January 2025",723650604.523438,293807.505631719,-120.178049417418,39.9366507302093,20.0091796875
1414,2021,"CA","NPS National Park Service","YNP","PORCUPINE","00000057",2021-07-02 07:00:00,2021-08-04 07:00:00,"Lightning","GPS Ground","Suppression (Wildfire)",11.19756,NA,NA,"{94706023-97DA-4CD9-B660-A57BFE5D546B}",NA,NA,"2020-January 2025",72742.02734375,1902.72272281316,-119.562838842755,37.8204630153588,14.071923828125
1202,2021,"CA","CDF CAL FIRE (State)","MVU","YSABEL 2","00012199",2021-07-03 07:00:00,2021-07-06 07:00:00,"Unknown/Unidentified","GPS Ground","Suppression (Wildfire)",428.2403,NA,NA,"{C9FD5607-2D68-42B5-85DE-4C9765C4C4EF}",NA,NA,"2020-January 2025",2478876.26171875,6427.6598955918,-116.668135945957,33.1474740927387,21.559228515625
1205,2021,"CA","CDF CAL FIRE (State)","TUU","MAIN","00000426",2021-07-03 07:00:00,2021-07-04 07:00:00,"Unknown/Unidentified","Other Imagery","Suppression (Wildfire)",378.4724,NA,NA,"{4A8C8637-C237-4F8D-B22F-F97876D76614}",NA,NA,"2020-January 2025",2351430.65234375,8360.638592527,-119.031123615884,36.1087706252368,28.12197265625
1307,2021,"CA","USF U.S. Forest Service","HTF","PAN","00030408",2021-07-03 07:00:00,2021-07-09 07:00:00,"Lightning","Unknown","Suppression (Wildfire)",38.7627,NA,NA,"",NA,NA,"2020-January 2025",255887.18359375,3662.13886931974,-119.213321093952,38.4116044758616,15.477685546875
1392,2021,"CA","CDF CAL FIRE (State)","SHU","LITTLE","00006860",2021-07-03 07:00:00,2021-07-04 07:00:00,"Miscellaneous","Hand-drawn","Suppression (Wildfire)",15.33097,"started from shooting",NA,"{F9C44EDF-E551-4BBE-90D3-28472E920E36}",NA,NA,"2020-January 2025",107866.765625,1828.98430057905,-122.459308313235,40.642105904496,30.0814453125
1457,2021,"CA","CDF CAL FIRE (State)","LNU","LEESVILLE","00011226",2021-07-03 07:00:00,2021-07-03 07:00:00,"Playing with Fire","GPS Ground","Suppression (Wildfire)",5.558945,NA,NA,"{05AD6812-5351-4546-AA4E-A271A29F9D13}",NA,NA,"2020-January 2025",37438.7109375,787.935722957492,-122.309132730832,39.1314639674219,27.06728515625
1156,2021,"NV","USF U.S. Forest Service","HTF","TAMARACK","00030419",2021-07-04 07:00:00,2021-10-26 07:00:00,"Lightning","Mixed Methods","Suppression (Wildfire)",67054.51,"Overlap with East Fork intentional",NA,"{B30866D5-FE66-4103-9B00-07ABE902A13F}",NA,NA,"2020-January 2025",446412142.464844,345181.660626398,-119.730231686622,38.7180189744014,16.1859375
1185,2021,"CA","CCO Contract County","LAC","TUMBLEWEED","00205212",2021-07-04 07:00:00,2021-07-08 07:00:00,"Unknown/Unidentified","GPS Ground","Suppression (Wildfire)",856.8701,NA,NA,"{7004765C-68A1-4A89-AD4F-6F7C6F7663FE}",NA,NA,"2020-January 2025",5150536.13671875,17039.1214432664,-118.82345821156,34.7657469523573,23.95791015625
1255,2021,"CA","CDF CAL FIRE (State)","SCU","KIRKER","00004875",2021-07-04 07:00:00,2021-07-04 07:00:00,"Vehicle","GPS Ground","Suppression (Wildfire)",83.55169,NA,NA,"{4BA252AF-146C-41C3-9D28-FB63FD6A162B}",NA,NA,"2020-January 2025",545069.58203125,4400.70592723132,-121.910851849809,37.9772226095834,16.4603515625
1266,2021,"CA","CDF CAL FIRE (State)","FKU","FISH","00010142",2021-07-04 07:00:00,2021-07-06 07:00:00,"Smoking","GPS Ground","Suppression (Wildfire)",65.27412,NA,NA,"{A4D886A7-B49F-406C-87D2-0590D1196AF0}",NA,NA,"2020-January 2025",412917.7734375,4967.81397003715,-119.383626006637,36.8133831629064,26.9701171875
1409,2021,"CA","CCO Contract County","LAC","DULCE","00205231",2021-07-04 07:00:00,2021-07-04 07:00:00,"Unknown/Unidentified","GPS Ground","Suppression (Wildfire)",12.19143,NA,NA,"{4166DD78-F457-4195-AA62-F13F497B4BD4}",NA,NA,"2020-January 2025",72843.36328125,1372.73361260489,-118.321657637181,34.5150206118437,22.813623046875
1439,2021,"CA","USF U.S. Forest Service","BDF","LONE","00010482",2021-07-04 07:00:00,2021-07-05 07:00:00,"Miscellaneous","GPS Ground","Suppression (Wildfire)",8.430901,NA,NA,"{FA866633-5CE9-45B0-9248-BCB9B4ACBD68}",NA,NA,"2020-January 2025",50106.65234375,1580.07895471457,-117.462137947958,34.2580192276053,23.273828125
1183,2021,"CA","USF U.S. Forest Service","MDF","JUNIPER","00000781",2021-07-05 07:00:00,2021-07-21 07:00:00,"Lightning","Photo Interpretation","Suppression (Wildfire)",882.0248,NA,NA,"{94CC574A-B0B6-422B-B399-6431FC4FC5A1}",NA,NA,"2020-January 2025",6432934.984375,14339.8648168318,-120.638516522559,41.8258443558052,23.332421875
1253,2021,"CA","BLM Bureau of Land Management","CDD","POLELINE","00010571",2021-07-05 07:00:00,2021-07-05 07:00:00,"Unknown/Unidentified","Hand-drawn","Suppression (Wildfire)",83.93266,"{7C02733B-8074-4504-9B85-C402839D0362}",NA,"{7C02733B-8074-4504-9B85-C402839D0362}",NA,NA,"2020-January 2025",511229.484375,3115.31543785118,-118.093408352818,35.3113148567211,25.06533203125
1417,2021,"CA","USF U.S. Forest Service","SHF","TANGLE","00001013",2021-07-05 07:00:00,2021-07-13 07:00:00,"Miscellaneous","Mixed Methods","Suppression (Wildfire)",11.05462,NA,NA,"{A127B249-EF74-4ED4-8922-72644E3C5EAD}",NA,NA,"2020-January 2025",79132.99609375,1661.80874456261,-122.746939521149,41.2166820872354,24.1390625
1272,2021,"CA","CCO Contract County","LAC","LIMA","00207495",2021-07-06 07:00:00,2021-07-06 07:00:00,"Unknown/Unidentified","GPS Ground","Suppression (Wildfire)",61.52447,NA,NA,"{7BAF08DE-5382-4B84-8C00-545DA09F312D}",NA,NA,"2020-January 2025",368931.28125,3723.94078217574,-118.326245287264,34.6658412658681,23.316064453125
1386,2021,"CA","CDF CAL FIRE (State)","HUU","HARRIS","00006479",2021-07-06 07:00:00,2021-07-06 07:00:00,"Unknown/Unidentified","GPS Ground","Suppression (Wildfire)",16.39773,NA,NA,"{A11FDDEB-13BB-4E19-8FF7-1E780E92C54C}",NA,NA,"2020-January 2025",113554.92578125,1504.0781384675,-123.687685977782,40.102895753236,19.879296875
1443,2021,"CA","CCO Contract County","ORC","PICO","21079730",2021-07-06 07:00:00,2021-07-06 07:00:00,"Equipment Use","GPS Ground","Suppression (Wildfire)",7.302879,NA,NA,"{F97E3649-1833-4A1E-8AE8-AE0A727C67C7}",NA,NA,"2020-January 2025",42588.39453125,1087.05733300673,-117.557980717782,33.4746777166545,18.485498046875
1262,2021,"CA","CDF CAL FIRE (State)","MEU","BROILER","00008559",2021-07-07 07:00:00,2021-07-08 07:00:00,"Equipment Use","Photo Interpretation","Suppression (Wildfire)",69.5676,NA,NA,"{899E1C47-7B99-422E-BE52-3DDD7033157D}",NA,NA,"2020-January 2025",470225.4296875,4839.66641709743,-123.229382835554,39.2595549138174,16.442529296875
1346,2021,"CA","USF U.S. Forest Service","INF","PINE","00001607",2021-07-07 07:00:00,2021-07-10 07:00:00,"Unknown/Unidentified","GPS Ground","Suppression (Wildfire)",24.69208,NA,NA,"{479EBB52-9370-4D16-94CF-8BFDC413B2AB}",NA,NA,"2020-January 2025",158490.37890625,2705.1117402621,-118.67890938148,37.3697301676172,15.45498046875
1446,2021,"CA","CDF CAL FIRE (State)","LNU","GRANGE","00011470",2021-07-07 07:00:00,2021-07-07 07:00:00,"Equipment Use","GPS Ground","Suppression (Wildfire)",6.612106,NA,NA,"{BCD26B2E-A498-4096-942E-B047DC2F51DD}",NA,NA,"2020-January 2025",43608.453125,1151.74732724435,-122.647580263,38.3777614715614,16.26650390625
1448,2021,"CA","CCO Contract County","KRN","AROSA","02131670",2021-07-08 07:00:00,2021-07-08 07:00:00,"Unknown/Unidentified","GPS Ground","Suppression (Wildfire)",6.567343,NA,NA,"",NA,NA,"2020-January 2025",39798.08203125,1171.85796572354,-118.523738358151,35.1026364133661,25.65517578125
1238,2021,"CA","USF U.S. Forest Service","MDF","COYOTE","00000839",2021-07-09 07:00:00,2021-07-19 07:00:00,"Equipment Use","GPS Ground","Suppression (Wildfire)",132.2827,NA,NA,"{23734560-0C20-4867-9E06-4150358AC117}",NA,NA,"2020-January 2025",962648.80078125,9799.26506619583,-121.296510677227,41.7541944259175,22.221826171875
1466,2021,"CA","CCO Contract County","LAC","TUNA","00211043",2021-07-09 07:00:00,2021-07-09 07:00:00,"Unknown/Unidentified","Other Imagery","Suppression (Wildfire)",4.544237,NA,NA,"{3EB9DD67-C19B-4BF6-B8A0-1EEDA2924B03}",NA,NA,"2020-January 2025",26855.39453125,893.374158362318,-118.591827320785,34.0495706947416,20.62001953125
1501,2021,"CA","CDF CAL FIRE (State)","LNU","SPRING","00011569",2021-07-09 07:00:00,2021-07-09 07:00:00,"Miscellaneous","GPS Ground","Suppression (Wildfire)",1.90975,NA,NA,"{6CD72515-3D69-43B5-B60E-E705F38859A2}",NA,NA,"2020-January 2025",12644.34375,467.641158883041,-122.53430786161,38.5191705838538,23.43447265625
1248,2021,"CA","NPS National Park Service","KNP","LOST","00000053",2021-07-10 07:00:00,2021-07-18 07:00:00,"Lightning","GPS Ground","Suppression (Wildfire)",100.7824,NA,NA,"{97EBB2D0-CA38-4CC1-B4C9-9C249D93B4A3}",NA,NA,"2020-January 2025",639338.8125,7246.82169105311,-118.703422822395,36.9219296068398,15.91884765625
1254,2021,"CA","USF U.S. Forest Service","CNF","ROAD","00002130",2021-07-10 07:00:00,2021-07-18 07:00:00,"Equipment Use","GPS Ground","Suppression (Wildfire)",83.56132,NA,NA,"{47475A67-8A87-40FA-801A-84C9105CF165}",NA,NA,"2020-January 2025",480396.6953125,5193.22596882363,-116.651966507114,32.8425414200616,22.80361328125
1162,2021,"CA","CDF CAL FIRE (State)","MMU","RIVER","00014714",2021-07-11 07:00:00,2021-07-19 07:00:00,"Unknown/Unidentified","Unknown","Suppression (Wildfire)",9655.188,NA,NA,"{D3A00541-DBCB-4519-8B77-B9B4DFEDDD0B}",NA,NA,"2020-January 2025",61910651.0195312,70479.3167254018,-119.830540008697,37.3313246890651,30.648095703125
1208,2021,"CA","USF U.S. Forest Service","SHF","BRADLEY","00001067",2021-07-11 07:00:00,2021-10-25 07:00:00,"Miscellaneous","Mixed Methods","Suppression (Wildfire)",356.868,NA,NA,"{298E6FEA-3C0A-4EF5-A4E8-26F913EF171F}",NA,NA,"2020-January 2025",2559677.5,8052.70408213661,-121.970754002393,41.2821794266361,25.05166015625
1239,2021,"CA","CDF CAL FIRE (State)","SCU","DIABLO","00005106",2021-07-11 07:00:00,2021-07-11 07:00:00,"Unknown/Unidentified","GPS Air","Suppression (Wildfire)",127.659,NA,NA,"{B6BDC38E-D256-4AB6-B968-3A57263BE49D}",NA,NA,"2020-January 2025",828774.70703125,5690.56147149824,-121.686046123593,37.7967365442162,24.778955078125
1310,2021,"CA","CDF CAL FIRE (State)","MVU","MARRON 4","00012731",2021-07-11 07:00:00,2021-07-15 07:00:00,"Vehicle","GPS Ground","Suppression (Wildfire)",37.3201,NA,NA,"{06AD955C-BE78-4D05-8213-9A583CA36B1E}",NA,NA,"2020-January 2025",213430.40234375,2583.48572814321,-116.765937308572,32.6061273361595,21.256494140625
1166,2021,"CA","USF U.S. Forest Service","INF","DEXTER","00001695",2021-07-12 07:00:00,2021-11-01 07:00:00,"Lightning","Mixed Methods","Suppression (Wildfire)",2967.832,NA,NA,"{2D98ADAA-65B2-4E85-BDF5-FED3B385269D}",NA,NA,"2020-January 2025",19274317.9296875,31681.6815270169,-118.868998875836,37.8099825331674,19.295068359375
1351,2021,"CA","CDF CAL FIRE (State)","SHU","CREEKSIDE","00007277",2021-07-12 07:00:00,2021-07-13 07:00:00,"Miscellaneous","GPS Ground","Suppression (Wildfire)",23.22825,NA,NA,"{E818278F-30A4-4144-B6C7-99996F074E89}",NA,NA,"2020-January 2025",162162.26953125,2484.7853362389,-122.458475830545,40.3787288237457,32.315576171875
1376,2021,"CA","CCO Contract County","KRN","CALIENTE","02132329",2021-07-12 07:00:00,2021-07-12 07:00:00,"Railroad","GPS Ground","Suppression (Wildfire)",18.59738,NA,NA,"",NA,NA,"2020-January 2025",113191.6015625,10961.8723434369,-118.647494319741,35.2805658119456,28.197900390625
1146,2021,"CA","CDF CAL FIRE (State)","BTU","DIXIE","00009205",2021-07-14 07:00:00,2021-10-25 07:00:00,"Powerline","Mixed Methods","Suppression (Wildfire)",963405.4,"Includes Evans -INC #00001358- and Fly -INC #00001273",NA,"{E9DB628D-DFB7-4C85-BCD6-1254574D946B}",NA,NA,"2020-January 2025",6692866164.60156,2010262.4482503,-121.047122526425,40.2109772645451,20.933740234375
1298,2021,"CA","CDF CAL FIRE (State)","TGU","CANNON","00008356",2021-07-14 07:00:00,2021-07-14 07:00:00,"Arson","GPS Ground","Suppression (Wildfire)",43.3417,NA,NA,"{7336B9BA-7B78-4F42-A589-6611597985D9}",NA,NA,"2020-January 2025",301282.1875,2611.59010908605,-122.610477313384,40.2324910476777,26.024560546875
1311,2021,"CA","USF U.S. Forest Service","INF","GLACIER NORTH","00001732",2021-07-15 07:00:00,2021-08-20 07:00:00,"Lightning","Hand-drawn","Suppression (Wildfire)",37.2558,NA,NA,"{021BB0CC-3981-4987-9F5B-BEED4DEC902E}",NA,NA,"2020-January 2025",237742.98046875,2932.28463989156,-118.423441916607,37.1483378251806,19.968896484375
1350,2021,"CA","CDF CAL FIRE (State)","MVU","BORDER 13","00013076",2021-07-15 07:00:00,2021-07-16 07:00:00,"Powerline","Mixed Methods","Suppression (Wildfire)",23.32513,NA,NA,"{26EF47B3-A8E0-42D1-84E7-81B3BB662F0F}",NA,NA,"2020-January 2025",133303.47265625,1963.8163536179,-116.656485267817,32.5753036659575,20.789208984375
1452,2021,"CA","CCO Contract County","ORC","CECIL","21083826",2021-07-15 07:00:00,2021-07-15 07:00:00,"Vehicle","GPS Ground","Suppression (Wildfire)",6.260819,NA,NA,"{5E2A5AFE-44CD-405F-BB94-E42E4799524C}",NA,NA,"2020-January 2025",36566.9140625,971.190459690897,-117.65264609487,33.5410799957986,20.49990234375
1302,2021,"CA","CDF CAL FIRE (State)","TGU","FORK","00008487",2021-07-17 07:00:00,2021-07-17 07:00:00,"Miscellaneous","GPS Ground","Suppression (Wildfire)",40.82636,"REFRACTION",NA,"{D84E890E-6DF9-40F8-AE6A-43CAF4F3783A}",NA,NA,"2020-January 2025",281808.6875,3066.32921544234,-122.563580688829,39.991476118923,24.453759765625
1411,2021,"CA","CCO Contract County","KRN","ROOST","02133363",2021-07-17 07:00:00,2021-07-17 07:00:00,"Unknown/Unidentified","GPS Ground","Suppression (Wildfire)",12.09895,NA,NA,"",NA,NA,"2020-January 2025",73388.55078125,1211.34716788421,-118.573091644967,35.1412628946181,23.9173828125
1244,2021,"CA","BLM Bureau of Land Management","NOD","CHICKEN","00004123",2021-07-18 07:00:00,2021-07-20 07:00:00,"Equipment Use","Hand-drawn","Suppression (Wildfire)",117.692,"{259F4D3E-126F-4435-8325-86E165315198}",NA,"{259F4D3E-126F-4435-8325-86E165315198}",NA,NA,"2020-January 2025",833953.2734375,7119.08559589682,-120.331699763254,40.8793564689269,20.953515625
1486,2021,"CA","CDF CAL FIRE (State)","LNU","COLEMAN","00012270",2021-07-18 07:00:00,2021-07-18 07:00:00,"Arson","GPS Ground","Suppression (Wildfire)",2.714847,NA,NA,"{C0E9CBC5-9E6A-4B4D-BBE3-12FD5C95698C}",NA,NA,"2020-January 2025",17912.99609375,595.998096270343,-123.046756536625,38.3938352182107,16.03505859375
1276,2021,"CA","NPS National Park Service","YNP","HOOVER","00000075",2021-07-19 07:00:00,2021-07-24 07:00:00,"Lightning","GPS Ground","Suppression (Wildfire)",58.59269,NA,NA,"{5FA220B7-1EB0-43F3-AA15-F36AF3DAA796}",NA,NA,"2020-January 2025",378834.640625,5137.09532478903,-119.487853519654,37.6437288297496,15.95791015625
1444,2021,"CA","CCO Contract County","LAC","FLORES","00223635",2021-07-19 07:00:00,2021-07-19 07:00:00,"Unknown/Unidentified","GPS Ground","Suppression (Wildfire)",6.922003,NA,NA,"{B907C5DC-8E75-4BD1-B949-AF76487B736B}",NA,NA,"2020-January 2025",40922.27734375,1173.61544978681,-118.626921262102,34.0651759871703,21.885400390625
1172,2021,"CA","BLM Bureau of Land Management","CND","PEAK","00002374",2021-07-20 07:00:00,2021-07-31 07:00:00,"Unknown/Unidentified","Mixed Methods","Suppression (Wildfire)",2096.645,"{8AA7C284-8414-4FB2-B720-562A4C25EBA1}",NA,"{8AA7C284-8414-4FB2-B720-562A4C25EBA1}",NA,NA,"2020-January 2025",12804983.9414062,27703.3344561708,-118.405741460818,35.4209761556873,23.655908203125
1284,2021,"CA","CDF CAL FIRE (State)","NEU","FRENCHTOWN","00019068",2021-07-20 07:00:00,2021-07-22 07:00:00,"Vehicle","GPS Ground","Suppression (Wildfire)",54.10636,NA,NA,"{0D59BA70-6560-4CAE-9E2A-8338CA1FCC8E}",NA,NA,"2020-January 2025",367060.6640625,3358.42318524242,-121.239675749277,39.3886557919461,25.046533203125
1325,2021,"CA","CDF CAL FIRE (State)","LNU","GIBSON","00013170",2021-07-20 07:00:00,2021-07-22 07:00:00,"Arson","GPS Ground","Suppression (Wildfire)",29.98372,NA,NA,"{CE7AFC1A-B520-439B-8F12-8981CC1372A0}",NA,NA,"2020-January 2025",197580.67578125,2232.54540755351,-122.020112687018,38.3464654482624,19.20546875
1355,2021,"CA","USF U.S. Forest Service","ENF","SUMMIT","00021041",2021-07-20 07:00:00,2021-10-26 07:00:00,"Lightning","Hand-drawn","Suppression (Wildfire)",22.27062,NA,NA,"{6307E152-8232-4C2D-B5FE-E030E5D8641E}",NA,NA,"2020-January 2025",147890.5,2639.82851684893,-120.03861825247,38.6266391040972,13.519921875
1520,2021,"CA","LRA Local Responsibility Area","LDF","PEAK","00001026",2021-07-20 07:00:00,2021-07-20 07:00:00,"Vehicle","Mixed Methods","Suppression (Wildfire)",1.283047,NA,NA,"{561B9D97-7776-41F4-9CCF-7314209A8655}",NA,NA,"2020-January 2025",7621.8359375,374.381935985392,-118.63209990922,34.2700790020102,22.577783203125
1518,2021,"CA","CCO Contract County","VNC","YOSEMITE","00061618",2021-07-22 07:00:00,2021-07-23 07:00:00,"Unknown/Unidentified","GPS Ground","Suppression (Wildfire)",1.366251,NA,NA,"{8B13AA55-9F22-4BE4-83D3-4A8BE2AB2822}",NA,NA,"2020-January 2025",8119.89453125,517.299725092275,-118.658508388655,34.2901170986658,23.695947265625
1340,2021,"CA","CDF CAL FIRE (State)","HUU","MOUNTAIN","00007052",2021-07-23 07:00:00,2021-07-23 07:00:00,"Arson","GPS Ground","Suppression (Wildfire)",25.31992,NA,NA,"{97DD9C97-8A6F-438A-83A3-273263045488}",NA,NA,"2020-January 2025",174727.15234375,1928.9531962166,-123.508860332541,39.9823198100831,18.449609375
1532,2021,"CA","LRA Local Responsibility Area","ORC","BONITA","21088038",2021-07-24 07:00:00,2021-07-24 07:00:00,"Vehicle","GPS Ground","Suppression (Wildfire)",1.013455,NA,NA,"{B6805A5E-5820-4F83-B02B-BADC81CC3820}",NA,NA,"2020-January 2025",5927.4375,449.283641274316,-117.779500072791,33.6018935010877,19.989404296875
1328,2021,"CA","LRA Local Responsibility Area","BEU","JOLON","00004312",2021-07-25 07:00:00,2021-07-25 07:00:00,"Equipment Use","Mixed Methods","Suppression (Wildfire)",28.44884,NA,NA,"{0121B328-0E1B-4E2E-B455-1AA0A65818E2}",NA,NA,"2020-January 2025",177152.69140625,4084.40347006664,-121.139906185812,36.1984618826124,20.87783203125
1228,2021,"CA","CDF CAL FIRE (State)","BEU","PINNACLES","00004376",2021-07-28 07:00:00,2021-07-30 07:00:00,"Miscellaneous","Mixed Methods","Suppression (Wildfire)",170.7329,NA,NA,"{BEC6EB4B-6B78-4AC6-8110-3422425CE6F8}",NA,NA,"2020-January 2025",1070524.30859375,7063.94467010881,-121.219176417613,36.4695440497374,20.415673828125
1348,2021,"CA","CDF CAL FIRE (State)","SLU","GROVE","00010778",2021-07-28 07:00:00,2021-07-28 07:00:00,"Vehicle","Photo Interpretation","Suppression (Wildfire)",24.01903,NA,NA,"{5C33F671-AFF8-49F9-9AD3-BE5D2645EDB7}",NA,NA,"2020-January 2025",147569.90234375,2125.58906915634,-120.454609774697,35.6621044896207,19.518212890625
1406,2021,"CA","NPS National Park Service","KNP","SENTINEL","00000077",2021-07-29 07:00:00,2021-10-25 07:00:00,"Lightning","GPS Air","Suppression (Wildfire)",12.4895,NA,NA,"{FE5A0B83-C4A8-4467-A6EB-19B276B44EDF}",NA,NA,"2020-January 2025",78887.5703125,1434.66902525067,-118.670640169936,36.7547109764341,13.13564453125
1151,2021,"CA","USF U.S. Forest Service","SHF","MCFARLAND","00001175",2021-07-30 07:00:00,2021-10-26 07:00:00,"Lightning","Infrared (IR)","Suppression (Wildfire)",122447.7,NA,NA,"{938686BB-0F52-47B2-B077-EB307941D939}",NA,NA,"2020-January 2025",852182962.640625,277221.689592051,-122.903906178767,40.2728413619114,24.985498046875
1463,2021,"CA","CDF CAL FIRE (State)","LNU","DIMOND","00013180",2021-07-30 07:00:00,2021-07-30 07:00:00,"Arson","GPS Ground","Suppression (Wildfire)",4.771153,NA,NA,"{0E39B0F0-2D49-4617-B267-37644033109A}",NA,NA,"2020-January 2025",31877.6875,1058.48602867033,-122.609628639823,38.8467913022199,25.201318359375
1147,2021,"CA","USF U.S. Forest Service","SHF","MONUMENT","00001187",2021-07-31 07:00:00,2021-11-03 07:00:00,"Lightning","Mixed Methods","Suppression (Wildfire)",223107.9,NA,NA,"{9CF3A69A-A888-4BCD-AA7A-703D75D47E78}",NA,NA,"2020-January 2025",1574029698.375,535745.115358223,-123.254881524998,40.7331828322596,22.8685546875
1149,2021,"CA","USF U.S. Forest Service","KNF","RIVER COMPLEX","00006385",2021-07-31 07:00:00,2021-10-25 07:00:00,"Lightning","Mixed Methods","Suppression (Wildfire)",199354.1,"includes Haypress -INC #00006414-, Summer -INC #00006376-, and Cronan -INC #00006381-","RIVER COMPLEX","{0B29DF1A-7790-44CB-B735-ABDEAE0615CC}",NA,"{0B29DF1A-7790-44CB-B735-ABDEAE0615CC}","2020-January 2025",1422803378.64062,1615527.51410939,-122.986594621179,41.1182413888761,20.889306640625
1171,2021,"CA","NPS National Park Service","YNP","TILTILL","00000095",2021-07-31 07:00:00,2021-08-15 07:00:00,"Lightning","Mixed Methods","Resource Benefit (Wildland Fire Use)",2348.53,NA,NA,"{BC9AFF27-7865-4592-B930-EC465BBC88CB}",NA,NA,"2020-January 2025",15328712.3789062,29291.627133074,-119.700705991268,37.9953657134688,14.99697265625
1207,2021,"CA","CCO Contract County","VNC","HUNGRY","00064746",2021-07-31 07:00:00,2021-08-02 07:00:00,"Vehicle","GPS Air","Suppression (Wildfire)",365.7711,NA,NA,"",NA,NA,"2020-January 2025",2199828.42578125,8384.85212769028,-118.887975843745,34.7889393400757,22.83876953125
1267,2021,"CA","CDF CAL FIRE (State)","SLU","TOBIN","00010924",2021-07-31 07:00:00,2021-07-31 07:00:00,"Vehicle","GPS Ground","Suppression (Wildfire)",64.70691,NA,NA,"{71FB2791-ADC9-4423-89CC-17F62EF76D34}",NA,NA,"2020-January 2025",397522.89453125,3789.78455899181,-120.535364011286,35.659235305168,18.334619140625
1150,2021,"CA","USF U.S. Forest Service","KNF","ANTELOPE","00006454",2021-08-01 07:00:00,2022-01-03 08:00:00,"Lightning","Mixed Methods","Suppression (Wildfire)",145631.8,"Includes Baird perimeter INC NUM 00006530",NA,"{4098977E-B34D-40C3-8F34-2B913217503A}",NA,NA,"2020-January 2025",1055549372.58594,509731.646882429,-121.76779793571,41.6240345239098,21.445703125
1154,2021,"CA","USF U.S. Forest Service","SRF","MCCASH","00000651",2021-08-01 07:00:00,2021-10-27 07:00:00,"Lightning","Mixed Methods","Suppression (Wildfire)",94970.47,NA,NA,"{D294B9CA-4CE7-46C5-874B-E12EBE925E1F}",NA,NA,"2020-January 2025",687051427.957031,418328.565700515,-123.35574633793,41.5625577664244,22.85927734375
1301,2021,"CA","CDF CAL FIRE (State)","SHU","HIDING","00008125",2021-08-01 07:00:00,2021-08-02 07:00:00,"Equipment Use","GPS Ground","Suppression (Wildfire)",41.50576,NA,NA,"{9322A614-EB6C-4F0B-8708-F0855B600A2F}",NA,NA,"2020-January 2025",290559.95703125,3147.13163947765,-122.476405542437,40.4719197580864,28.714501953125
1319,2021,"CA","CDF CAL FIRE (State)","MVU","QUEEN","00014301",2021-08-01 07:00:00,2021-08-09 07:00:00,"Equipment Use","Hand-drawn","Suppression (Wildfire)",32.81554,"Welding",NA,"{494FFBD5-86DF-4B3C-9C6F-985A256CA092}",NA,NA,"2020-January 2025",189603.671875,2718.153420004,-116.514944802857,33.0656740222556,21.7396484375
1474,2021,"CA","CDF CAL FIRE (State)","LNU","CREEK","00013307",2021-08-01 07:00:00,2021-08-01 07:00:00,"Arson","GPS Ground","Suppression (Wildfire)",3.695564,NA,NA,"{C444856D-B66F-4983-8953-2AD10ADE292C}",NA,NA,"2020-January 2025",24640.68359375,937.817601900293,-123.06911429095,38.773071665581,16.25283203125
1475,2021,"CA","CCO Contract County","LAC","SYCAMORE","00240307",2021-08-02 07:00:00,2021-08-02 07:00:00,"Vehicle","GPS Ground","Suppression (Wildfire)",3.27472,NA,NA,"{19A3FED9-54EE-4186-88EA-DBFC1A618469}",NA,NA,"2020-January 2025",19692.67578125,615.439122138747,-118.659877037272,34.7842658020247,24.779931640625
1517,2021,"CA","CDF CAL FIRE (State)","LNU","STUBBS","00013415",2021-08-02 07:00:00,2021-08-02 07:00:00,"Arson","GPS Ground","Suppression (Wildfire)",1.37785,NA,NA,"{193793CA-6924-4EE7-87AF-EDF289AA7037}",NA,NA,"2020-January 2025",9251.7890625,417.925631688694,-122.685160923796,39.0245261905564,21.083642578125
1291,2021,"CA","USF U.S. Forest Service","ANF","ANTONIO","00002891",2021-08-03 07:00:00,2021-08-04 07:00:00,"Equipment Use","Infrared (IR)","Suppression (Wildfire)",49.89998,"1A6176A5-5B74-423E-964D-859E5F8EABE6",NA,"{1A6176A5-5B74-423E-964D-859E5F8EABE6}",NA,NA,"2020-January 2025",296061.19921875,3424.10679962923,-117.693933546754,34.2177074050415,23.553369140625
1419,2021,"CA","CDF CAL FIRE (State)","LNU","EASTSIDE","00013464",2021-08-03 07:00:00,2021-08-04 07:00:00,"Equipment Use","GPS Ground","Suppression (Wildfire)",10.85849,NA,NA,"{B818F9BF-0826-4DC7-ADD5-20949EF12954}",NA,NA,"2020-January 2025",72149.05859375,1196.39581891299,-122.183505394611,38.647720261683,20.139306640625
1168,2021,"CA","CDF CAL FIRE (State)","NEU","RIVER","00020628",2021-08-04 07:00:00,2021-08-13 07:00:00,"Unknown/Unidentified","Mixed Methods","Suppression (Wildfire)",2618.794,NA,NA,"{CD496AEC-A7E7-4F99-A9B2-C7501A1C0A2D}",NA,NA,"2020-January 2025",17629432.4570312,30707.8141138647,-120.980172596794,39.115805638712,21.896142578125
1275,2021,"CA","CDF CAL FIRE (State)","SHU","HOUSE","00008225",2021-08-04 07:00:00,2021-08-09 07:00:00,"Smoking","GPS Ground","Suppression (Wildfire)",59.11795,NA,NA,"",NA,NA,"2020-January 2025",415496.1796875,3304.57106936492,-122.518614866868,40.6056396697423,26.692041015625
1258,2021,"CA","USF U.S. Forest Service","PNF","LONE ROCK","00001487",2021-08-06 07:00:00,2021-08-10 07:00:00,"Unknown/Unidentified","Hand-drawn",NA,78.31017,NA,NA,"{AD8BF894-C65F-48B1-B5BC-74BE0018491D}",NA,NA,"2020-January 2025",544566.64453125,3802.74780078718,-120.711517655396,40.2453895450199,17.54775390625
1289,2021,"CA","USF U.S. Forest Service","SHF","HAMBONE","00001233",2021-08-06 07:00:00,2021-08-23 07:00:00,"Lightning","GPS Ground","Suppression (Wildfire)",50.69745,NA,NA,"{A26DCB69-4D1C-40A2-B85F-74B8898EEDDB}",NA,NA,"2020-January 2025",364482.50390625,3076.70572248032,-121.599194183882,41.3587622712917,16.37197265625
1365,2021,"CA","USF U.S. Forest Service","SHF","LAKIN","00001235",2021-08-06 07:00:00,2021-08-23 07:00:00,"Lightning","Hand-drawn","Suppression (Wildfire)",20.79543,NA,NA,"{027175BA-5BBD-45F6-B577-F5CE0653F982}",NA,NA,"2020-January 2025",149522.5078125,2779.36419656207,-121.582291931145,41.3623742826577,16.445458984375
1456,2021,"CA","LRA Local Responsibility Area","ORC","RIDGE","21094052",2021-08-06 07:00:00,2021-08-06 07:00:00,"Equipment Use","GPS Ground","Suppression (Wildfire)",5.647393,NA,NA,"",NA,NA,"2020-January 2025",33082.9375,879.335347829174,-117.749732473654,33.671208673147,20.08388671875
1512,2021,"CA","CCO Contract County","LAC","VASQUEZ","00244896",2021-08-06 07:00:00,2021-08-06 07:00:00,"Unknown/Unidentified","GPS Ground","Suppression (Wildfire)",1.501651,NA,NA,"{46959910-EF6F-46B5-8B5A-62177E17B609}",NA,NA,"2020-January 2025",8964.01171875,594.401024090168,-118.423965304883,34.4760628533318,24.260888671875
1369,2021,"CA","CCO Contract County","LAC","GOLDEN","00246149",2021-08-07 07:00:00,2021-08-07 07:00:00,"Vehicle","GPS Ground","Suppression (Wildfire)",19.88849,NA,NA,"{CE88B3A6-4657-439D-8DFF-68DF556B368F}",NA,NA,"2020-January 2025",118472.01171875,3090.81560394961,-118.479801772633,34.3867973248652,21.07021484375
