"OBJECTID","YEAR_","STATE","AGENCY","UNIT_ID","FIRE_NAME","INC_NUM","ALARM_DATE","CONT_DATE","CAUSE","C_METHOD","OBJECTIVE","GIS_ACRES","COMMENTS","COMPLEX_NAME","IRWINID","FIRE_NUM","COMPLEX_ID","DECADES","Shape__Area","Shape__Length","Lon","Lat","TEMPERATURE_2M_ALARM_DATE"
11682,1983,"CA","CDF CAL FIRE (State)","LNU","HOWELL MTN.","00000000",NA,NA,"Unknown/Unidentified",NA,"Suppression (Wildfire)",2353.552,NA,NA,NA,"00000251",NA,"1980-1989",15589017.4296875,23014.3327389945,-122.421642895761,38.533845591306,NA
11738,1983,"CA","USF U.S. Forest Service","INF"," ","00000000",NA,NA,"Miscellaneous",NA,"Suppression (Wildfire)",265.9426,NA,NA,NA,"00005315",NA,"1980-1989",1711600.765625,6135.86225530664,-118.586250564396,37.471410166769,NA
11739,1983,"CA","CDF CAL FIRE (State)","RRU"," ","00000000",NA,NA,"Unknown/Unidentified",NA,"Suppression (Wildfire)",263.5775,NA,NA,NA,"00000000",NA,"1980-1989",1553333.83203125,6201.56417310892,-117.009643282481,33.929837686342,NA
11764,1983,"CA","NPS National Park Service","YNP","","00000021",NA,NA,"Lightning","Unknown","Resource Benefit (Wildland Fire Use)",151.0011,NA,NA,NA,"00000021",NA,"1980-1989",977291.76953125,5639.61915695093,-119.598810334815,37.6814596547729,NA
11772,1983,"CA","CCO Contract County","LAC"," ","00000000",NA,NA,"Unknown/Unidentified",NA,"Suppression (Wildfire)",122.519,NA,NA,NA,"00000000",NA,"1980-1989",736574.50390625,3524.4362784771,-118.241535590992,34.7730177728291,NA
11779,1983,"CA","USF U.S. Forest Service","CNF"," ","00000000",NA,NA,"Miscellaneous",NA,"Suppression (Wildfire)",109.3601,NA,NA,NA,"00000012",NA,"1980-1989",627681.84765625,3175.05529669764,-116.886628921638,32.7687453768186,NA
11790,1983,"CA","CCO Contract County","MRN","HILL RANCH","00000000",NA,NA,"Unknown/Unidentified",NA,"Suppression (Wildfire)",63.2559,NA,NA,NA,"00000000",NA,"1980-1989",413553.88671875,5968.63627656645,-122.591630732684,38.0567418599611,NA
11796,1983,"CA","USF U.S. Forest Service","CNF"," ","00000000",NA,NA,"Unknown/Unidentified",NA,"Suppression (Wildfire)",55.6587,NA,NA,NA,"00000004",NA,"1980-1989",319463.98046875,2701.98919231785,-116.891658209539,32.7696071978863,NA
11800,1983,"CA","USF U.S. Forest Service","BDF"," ","00000000",NA,NA,"Unknown/Unidentified",NA,"Suppression (Wildfire)",49.11655,NA,NA,NA,"00000000",NA,"1980-1989",288461.8203125,2137.87024261841,-116.905671782707,33.7813573621572,NA
11820,1983,"CA","NPS National Park Service","YNP","STANIS #2",NA,NA,NA,"Miscellaneous","Unknown","Suppression (Wildfire)",11.77354,"20090305",NA,NA,"00000027",NA,"1980-1989",76631.5390625,1357.94647824891,-119.846724923857,37.892217315769,NA
11821,1983,"CA","USF U.S. Forest Service","BDF"," ","00000000",NA,NA,"Unknown/Unidentified",NA,"Suppression (Wildfire)",9.622749,NA,NA,NA,"00000000",NA,"1980-1989",56619.9375,874.978372513817,-116.57818310824,33.8618191492713,NA
11822,1983,"CA","USF U.S. Forest Service","BDF"," ","00000000",NA,NA,"Unknown/Unidentified",NA,"Suppression (Wildfire)",9.535072,NA,NA,NA,"00000000",NA,"1980-1989",56018.953125,1018.74730268394,-116.924185875389,33.796331321687,NA
11694,1983,"CA","CDF CAL FIRE (State)","BDU","WILDWASH","00004232",1983-05-21 07:00:00,NA,"Unknown/Unidentified",NA,"Suppression (Wildfire)",1153.327,NA,NA,NA,"00010343",NA,"1980-1989",6923734.7265625,16688.7731432809,-117.176737781769,34.7130061066985,19.4916015625
11813,1983,"CA","USF U.S. Forest Service","MNF"," ","00000000",1983-05-23 07:00:00,1983-05-26 07:00:00,"Miscellaneous","Unknown","Suppression (Wildfire)",23.05305,NA,NA,NA,"00000002",NA,"1980-1989",158356.08203125,1955.13987887969,-122.864992492849,39.823952512332,15.205712890625
11677,1983,"CA","USF U.S. Forest Service","BDF","SNOW CREEK","00000000",1983-05-25 07:00:00,1983-05-28 07:00:00,"Equipment Use","Unknown","Suppression (Wildfire)",3969.793,NA,NA,NA,"00000010",NA,"1980-1989",23366664.7460938,25993.5880687933,-116.641084163334,33.8775567893406,18.893212890625
11725,1983,"CA","CDF CAL FIRE (State)","BEU","PARSISSONS","00000617",1983-05-26 07:00:00,NA,"Equipment Use",NA,"Suppression (Wildfire)",340.4681,NA,NA,NA,"00000085",NA,"1980-1989",2139796.640625,7462.93329191548,-121.405829375877,36.5609427801125,14.6322265625
11770,1983,"CA","CCO Contract County","LAC","SIXTY SIX","00961174",1983-05-26 07:00:00,NA,"Unknown/Unidentified",NA,"Suppression (Wildfire)",128.723,NA,NA,NA,"00000383",NA,"1980-1989",773489.34765625,3822.82637556009,-118.010464120742,34.7524448072086,23.240625
11782,1983,"CA","USF U.S. Forest Service","SQF"," ","00000000",1983-05-28 07:00:00,1983-05-29 07:00:00,"Miscellaneous","Unknown","Suppression (Wildfire)",105.2564,NA,NA,NA,"00000005",NA,"1980-1989",649110.1875,4163.46765431893,-118.448983103731,35.8126155420157,20.34365234375
11824,1983,"CA","USF U.S. Forest Service","PNF"," ","00000000",1983-05-29 07:00:00,1983-05-30 07:00:00,"Lightning","Unknown","Suppression (Wildfire)",7.406796,NA,NA,NA,"00000007",NA,"1980-1989",51092.1171875,1015.05615096367,-121.077806583296,39.968481777516,18.47060546875
11742,1983,"CA","CCO Contract County","LAC"," ","00000000",1983-05-30 07:00:00,NA,"Unknown/Unidentified",NA,"Suppression (Wildfire)",254.26,NA,NA,NA,"00000000",NA,"1980-1989",1524088.98046875,5455.23893236838,-117.834316341125,34.6495112076647,22.153466796875
11794,1983,"CA","CCO Contract County","LAC","THE MURPHY","00961174",1983-06-02 07:00:00,NA,"Unknown/Unidentified",NA,"Suppression (Wildfire)",58.47364,NA,NA,NA,"00003383",NA,"1980-1989",350950.48828125,2890.85055369421,-118.018765745366,34.7031720636481,12.40517578125
11691,1983,"CA","NPS National Park Service","YNP","JOHNSON","00000011",1983-06-06 07:00:00,1983-11-07 08:00:00,"Lightning","Unknown","Resource Benefit (Wildland Fire Use)",1363.286,NA,NA,NA,"00000011",NA,"1980-1989",8792958.3203125,15808.9305697095,-119.551367684695,37.5523159169869,9.99990234375002
11720,1983,"CA","CCO Contract County","LAC","THE ACRES","00001123",1983-06-06 07:00:00,NA,"Unknown/Unidentified",NA,"Suppression (Wildfire)",375.9796,NA,NA,NA,"00002083",NA,"1980-1989",2260090.54296875,11796.2099800723,-118.270909386232,34.7680534275531,21.0140625
11733,1983,"CA","CDF CAL FIRE (State)","RRU","MORONGO #3","00011143",1983-06-06 07:00:00,NA,"Unknown/Unidentified",NA,"Suppression (Wildfire)",300.3892,NA,NA,NA,"00000389",NA,"1980-1989",1770917.18359375,5347.65823781107,-116.807661199588,33.9454155387376,17.35146484375
11713,1983,"CA","CCO Contract County","SBC","HANDELAS","00000000",1983-06-07 07:00:00,NA,"Miscellaneous",NA,"Suppression (Wildfire)",486.5864,NA,NA,NA,"00000000",NA,"1980-1989",2932802.8515625,7272.48874051917,-119.631987217496,34.8791908055397,21.256982421875
11734,1983,"CA","CCO Contract County","LAC","ALISO","00830801",1983-06-07 07:00:00,NA,"Unknown/Unidentified",NA,"Suppression (Wildfire)",297.3409,NA,NA,NA,"00004983",NA,"1980-1989",1773621.921875,8545.95842511338,-118.160254321673,34.4443709534597,17.0423828125
11763,1983,"CA","CCO Contract County","LAC","THE O'CONNELL","00961174",1983-06-07 07:00:00,NA,"Unknown/Unidentified",NA,"Suppression (Wildfire)",158.445,NA,NA,NA,"00005783",NA,"1980-1989",950742.23046875,3880.33840174922,-118.037071669019,34.6934380318385,20.8333984375
11736,1983,"CA","CDF CAL FIRE (State)","TUU","MUD SPRINGS","00002273",1983-06-08 07:00:00,NA,"Arson",NA,"Suppression (Wildfire)",284.8536,NA,NA,NA,"00000050",NA,"1980-1989",1786353.7578125,5377.1894923338,-119.14401184423,36.4755847205835,21.016748046875
11757,1983,"CA","CCO Contract County","LAC"," ","00000000",1983-06-09 07:00:00,NA,"Unknown/Unidentified",NA,"Suppression (Wildfire)",195.7304,NA,NA,NA,"00000000",NA,"1980-1989",1172414.6875,4827.07161770788,-117.72697205894,34.6201034485048,17.81923828125
11712,1983,"CA","CDF CAL FIRE (State)","SCU","CAT","00000453",1983-06-10 07:00:00,NA,"Equipment Use",NA,"Suppression (Wildfire)",503.1384,NA,NA,NA,"00000087",NA,"1980-1989",3256553.69921875,9169.96056731978,-121.470074184699,37.6835803333047,16.555322265625
11688,1983,"CA","CDF CAL FIRE (State)","BDU","STODDARD","00005305",1983-06-13 07:00:00,NA,"Unknown/Unidentified",NA,"Suppression (Wildfire)",1518.262,NA,NA,NA,"00010462",NA,"1980-1989",9102209.64453125,12617.1023440416,-117.143067976142,34.6564250464713,20.308740234375
11745,1983,"CA","CCO Contract County","SBC","SECONDHAND RANCH","00000000",1983-06-15 07:00:00,NA,"Unknown/Unidentified",NA,"Suppression (Wildfire)",248.4347,NA,NA,NA,"00000000",NA,"1980-1989",1498906.46875,5946.90983575272,-119.703295883336,34.9211176260392,21.33828125
11812,1983,"CA","USF U.S. Forest Service","CNF","TECATE #3","00000000",1983-06-15 07:00:00,NA,"Miscellaneous",NA,"Suppression (Wildfire)",23.51897,NA,NA,NA,"00000001",NA,"1980-1989",134413.08984375,1629.28112939038,-116.649661953305,32.5758784093451,17.67568359375
11693,1983,"CA","CDF CAL FIRE (State)","RRU","CANYON","00011886",1983-06-16 07:00:00,NA,"Unknown/Unidentified",NA,"Suppression (Wildfire)",1231.167,NA,NA,NA,"00000445",NA,"1980-1989",7214235.48046875,12452.7984004991,-117.292426068418,33.6828948848374,17.436669921875
11802,1983,"CA","BLM Bureau of Land Management","BBD","PANOCHE BLM1","00000000",1983-06-16 07:00:00,1983-06-16 07:00:00,"Debris","Unknown","Suppression (Wildfire)",45.43394,NA,NA,NA,"00000000",NA,"1980-1989",286745.6953125,2325.91374082423,-120.716306706782,36.7237730770313,20.767724609375
11678,1983,"CA","CDF CAL FIRE (State)","BTU","MUNJAR","00001753",1983-06-17 07:00:00,NA,"Debris",NA,"Suppression (Wildfire)",3451.917,NA,NA,NA,"00000168",NA,"1980-1989",23755996.4804688,33242.9150273299,-121.905047913123,39.8877997237163,26.131005859375
11722,1983,"CA","CDF CAL FIRE (State)","SCU","WESTLEY","00000499",1983-06-17 07:00:00,NA,"Miscellaneous",NA,"Suppression (Wildfire)",366.7083,NA,NA,NA,"00000095",NA,"1980-1989",2366464.8125,7126.47762270134,-121.315745484141,37.5723100002368,22.375390625
11780,1983,"CA","CDF CAL FIRE (State)","BEU","CARTER RANCH","00000719",1983-06-17 07:00:00,NA,"Miscellaneous",NA,"Suppression (Wildfire)",107.5127,NA,NA,NA,"00000107",NA,"1980-1989",672005,4113.11270384074,-121.195744162802,36.3462160481056,19.512841796875
11690,1983,"CA","CDF CAL FIRE (State)","TUU","CUIDADO","00002505",1983-06-18 07:00:00,NA,"Equipment Use",NA,"Suppression (Wildfire)",1433.113,NA,NA,NA,"00000063",NA,"1980-1989",8866429.58984375,14593.4469871122,-118.872078759279,35.9411761175106,20.581689453125
11702,1983,"CA","CDF CAL FIRE (State)","MVU","CARRIZO","00000748",1983-06-18 07:00:00,NA,"Equipment Use",NA,"Suppression (Wildfire)",694.5098,NA,NA,NA,"00000163",NA,"1980-1989",3986932.94140625,14880.0880223294,-116.287739182313,32.7770156649645,18.828515625
11704,1983,"CA","USF U.S. Forest Service","CNF","CARRIZO","00000000",1983-06-18 07:00:00,NA,"Miscellaneous",NA,"Suppression (Wildfire)",664.8083,NA,NA,NA,"00000002",NA,"1980-1989",3808964.08203125,13549.1385437066,-116.188361201422,32.6889483541693,20.243798828125
11719,1983,"CA","CDF CAL FIRE (State)","TUU","DRY CREEK","00002570",1983-06-20 07:00:00,NA,"Arson",NA,"Suppression (Wildfire)",401.3826,NA,NA,NA,"00000068",NA,"1980-1989",2521585.65625,6557.65795941298,-119.01826637548,36.5445763321994,16.36904296875
11715,1983,"CA","CDF CAL FIRE (State)","BDU","SIDEWINDER#4","00005615",1983-06-21 07:00:00,NA,"Unknown/Unidentified",NA,"Suppression (Wildfire)",465.6964,NA,NA,NA,"00010507",NA,"1980-1989",2792622.90625,7055.18717828368,-116.975354395469,34.6673426471798,19.38125
11737,1983,"CA","CDF CAL FIRE (State)","TCU","GREGORY","00000880",1983-06-24 07:00:00,NA,"Unknown/Unidentified",NA,"Suppression (Wildfire)",271.0245,NA,NA,NA,"00000260",NA,"1980-1989",1772679.8359375,5405.11065646286,-120.913025794494,38.0728934971432,16.29287109375
11729,1983,"CA","CDF CAL FIRE (State)","BDU","ROVANA","00000086",1983-07-01 07:00:00,NA,"Miscellaneous",NA,"Suppression (Wildfire)",317.013,NA,NA,NA,"00000034",NA,"1980-1989",2037682.86328125,9721.7480268391,-118.599195095002,37.423321124131,11.269921875
11751,1983,"CA","CDF CAL FIRE (State)","RRU","SPRINGS","00013061",1983-07-01 07:00:00,NA,"Equipment Use",NA,"Suppression (Wildfire)",224.9276,NA,NA,NA,"00000000",NA,"1980-1989",1326297.5234375,5625.53616500462,-117.272167622187,33.9537473045119,16.03994140625
11808,1983,"CA","USF U.S. Forest Service","CNF","OTAY #1","00000000",1983-07-02 07:00:00,NA,"Miscellaneous",NA,"Suppression (Wildfire)",39.97837,NA,NA,NA,"00000003",NA,"1980-1989",228400.1171875,1897.7929229965,-116.887496341019,32.5600301796088,16.659814453125
11732,1983,"CA","CDF CAL FIRE (State)","LMU","BLM #365","00000067",1983-07-03 07:00:00,NA,"Unknown/Unidentified",NA,"Suppression (Wildfire)",303.195,NA,NA,NA,"00000033",NA,"1980-1989",2118089.56640625,5402.4541901394,-120.409131426674,40.4013190689564,12.55654296875
11710,1983,"CA","CDF CAL FIRE (State)","RRU","NEWPORT","00013513",1983-07-05 07:00:00,NA,"Unknown/Unidentified",NA,"Suppression (Wildfire)",537.4827,NA,NA,NA,"00000565",NA,"1980-1989",3151453.671875,11044.8763565872,-117.163015124344,33.7102027146031,19.97109375
11740,1983,"CA","USF U.S. Forest Service","SQF"," ","00000000",1983-07-05 07:00:00,1983-07-05 07:00:00,"Equipment Use","Unknown","Suppression (Wildfire)",263.3683,NA,NA,NA,"00000019",NA,"1980-1989",1614212.078125,9088.0231437049,-118.196071549253,35.5649783665468,22.22548828125
11756,1983,"CA","CCO Contract County","LAC","90TH ST","00967923",1983-07-05 07:00:00,NA,"Unknown/Unidentified",NA,"Suppression (Wildfire)",198.5453,NA,NA,NA,"00000983",NA,"1980-1989",1190599.97265625,5976.99245906246,-117.956658706164,34.6666754676443,23.005517578125
11771,1983,"CA","USF U.S. Forest Service","CNF","ASSIST #14","00000000",1983-07-05 07:00:00,NA,"Miscellaneous",NA,"Suppression (Wildfire)",125.9262,NA,NA,NA,"00000005",NA,"1980-1989",723597.05859375,3959.49740106782,-117.040759255304,32.8204577849826,17.844384765625
11774,1983,"CA","USF U.S. Forest Service","PNF"," ","00000000",1983-07-05 07:00:00,1983-07-05 07:00:00,"Arson","Unknown","Suppression (Wildfire)",118.7158,NA,NA,NA,"00000026",NA,"1980-1989",815216.68359375,4132.9979769194,-120.304063590261,39.8125815487086,15.918359375
11717,1983,"CA","CDF CAL FIRE (State)","AEU","CLAY","00000976",1983-07-06 07:00:00,NA,"Equipment Use",NA,"Suppression (Wildfire)",404.8088,NA,NA,NA,"00000173",NA,"1980-1989",2666164.4921875,7129.32103412117,-121.134044677779,38.3281390777732,20.513818359375
11676,1983,"CA","USF U.S. Forest Service","LPF","MATILIJA","00000000",1983-07-07 07:00:00,1983-07-16 07:00:00,"Miscellaneous","Unknown","Suppression (Wildfire)",4706.752,NA,NA,NA,"00000019",NA,"1980-1989",28102879.6210938,23232.507417348,-119.367115295695,34.4853972405688,18.047509765625
11765,1983,"CA","CDF CAL FIRE (State)","BDU","WILDWASH#5","00006350",1983-07-07 07:00:00,NA,"Unknown/Unidentified",NA,"Suppression (Wildfire)",142.1794,NA,NA,NA,"00000410",NA,"1980-1989",853220.4609375,3384.60507399874,-117.145595101109,34.6973014514176,25.033349609375
11830,1983,"CA","USF U.S. Forest Service","MDF","VIRGIN","00000000",1983-07-08 07:00:00,1983-07-12 07:00:00,"Lightning","Unknown","Suppression (Wildfire)",2.807566,NA,NA,NA,"00000025",NA,"1980-1989",20262.796875,558.529528546726,-121.528659514749,41.4852226155769,7.83559570312502
11695,1983,"CA","CDF CAL FIRE (State)","SLU","ROTTA/PARSONS","00000000",1983-07-09 07:00:00,NA,"Unknown/Unidentified",NA,"Suppression (Wildfire)",1058.931,NA,NA,NA,"00000000",NA,"1980-1989",6419269.78515625,13861.4169691616,-120.365566151276,35.1164006073795,16.0560546875
11787,1983,"CA","CDF CAL FIRE (State)","SLU","ROTTA","00001148",1983-07-09 07:00:00,NA,"Miscellaneous",NA,"Suppression (Wildfire)",79.24708,NA,NA,NA,"00000180",NA,"1980-1989",480523.90625,2538.1956850686,-120.356031935422,35.127179417066,16.0501953125
11683,1983,"CA","CDF CAL FIRE (State)","LNU","POPE CANYON","00001590",1983-07-10 07:00:00,NA,"Equipment Use",NA,"Suppression (Wildfire)",1682.2,NA,NA,NA,"00000181",NA,"1980-1989",11168467.3125,15492.6518785367,-122.336557731503,38.6188972000965,20.456201171875
11758,1983,"CA","USF U.S. Forest Service","LPF","POPLIN","00000000",1983-07-10 07:00:00,1983-07-10 07:00:00,"Arson","Unknown","Suppression (Wildfire)",193.8992,NA,NA,NA,"00000027",NA,"1980-1989",1156368.33203125,4523.86263698957,-119.345482399544,34.4360077833043,17.56533203125
11762,1983,"CA","CCO Contract County","LAC","RAILROAD","00937366",1983-07-10 07:00:00,NA,"Unknown/Unidentified",NA,"Suppression (Wildfire)",158.9036,NA,NA,NA,"00000983",NA,"1980-1989",946091.51953125,4983.12129525531,-118.518531612253,34.3659139508138,18.975
11750,1983,"CA","CCO Contract County","LAC","SLOAN","00927624",1983-07-11 07:00:00,NA,"Unknown/Unidentified",NA,"Suppression (Wildfire)",225.1994,NA,NA,NA,"00000483",NA,"1980-1989",1343607.28125,6986.80370962329,-118.655898844115,34.4539407034166,19.69375
11797,1983,"CA","CCO Contract County","LAC"," ","00000000",1983-07-11 07:00:00,NA,"Unknown/Unidentified",NA,"Suppression (Wildfire)",54.75152,NA,NA,NA,"00000000",NA,"1980-1989",325390.46484375,2313.20369775162,-117.97791236188,34.2888251049756,20.850732421875
11817,1983,"CA","USF U.S. Forest Service","BDF"," ","00000000",1983-07-11 07:00:00,1983-07-13 07:00:00,"Campfire","Unknown","Suppression (Wildfire)",16.3773,NA,NA,NA,"00000042",NA,"1980-1989",96794.6171875,1147.94468450425,-116.87715660383,34.0534864119852,20.292138671875
11675,1983,"CA","CDF CAL FIRE (State)","SCU","DEL VALLE P.G.&E.","00000745",1983-07-12 07:00:00,NA,"Equipment Use",NA,"Suppression (Wildfire)",4713.369,NA,NA,NA,"00000218",NA,"1980-1989",30393420.6171875,35714.9419135812,-121.642929443839,37.5436634129413,23.9583984375
11692,1983,"CA","CDF CAL FIRE (State)","RRU","SCENIC","00014221",1983-07-12 07:00:00,NA,"Arson",NA,"Suppression (Wildfire)",1327.983,NA,NA,NA,"00000628",NA,"1980-1989",7845519.3359375,14322.8370181101,-117.445531926289,34.0357813024706,24.123681640625
11705,1983,"CA","CDF CAL FIRE (State)","RRU","FRESNO #2","00014210",1983-07-12 07:00:00,NA,"Arson",NA,"Suppression (Wildfire)",641.6544,NA,NA,NA,"00000626",NA,"1980-1989",3776576.2109375,8263.94586649376,-117.630827957538,33.8744013981112,22.2748046875
11711,1983,"CA","CDF CAL FIRE (State)","MMU","OLD TOLL","00000637",1983-07-12 07:00:00,NA,"Unknown/Unidentified",NA,"Suppression (Wildfire)",520.9155,NA,NA,NA,"00000163",NA,"1980-1989",3355843.046875,10956.4718716273,-120.075552200949,37.5078740210786,22.48330078125
11727,1983,"CA","CDF CAL FIRE (State)","FKU","FK 4783","00004783",1983-07-12 07:00:00,NA,"Unknown/Unidentified",NA,"Suppression (Wildfire)",323.4,NA,NA,NA,"00011050",NA,"1980-1989",2033754.5,7653.35875176823,-119.358756500943,36.5844429042787,23.341943359375
11773,1983,"CA","CCO Contract County","LAC","MARY","00928019",1983-07-12 07:00:00,NA,"Unknown/Unidentified",NA,"Suppression (Wildfire)",120.5426,NA,NA,NA,"00000183",NA,"1980-1989",719709.21875,4858.27086921069,-118.096976451039,34.4841392822297,23.08828125
11685,1983,"CA","CDF CAL FIRE (State)","RRU","FRESNO #3","00014298",1983-07-13 07:00:00,NA,"Arson",NA,"Suppression (Wildfire)",1618.502,NA,NA,NA,"00000636",NA,"1980-1989",9525447.9765625,16637.889488343,-117.638212406249,33.8719308845476,22.816552734375
11718,1983,"CA","CDF CAL FIRE (State)","MVU","EUCLID","00001023",1983-07-13 07:00:00,NA,"Equipment Use",NA,"Suppression (Wildfire)",402.0014,NA,NA,NA,"00000298",NA,"1980-1989",2308633.9453125,8961.34152672477,-116.884479422638,32.7942909635411,20.80458984375
11731,1983,"CA","USF U.S. Forest Service","KNF","BEAR","00000000",1983-07-13 07:00:00,1983-07-15 07:00:00,"Playing with Fire","Unknown","Suppression (Wildfire)",308.0937,NA,NA,NA,"00000030",NA,"1980-1989",2246887.55859375,6966.81712735129,-122.947992439518,41.8236280375843,17.557763671875
11769,1983,"CA","CCO Contract County","LAC","BARN","00967925",1983-07-13 07:00:00,NA,"Unknown/Unidentified",NA,"Suppression (Wildfire)",129.2393,NA,NA,NA,"00000383",NA,"1980-1989",775380.55078125,4705.08071041537,-117.949405719935,34.6872749789552,25.871728515625
11706,1983,"CA","CDF CAL FIRE (State)","BTU","SKYWAY #3","00002227",1983-07-14 07:00:00,NA,"Unknown/Unidentified",NA,"Suppression (Wildfire)",603.943,NA,NA,NA,"00000259",NA,"1980-1989",4137209.15234375,14641.62637191,-121.699163137134,39.7285011939148,29.59755859375
11761,1983,"CA","CDF CAL FIRE (State)","AEU","WHITE ROCK","00001091",1983-07-14 07:00:00,NA,"Miscellaneous",NA,"Suppression (Wildfire)",169.2141,NA,NA,NA,"00000211",NA,"1980-1989",1123471.9609375,3990.45797326152,-121.106224535358,38.619854643497,26.58193359375
11823,1983,"CA","USF U.S. Forest Service","STF","MATHER",NA,1983-07-14 07:00:00,1983-07-15 07:00:00,"Miscellaneous","Hand-drawn","Suppression (Wildfire)",7.751752,"20090305",NA,NA,"00000013",NA,"1980-1989",50454.1953125,987.4338285475,-119.843777924878,37.8919651800923,17.61806640625
11684,1983,"CA","CCO Contract County","LAC","ALPINE","00969238",1983-07-15 07:00:00,NA,"Unknown/Unidentified",NA,"Suppression (Wildfire)",1656.366,NA,NA,NA,"00000183",NA,"1980-1989",9925991.671875,21121.3077564553,-117.893380501532,34.6388598623414,24.29580078125
11781,1983,"CA","BLM Bureau of Land Management","BBD","BONANZA","00000000",1983-07-15 07:00:00,1983-07-15 07:00:00,"Unknown/Unidentified","Unknown","Suppression (Wildfire)",107.1211,NA,NA,NA,"00000000",NA,"1980-1989",676948.08984375,3297.57912765736,-121.028230137442,36.7740323845379,17.416162109375
11754,1983,"CA","CCO Contract County","LAC","HOG","00931239",1983-07-17 07:00:00,NA,"Unknown/Unidentified",NA,"Suppression (Wildfire)",204.2311,NA,NA,NA,"00000183",NA,"1980-1989",1217120.25390625,5915.14493401628,-118.432952693331,34.4060276475334,16.752587890625
11804,1983,"CA","CCO Contract County","LAC"," ","00000000",1983-07-17 07:00:00,NA,"Unknown/Unidentified",NA,"Suppression (Wildfire)",44.21383,NA,NA,NA,"00000000",NA,"1980-1989",263680.56640625,2068.18779258067,-118.419884901253,34.4359788367652,16.717431640625
11832,1983,"CA","CCO Contract County","LAC"," ","00000000",1983-07-17 07:00:00,NA,"Unknown/Unidentified",NA,"Suppression (Wildfire)",2.470314,NA,NA,NA,"00000000",NA,"1980-1989",14653.03125,484.817263912534,-118.321468367052,34.2073484519528,16.99697265625
11686,1983,"CA","CDF CAL FIRE (State)","RRU","MCKINLEY","00014739",1983-07-18 07:00:00,NA,"Playing with Fire",NA,"Suppression (Wildfire)",1606.863,NA,NA,NA,"00000689",NA,"1980-1989",9451997.14453125,21094.1841425253,-117.500648845594,33.8493677532259,17.325341796875
11699,1983,"CA","CDF CAL FIRE (State)","NEU","PEORIA","00001848",1983-07-18 07:00:00,NA,"Playing with Fire",NA,"Suppression (Wildfire)",817.4399,NA,NA,NA,"00000532",NA,"1980-1989",5523687.1796875,10041.0957300612,-121.368894222304,39.2493218367231,17.57021484375
11743,1983,"CA","USF U.S. Forest Service","BDF"," ","00000000",1983-07-18 07:00:00,1983-07-19 07:00:00,"Arson","Unknown","Suppression (Wildfire)",250.8784,NA,NA,NA,"00000055",NA,"1980-1989",1479598.68359375,4564.5296635586,-116.815637035781,33.9618930666268,15.930322265625
11786,1983,"CA","CCO Contract County","LAC"," ","00000000",1983-07-18 07:00:00,NA,"Unknown/Unidentified",NA,"Suppression (Wildfire)",79.39509,NA,NA,NA,"00000000",NA,"1980-1989",476257.39453125,3475.84109154709,-118.227570839856,34.6803235059276,17.442529296875
11697,1983,"CA","CCO Contract County","LAC","GARLIC","00961176",1983-07-19 07:00:00,NA,"Unknown/Unidentified",NA,"Suppression (Wildfire)",900.309,NA,NA,NA,"00001983",NA,"1980-1989",5408840.1796875,14921.2399081549,-118.057771303221,34.7441760845967,21.860498046875
11744,1983,"CA","CCO Contract County","LAC","GODDE RANCH","00928442",1983-07-19 07:00:00,NA,"Unknown/Unidentified",NA,"Suppression (Wildfire)",250.5094,NA,NA,NA,"00000683",NA,"1980-1989",1502205.4453125,9093.03939656641,-118.256834648349,34.666671889921,19.964501953125
11791,1983,"CA","USF U.S. Forest Service","CNF","TECATE #14","00000000",1983-07-20 07:00:00,NA,"Miscellaneous",NA,"Suppression (Wildfire)",62.02425,NA,NA,NA,"00000007",NA,"1980-1989",354545.7578125,2232.07234435097,-116.654771896533,32.5849974520077,20.35830078125
11801,1983,"CA","USF U.S. Forest Service","CNF","WILDCAT","00000000",1983-07-20 07:00:00,NA,"Miscellaneous",NA,"Suppression (Wildfire)",47.67947,NA,NA,NA,"00000008",NA,"1980-1989",274484.50390625,2110.63984012716,-116.882041208893,32.9035046594687,19.808251953125
11726,1983,"CA","CDF CAL FIRE (State)","RRU","GOETZ SERIES","0014991A",1983-07-21 07:00:00,NA,"Arson",NA,"Suppression (Wildfire)",331.7416,NA,NA,NA,"00000725",NA,"1980-1989",1944887.640625,12202.4033683955,-117.231205275326,33.7048889843969,23.646142578125
11816,1983,"CA","USF U.S. Forest Service","SQF"," ","00000000",1983-07-22 07:00:00,1983-07-22 07:00:00,"Arson","Unknown","Suppression (Wildfire)",18.03262,NA,NA,NA,"00000030",NA,"1980-1989",110921.01953125,1365.57824379238,-118.419448582528,35.7096115825013,20.257470703125
11679,1983,"CA","USF U.S. Forest Service","BDF","BANNING","00000000",1983-07-23 07:00:00,1983-07-26 07:00:00,"Arson","Unknown","Suppression (Wildfire)",3136.846,NA,NA,NA,"00000061",NA,"1980-1989",18473835.3476562,24170.5730802167,-116.728979399508,33.9008542722957,20.6693359375
11680,1983,"CA","CDF CAL FIRE (State)","RRU","BANNING","00015166",1983-07-23 07:00:00,NA,"Arson",NA,"Suppression (Wildfire)",2672.338,NA,NA,NA,"00000000",NA,"1980-1989",15738686.7460938,24545.1109700232,-116.835802313023,33.9021631987962,20.59169921875
11747,1983,"CA","CCO Contract County","VNC","HOPPER CANYON","00000000",1983-07-23 07:00:00,NA,"Unknown/Unidentified",NA,"Suppression (Wildfire)",232.4762,NA,NA,NA,"00000000",NA,"1980-1989",1385688.34765625,5307.86342338336,-118.83832846348,34.4133546399342,20.56728515625
11783,1983,"CA","USF U.S. Forest Service","BDF"," ","00000000",1983-07-23 07:00:00,1983-07-23 07:00:00,"Miscellaneous","Unknown","Suppression (Wildfire)",97.27055,NA,NA,NA,"00000062",NA,"1980-1989",568116.0625,4183.51560357145,-116.777873285691,33.5409176747633,19.258203125
11748,1983,"CA","USF U.S. Forest Service","CNF","OUTSIDE ORIGIN #5","00000000",1983-07-24 07:00:00,NA,"Unknown/Unidentified",NA,"Suppression (Wildfire)",231.322,NA,NA,NA,"00000009",NA,"1980-1989",1322218.63671875,6342.8571031215,-116.598994904084,32.5823893648818,20.4203125
11755,1983,"CA","CCO Contract County","LAC","DUMP","00002415",1983-07-25 07:00:00,NA,"Unknown/Unidentified",NA,"Suppression (Wildfire)",201.3898,NA,NA,NA,"00000983",NA,"1980-1989",1204988.29296875,7712.4228339449,-118.145719821533,34.5740262242965,17.617333984375
11826,1983,"CA","USF U.S. Forest Service","PNF"," ","00000000",1983-07-25 07:00:00,1983-07-26 07:00:00,"Miscellaneous","Unknown","Suppression (Wildfire)",7.244895,NA,NA,NA,"00000037",NA,"1980-1989",50105.078125,930.039941021123,-121.053624434093,40.0576557477775,13.125390625
11716,1983,"CA","CCO Contract County","LAC","SECOND","00961176",1983-07-26 07:00:00,NA,"Unknown/Unidentified",NA,"Suppression (Wildfire)",439.8302,NA,NA,NA,"00004383",NA,"1980-1989",2639666.15625,9642.95594545445,-118.043987309377,34.7010816181404,19.208642578125
11746,1983,"CA","CDF CAL FIRE (State)","FKU","FRIANT","00005327",1983-07-28 07:00:00,NA,"Arson",NA,"Suppression (Wildfire)",236.1199,NA,NA,NA,"00000166",NA,"1980-1989",1498755.07421875,5303.81296485031,-119.72230894369,36.9442221015486,23.002099609375
11759,1983,"CA","CCO Contract County","LAC"," ","00000000",1983-07-28 07:00:00,NA,"Unknown/Unidentified",NA,"Suppression (Wildfire)",192.9268,NA,NA,NA,"00000000",NA,"1980-1989",1159786.12109375,5613.50566967595,-118.191557359389,34.7703317010536,20.21474609375
11814,1983,"CA","USF U.S. Forest Service","SNF","SYCAMORE #4","00000000",1983-07-29 07:00:00,1983-07-29 07:00:00,"Equipment Use","Unknown","Suppression (Wildfire)",19.03465,NA,NA,NA,"00000029",NA,"1980-1989",120923.34375,1329.01457569621,-119.338715665021,36.9766892451794,20.0296875
11798,1983,"CA","CCO Contract County","LAC"," ","00000000",1983-07-31 07:00:00,NA,"Unknown/Unidentified",NA,"Suppression (Wildfire)",50.07909,NA,NA,NA,"00000000",NA,"1980-1989",298827.2109375,2369.29242509393,-118.660923415326,34.4596290091993,23.62197265625
11741,1983,"CA","CDF CAL FIRE (State)","SHU","KITTYHAWK","00002144",1983-08-01 07:00:00,NA,"Unknown/Unidentified",NA,"Suppression (Wildfire)",262.6048,NA,NA,NA,"00000432",NA,"1980-1989",1850879.03515625,7287.60947514499,-122.290104218505,40.7006790227586,24.68447265625
11760,1983,"CA","USF U.S. Forest Service","CNF","MCCAIN","00000000",1983-08-01 07:00:00,NA,"Lightning",NA,"Suppression (Wildfire)",192.7171,NA,NA,NA,"00000010",NA,"1980-1989",1106485.328125,4885.59985996521,-116.262495115254,32.7837493267386,26.29287109375
11767,1983,"CA","CCO Contract County","LAC"," ","00000000",1983-08-01 07:00:00,NA,"Unknown/Unidentified",NA,"Suppression (Wildfire)",139.6461,NA,NA,NA,"00000000",NA,"1980-1989",835917.296875,5360.45854699466,-117.959027867225,34.5922642696249,22.7484375
11793,1983,"CA","USF U.S. Forest Service","CNF","DEHESA #7","00000000",1983-08-02 07:00:00,NA,"Miscellaneous",NA,"Suppression (Wildfire)",59.61489,NA,NA,NA,"00000011",NA,"1980-1989",342265.20703125,2729.65745749577,-116.867239589292,32.7819280977963,21.8783203125
11777,1983,"CA","USF U.S. Forest Service","CNF","FLINN","00000000",1983-08-03 07:00:00,NA,"Miscellaneous",NA,"Suppression (Wildfire)",114.4074,NA,NA,NA,"00000013",NA,"1980-1989",655407.08203125,3716.53246734559,-116.35498349781,32.6834224657696,23.013818359375
11696,1983,"CA","CDF CAL FIRE (State)","FKU","FK 11246-11248","00005575",1983-08-04 07:00:00,NA,"Unknown/Unidentified",NA,"Suppression (Wildfire)",915.6554,NA,NA,NA,"00011246",NA,"1980-1989",5712906.84765625,11260.1486720767,-120.287643050161,36.2752429933017,26.070947265625
11687,1983,"CA","CDF CAL FIRE (State)","TUU","COOPER","00000000",1983-08-05 07:00:00,NA,"Unknown/Unidentified",NA,"Suppression (Wildfire)",1544.189,NA,NA,NA,"00000000",NA,"1980-1989",9716138.01171875,17908.6364757362,-118.986710166013,36.6054955965905,20.422021484375
11721,1983,"CA","CDF CAL FIRE (State)","MVU","MARRON","00001284",1983-08-06 07:00:00,NA,"Unknown/Unidentified",NA,"Suppression (Wildfire)",374.7257,NA,NA,NA,"00000435",NA,"1980-1989",2141742.09375,6129.14924329156,-116.775808393735,32.5790457762579,23.92666015625
11789,1983,"CA","USF U.S. Forest Service","MNF"," ","00000000",1983-08-06 07:00:00,1983-08-07 07:00:00,"Smoking","Unknown","Suppression (Wildfire)",66.33007,NA,NA,NA,"00000011",NA,"1980-1989",457293.62109375,3583.27182462055,-122.968207754407,39.9495207445829,18.89296875
11728,1983,"CA","CDF CAL FIRE (State)","SCU","PORT COSTA","00000957",1983-08-07 07:00:00,NA,"Unknown/Unidentified",NA,"Suppression (Wildfire)",319.3636,NA,NA,NA,"00000000",NA,"1980-1989",2087487.953125,8998.64641375479,-122.194848827804,38.0488823787952,23.5150390625
11752,1983,"CA","CDF CAL FIRE (State)","LNU","CLEEK","00001953",1983-08-07 07:00:00,NA,"Arson",NA,"Suppression (Wildfire)",219.6183,NA,NA,NA,"00000253",NA,"1980-1989",1441132.7734375,5085.41807275135,-122.160966760934,38.1927200649625,24.3734375
11825,1983,"CA","USF U.S. Forest Service","MDF","TWO","00000000",1983-08-08 07:00:00,1983-08-08 07:00:00,"Lightning","Unknown","Suppression (Wildfire)",7.27681,NA,NA,NA,"00000076",NA,"1980-1989",51881.07421875,1063.3270035203,-121.03406080851,41.0839069246016,20.43447265625
11831,1983,"CA","CCO Contract County","LAC"," ","00000000",1983-08-08 07:00:00,NA,"Unknown/Unidentified",NA,"Suppression (Wildfire)",2.646991,NA,NA,NA,"00000000",NA,"1980-1989",15669.36328125,497.927914928556,-118.338112749246,34.1213760968642,26.652001953125
11730,1983,"CA","CDF CAL FIRE (State)","RRU","BEDFORD","00016951",1983-08-13 07:00:00,NA,"Equipment Use",NA,"Suppression (Wildfire)",308.5093,NA,NA,NA,"00000914",NA,"1980-1989",1812472.69140625,6630.20893024863,-117.514734083999,33.7955608072999,26.882958984375
11792,1983,"CA","BLM Bureau of Land Management","NOD"," ","00000000",1983-08-13 07:00:00,NA,"Lightning",NA,"Suppression (Wildfire)",60.35487,NA,NA,NA,"0000O400",NA,"1980-1989",437048.75390625,2594.48254209129,-120.073087392333,41.5939066251925,17.68740234375
11703,1983,"CA","CDF CAL FIRE (State)","MVU","ASSIST #28","00000000",1983-08-14 07:00:00,NA,"Unknown/Unidentified",NA,"Suppression (Wildfire)",679.8206,NA,NA,NA,"000095.1",NA,"1980-1989",3952239.15234375,8914.25653960689,-117.306468678438,33.3385323525755,24.58388671875
11818,1983,"CA","USF U.S. Forest Service","SQF"," ","00000000",1983-08-16 07:00:00,1983-08-17 07:00:00,"Lightning","Unknown","Suppression (Wildfire)",14.77094,NA,NA,NA,"00000054",NA,"1980-1989",90562.91015625,1453.00446708933,-118.519850082226,35.5785084773361,19.875634765625
11776,1983,"CA","USF U.S. Forest Service","CNF","ASSIST #31","00000000",1983-08-20 07:00:00,NA,"Miscellaneous",NA,"Suppression (Wildfire)",114.649,NA,NA,NA,"00000016",NA,"1980-1989",667561.8203125,3442.57493801224,-117.278911797592,33.4065434415214,20.68154296875
11778,1983,"CA","CDF CAL FIRE (State)","MVU","FOSTER","00001430",1983-08-23 07:00:00,NA,"Arson",NA,"Suppression (Wildfire)",114.0557,NA,NA,NA,"00000513",NA,"1980-1989",657175.578125,3938.99167305237,-116.940399792752,32.9423893967309,17.251611328125
11775,1983,"CA","CDF CAL FIRE (State)","SLU","MESA #2","00001622",1983-08-25 07:00:00,NA,"Unknown/Unidentified",NA,"Suppression (Wildfire)",115.418,NA,NA,NA,"00000000",NA,"1980-1989",698042.2421875,3824.89485346082,-120.557054266787,35.0206362519388,16.639794921875
11815,1983,"CA","CCO Contract County","LAC"," ","00000000",1983-08-26 07:00:00,NA,"Unknown/Unidentified",NA,"Suppression (Wildfire)",18.4844,NA,NA,NA,"00000000",NA,"1980-1989",109808.4609375,1784.01339249335,-117.741395905386,34.2714335673316,17.909326171875
11809,1983,"CA","BLM Bureau of Land Management","NOD","STINER FLT","00000000",1983-08-27 07:00:00,1983-08-27 07:00:00,"Equipment Use","Unknown","Suppression (Wildfire)",30.47916,NA,NA,NA,"00000000",NA,"1980-1989",214870.54296875,1850.28946578935,-123.084403967225,40.7083545522106,12.875146484375
11707,1983,"CA","CDF CAL FIRE (State)","AEU","MEISS","00001630",1983-08-28 07:00:00,NA,"Equipment Use",NA,"Suppression (Wildfire)",602.9999,NA,NA,NA,"00000392",NA,"1980-1989",3986785.50390625,8853.03947749458,-121.107960614294,38.4677008926245,21.317529296875
11749,1983,"CA","CDF CAL FIRE (State)","LNU","POPE","00002186",1983-08-28 07:00:00,NA,"Equipment Use",NA,"Suppression (Wildfire)",226.1267,NA,NA,NA,"00000298",NA,"1980-1989",1499391.52734375,4433.82034433602,-122.384137651716,38.5729197051137,18.336083984375
11803,1983,"CA","USF U.S. Forest Service","SQF"," ","00000000",1983-08-29 07:00:00,1983-08-29 07:00:00,"Arson","Unknown","Suppression (Wildfire)",44.33286,NA,NA,NA,"00000062",NA,"1980-1989",274898.62109375,3091.72339576349,-118.793968703292,36.0309617954081,19.6341796875
11753,1983,"CA","CCO Contract County","LAC","LOPER","00000000",1983-08-30 07:00:00,NA,"Unknown/Unidentified",NA,"Suppression (Wildfire)",208.4417,NA,NA,NA,"00000000",NA,"1980-1989",1239327.77734375,5078.14311514573,-118.386070714242,34.3076676898252,22.833642578125
11674,1983,"CA","CDF CAL FIRE (State)","FKU","DONUT","00006364",1983-08-31 07:00:00,NA,"Lightning",NA,"Suppression (Wildfire)",9310.304,NA,NA,NA,"00000215",NA,"1980-1989",58121412.9960938,42680.1003941676,-120.395932331205,36.2973139718573,22.3705078125
11701,1983,"CA","CDF CAL FIRE (State)","MMU","LIGHTNING #7","00000911",1983-08-31 07:00:00,NA,"Unknown/Unidentified",NA,"Suppression (Wildfire)",704.8415,NA,NA,NA,"00000241",NA,"1980-1989",4552504.86328125,13332.1285941461,-120.07560981331,37.605130544116,21.809716796875
11829,1983,"CA","DOD Department of Defense","AFV","BOAT_HOUSE","00000000",1983-09-01 07:00:00,1983-09-01 07:00:00,"Railroad","Other Imagery","Suppression (Wildfire)",2.977848,NA,NA,NA,"00000000",NA,"1980-1989",17811.43359375,550.535040074687,-120.60568733611,34.5596438479932,17.961572265625
11681,1983,"CA","CDF CAL FIRE (State)","BTU","HAMLIN CANYON","00001290",1983-09-03 07:00:00,NA,"Unknown/Unidentified",NA,"Suppression (Wildfire)",2633.68,NA,NA,NA,"00000396",NA,"1980-1989",18026001.6796875,27280.8082239283,-121.64935589026,39.6984677865124,18.839990234375
11689,1983,"CA","CDF CAL FIRE (State)","BDU","SUMMIT","00008921",1983-09-04 07:00:00,NA,"Unknown/Unidentified",NA,"Suppression (Wildfire)",1437.036,NA,NA,NA,"00000699",NA,"1980-1989",8549467.4609375,22534.1932391353,-117.344920037828,34.3339589413054,20.87783203125
11788,1983,"CA","USF U.S. Forest Service","STF","HUNTER ",NA,1983-09-08 07:00:00,1983-09-09 07:00:00,"Miscellaneous","Hand-drawn","Suppression (Wildfire)",76.75723,"20090305",NA,NA,"00000029",NA,"1980-1989",499264.28515625,3165.04120307405,-120.116596892152,37.8674812177991,19.273095703125
11723,1983,"CA","USF U.S. Forest Service","CNF","ASSIST #37","00000000",1983-09-09 07:00:00,NA,"Miscellaneous",NA,"Suppression (Wildfire)",365.0589,NA,NA,NA,"00000018",NA,"1980-1989",2103125.6875,5400.98499115468,-117.118898104216,32.9360018848604,20.479150390625
11735,1983,"CA","CDF CAL FIRE (State)","MVU","CEDAR","00001553",1983-09-10 07:00:00,NA,"Smoking",NA,"Suppression (Wildfire)",292.1497,NA,NA,NA,"00000569",NA,"1980-1989",1671192.5,7045.72166995173,-116.81043916027,32.6173033721862,22.76064453125
11805,1983,"CA","DOD Department of Defense","AFV","MESA","00000000",1983-09-10 07:00:00,1983-09-10 07:00:00,"Unknown/Unidentified","Other Imagery","Suppression (Wildfire)",43.63653,NA,NA,NA,"00000000",NA,"1980-1989",261582.734375,2878.99060148662,-120.58020320491,34.6524813038965,19.178857421875
11700,1983,"CA","CDF CAL FIRE (State)","LNU","MARCH #2","00002188",1983-09-11 07:00:00,NA,"Debris",NA,"Suppression (Wildfire)",712.6026,NA,NA,NA,"00000327",NA,"1980-1989",4749516.81640625,9537.33842697782,-122.240517508877,38.7589877199105,21.182763671875
11698,1983,"CA","CDF CAL FIRE (State)","NEU","NONE","00002699",1983-09-13 07:00:00,NA,"Unknown/Unidentified",NA,"Suppression (Wildfire)",820.9001,NA,NA,NA,"00010104",NA,"1980-1989",5483533.31640625,10529.2026419242,-121.367381063323,38.8391084286388,26.186669921875
11724,1983,"CA","CDF CAL FIRE (State)","MVU","ASSIST #38","00001577",1983-09-13 07:00:00,NA,"Unknown/Unidentified",NA,"Suppression (Wildfire)",351.3198,NA,NA,NA,"00000582",NA,"1980-1989",2045727.2265625,5262.53918459509,-117.26856332589,33.4089379195008,22.860986328125
11709,1983,"CA","CDF CAL FIRE (State)","BDU","HILLS","00009299",1983-09-14 07:00:00,NA,"Equipment Use",NA,"Suppression (Wildfire)",581.3018,NA,NA,NA,"00000736",NA,"1980-1989",3425527.07421875,11617.1278104641,-117.691261978123,33.9267999641569,22.5599609375
11811,1983,"CA","USF U.S. Forest Service","TOI"," ","00000000",1983-09-16 07:00:00,NA,"Equipment Use",NA,"Suppression (Wildfire)",23.89065,NA,NA,NA,"00000000",NA,"1980-1989",158064.1015625,1776.00160385253,-119.48799580575,38.4929239988285,10.2728515625
11810,1983,"CA","CCO Contract County","LAC"," ","00000000",1983-09-18 07:00:00,NA,"Unknown/Unidentified",NA,"Suppression (Wildfire)",26.74027,NA,NA,NA,"00000000",NA,"1980-1989",158747.98828125,1567.73455811361,-117.868864175384,34.2432729098082,20.1615234375
11714,1983,"CA","CDF CAL FIRE (State)","LNU","MORGAN VALLEY","00002431",1983-09-19 07:00:00,NA,"Arson",NA,"Suppression (Wildfire)",471.287,NA,NA,NA,"00000345",NA,"1980-1989",3152590.23828125,8342.28703066204,-122.559791642613,38.8895869646909,18.889794921875
11708,1983,"CA","CDF CAL FIRE (State)","BDU","WHITE","00009610",1983-09-24 07:00:00,NA,"Miscellaneous",NA,"Suppression (Wildfire)",596.6312,NA,NA,NA,"00000766",NA,"1980-1989",3556192.796875,8903.85259814007,-117.463992838672,34.412637039134,17.4125
11784,1983,"CA","USF U.S. Forest Service","CNF","VALLEY","00000000",1983-10-02 07:00:00,1983-10-03 07:00:00,"Arson","Unknown","Suppression (Wildfire)",89.98923,NA,NA,NA,"00000052",NA,"1980-1989",520471.6796875,3775.52205134045,-116.861186963903,33.1105988813858,14.24990234375
11785,1983,"CA","USF U.S. Forest Service","CNF","ASSIST #43","00000000",1983-10-02 07:00:00,NA,"Miscellaneous",NA,"Suppression (Wildfire)",79.69996,NA,NA,NA,"00000020",NA,"1980-1989",460981.57421875,3729.51819363052,-116.863464902226,33.112528984156,14.253564453125
11806,1983,"CA","USF U.S. Forest Service","CNF","OROSCO","00000000",1983-10-05 07:00:00,1983-10-05 07:00:00,"Equipment Use","Unknown","Suppression (Wildfire)",43.37085,NA,NA,NA,"00000053",NA,"1980-1989",250820.91796875,1921.00436299816,-116.871067260753,33.1064385279047,16.144921875
11827,1983,"CA","USF U.S. Forest Service","TOI"," ","00000000",1983-10-08 07:00:00,NA,"Playing with Fire",NA,"Suppression (Wildfire)",7.14682,NA,NA,NA,"00000051",NA,"1980-1989",47683.08984375,809.527793018584,-119.778616439411,38.7962304067612,9.22695312500002
11828,1983,"CA","USF U.S. Forest Service","SRF"," ","00000000",1983-10-09 07:00:00,1983-10-09 07:00:00,"Debris","Unknown","Suppression (Wildfire)",2.987301,NA,NA,NA,"00000034",NA,"1980-1989",21068.68359375,515.201512559719,-123.623914216877,40.7225526843341,11.844384765625
11799,1983,"CA","USF U.S. Forest Service","CNF","SYCAMORE","00000000",1983-10-11 07:00:00,NA,"Miscellaneous",NA,"Suppression (Wildfire)",49.12502,NA,NA,NA,"00000021",NA,"1980-1989",281216.99609375,2448.87911414455,-116.80315386344,32.6503588427758,16.912255859375
11807,1983,"CA","USF U.S. Forest Service","CNF","HARBISON","00000000",1983-10-11 07:00:00,NA,"Miscellaneous",NA,"Suppression (Wildfire)",42.44243,NA,NA,NA,"00000022",NA,"1980-1989",243957.84765625,2603.87225323196,-116.822690944263,32.8342695877542,17.15224609375
11795,1983,"CA","CCO Contract County","MRN","LES","00001455",1983-10-23 07:00:00,NA,"Unknown/Unidentified",NA,"Suppression (Wildfire)",57.46242,NA,NA,NA,"00000058",NA,"1980-1989",376966.65625,2456.202345969,-122.59692777333,38.182886919011,15.51455078125
11766,1983,"CA","CDF CAL FIRE (State)","MVU"," ","00001826",1983-10-25 07:00:00,NA,"Arson",NA,"Suppression (Wildfire)",141.2944,NA,NA,NA,"00000678",NA,"1980-1989",811076.03515625,3924.69675921813,-116.8938064741,32.7745524396428,19.005517578125
11768,1983,"CA","USF U.S. Forest Service","CNF","ASSIST #49","00000000",1983-10-26 07:00:00,NA,"Miscellaneous",NA,"Suppression (Wildfire)",130.8752,NA,NA,NA,"00000025",NA,"1980-1989",747412.7421875,4390.65737591414,-117.098196332545,32.5424819322478,22.823388671875
11819,1983,"CA","USF U.S. Forest Service","SQF"," ","00000000",1983-11-06 08:00:00,1983-11-06 08:00:00,"Miscellaneous","Unknown","Suppression (Wildfire)",12.67716,NA,NA,NA,"00000086",NA,"1980-1989",77496.234375,1163.54276708971,-118.775824401568,35.4587729119037,10.58193359375
